Time, X, Y, Z, Pitch, Yaw, Roll, errorHeight, errorRoll, errorPitch, errorYaw, HLeadOut, HIntegralOut, HeightError, HVelLeadOut->yl[0], ctrl_vel_h->ref
------------------------[Parameters]------------------------
HOVER_VALUE, ctrl_x->ref, ctrl_y->ref, ctrl_yaw->ref, ctrl_h->ref, ctrl_h->kp, ctrl_h->tau_i, ctrl_h->tau_d, ctrl_h->alpha, ctrl_vel_x->tau_i, ctrl_vel_x->tau_d, ctrl_vel_x->alpha, ctrl_vel_h->kp, ctrl_vel_h->tau_i, ctrl_vel_h->tau_d
445.000, 0.047, 2.830, -0.021, 4.000, 18.411, 0.000, 0.000, 0.000, 0.000, 0.347, 0.300, 44.668, 0.000, 0.756, 
------------------------[Parameters]------------------------
0.265,0.048,2.831,0.390,0.006,-0.017,0.007,467.241,-0.091,-0.050,0.021,0.390,0.000,-3.610
0.516,0.047,2.826,0.406,0.018,-0.031,-0.013,464.668,0.246,0.022,0.082,0.406,0.000,-3.594
0.766,0.078,2.811,0.728,0.007,-0.054,-0.005,426.679,0.932,-1.901,0.329,0.722,0.000,-3.272
1.021,0.099,2.807,0.929,0.001,-0.060,-0.001,435.311,0.752,-2.034,0.427,0.923,0.000,-3.071
1.278,0.112,2.803,1.139,-0.001,-0.070,-0.015,435.621,0.739,-1.773,0.510,1.094,0.000,-2.861
1.535,0.119,2.797,1.293,0.011,-0.077,-0.018,446.689,0.954,-1.469,0.591,1.280,0.000,-2.707
1.795,0.123,2.788,1.392,0.012,-0.077,-0.017,442.273,1.513,-1.468,0.622,1.380,0.000,-2.608
2.059,0.141,2.739,1.798,0.015,-0.086,-0.010,449.238,2.266,-1.563,0.742,1.777,0.000,-2.202
2.312,0.146,2.731,1.880,0.017,-0.088,-0.016,450.073,2.330,-1.749,0.749,1.873,0.000,-2.120
2.576,0.156,2.717,1.996,0.009,-0.089,-0.016,453.671,2.687,-1.975,0.769,1.983,0.000,-2.004
2.840,0.165,2.700,2.089,0.012,-0.090,-0.017,454.335,3.221,-2.092,0.766,2.086,0.000,-1.911
3.095,0.178,2.674,2.218,0.013,-0.087,-0.006,450.099,3.958,-2.405,0.766,2.209,0.000,-1.782
3.347,0.190,2.657,2.315,0.012,-0.089,0.000,453.498,3.949,-2.557,0.757,2.312,0.000,-1.685
3.603,0.203,2.641,2.452,0.008,-0.088,-0.006,443.223,4.076,-2.824,0.768,2.445,0.000,-1.548
3.855,0.212,2.631,2.573,0.013,-0.087,-0.007,449.088,3.896,-2.744,0.766,2.564,0.000,-1.427
4.114,0.221,2.619,2.693,0.009,-0.088,-0.018,438.576,4.443,-2.951,0.763,2.693,0.000,-1.307
4.366,0.242,2.513,3.266,0.014,-0.088,0.005,453.380,5.930,-2.700,0.775,3.250,0.000,-0.734
4.623,0.250,2.503,3.421,0.013,-0.091,-0.012,447.829,5.855,-3.025,0.788,3.415,0.000,-0.579
4.879,0.259,2.492,3.549,0.011,-0.090,-0.013,447.450,6.259,-3.277,0.798,3.546,0.000,-0.451
5.131,0.267,2.474,3.697,0.009,-0.088,-0.004,452.635,6.610,-3.199,0.796,3.687,0.000,-0.303
5.383,0.272,2.457,3.842,0.013,-0.088,-0.002,450.377,6.931,-3.118,0.794,3.835,0.000,-0.158
5.636,0.275,2.446,3.961,0.019,-0.090,-0.001,447.847,6.951,-3.209,0.783,3.961,0.000,-0.039
5.890,0.282,2.441,4.105,0.014,-0.087,0.000,407.964,6.641,-3.367,0.765,4.087,0.000,0.105
6.141,0.288,2.422,3.921,0.010,-0.089,-0.017,482.469,7.260,-3.181,0.772,3.949,0.000,-0.079
6.391,0.289,2.405,3.881,0.016,-0.091,-0.009,473.216,8.096,-3.120,0.805,3.882,0.000,-0.119
6.648,0.290,2.378,3.931,0.009,-0.096,-0.006,458.441,8.671,-3.071,0.825,3.923,0.000,-0.069
6.904,0.289,2.354,4.049,0.014,-0.094,0.006,408.315,8.754,-2.932,0.855,4.032,0.000,0.049
7.155,0.287,2.344,4.105,0.020,-0.097,-0.001,415.149,8.572,-2.811,0.855,4.104,0.000,0.105
7.406,0.288,2.341,4.052,0.019,-0.094,-0.001,431.717,8.126,-3.075,0.822,4.065,0.000,0.052
7.658,0.291,2.342,3.941,0.011,-0.091,-0.013,483.987,7.933,-3.319,0.809,3.947,0.000,-0.059
7.911,0.296,2.335,3.887,0.010,-0.092,-0.016,470.727,8.482,-3.335,0.808,3.884,0.000,-0.113
8.173,0.294,2.313,4.065,0.015,-0.088,0.005,408.658,8.774,-2.970,0.776,4.065,0.000,0.065
8.425,0.292,2.314,4.100,0.028,-0.086,-0.010,422.420,8.355,-3.077,0.773,4.101,0.000,0.100
8.679,0.297,2.314,4.024,0.021,-0.084,-0.018,434.391,8.419,-3.522,0.744,4.038,0.000,0.024
8.932,0.310,2.304,3.905,0.007,-0.077,-0.013,483.536,9.115,-4.026,0.687,3.913,0.000,-0.095
9.196,0.313,2.281,3.893,0.003,-0.078,-0.002,464.133,9.930,-3.411,0.649,3.890,0.000,-0.107
9.448,0.303,2.268,3.962,0.018,-0.078,0.007,454.701,9.820,-2.723,0.653,3.960,0.000,-0.038
9.704,0.292,2.260,4.071,0.029,-0.082,0.001,410.986,9.500,-2.651,0.666,4.057,0.000,0.071
9.958,0.293,2.257,4.082,0.020,-0.082,-0.015,424.721,9.512,-3.152,0.700,4