Time, X, Y, Z, Pitch, Yaw, Roll, errorHeight, errorRoll, errorPitch, errorYaw, HLeadOut, HIntegralOut, HeightError
------------------------[Parameters]------------------------
HOVER_VALUE, ctrl_x->ref, ctrl_y->ref, ctrl_yaw->ref, ctrl_h->ref, ctrl_h->kp, ctrl_h->tau_i, ctrl_h->tau_d, ctrl_h->alpha, ctrl_vel_x->tau_i, ctrl_vel_x->tau_d, ctrl_vel_x->alpha
430.000, 0.195, 0.788, 0.074, 4.000, 12.589, 0.000, 0.745, 0.070, 0.000, 0.347, 0.300, 
------------------------[Parameters]------------------------
0.252,0.197,0.789,0.432,0.024,0.074,-0.014,474.923,-0.046,-0.101,0.012,0.432,0.000,-3.568
0.505,0.196,0.791,0.435,0.026,0.074,-0.010,474.895,-0.138,0.036,-0.002,0.434,0.000,-3.565
0.758,0.203,0.821,0.478,0.062,0.068,0.065,474.491,-1.275,-0.183,0.033,0.466,0.000,-3.522
1.008,0.211,0.888,0.619,0.039,0.054,0.024,473.002,-3.107,-0.254,0.161,0.584,0.000,-3.381
1.260,0.222,0.985,0.847,0.042,0.047,-0.017,470.360,-5.340,-0.457,0.271,0.794,0.000,-3.153
1.511,0.229,1.083,1.145,0.039,0.038,-0.064,466.769,-6.809,-0.451,0.380,1.079,0.000,-2.855
1.763,0.231,1.154,1.467,0.039,0.035,-0.087,462.650,-7.266,-0.359,0.437,1.407,0.000,-2.533
2.015,0.227,1.189,1.827,0.039,0.030,-0.106,458.390,-7.140,-0.174,0.495,1.745,0.000,-2.173
2.267,0.219,1.179,2.153,0.046,0.026,-0.099,454.231,-5.827,0.027,0.531,2.075,0.000,-1.847
2.518,0.207,1.130,2.463,0.044,0.027,-0.079,450.339,-4.051,0.221,0.538,2.384,0.000,-1.537
2.770,0.195,1.062,2.747,0.049,0.025,-0.051,446.534,-2.667,0.346,0.546,2.687,0.000,-1.253
3.022,0.183,0.982,3.027,0.053,0.025,-0.025,443.070,-1.246,0.498,0.563,2.962,0.000,-0.973
3.273,0.175,0.916,3.267,0.053,0.026,-0.007,439.877,-0.142,0.554,0.564,3.215,0.000,-0.733
3.525,0.171,0.866,3.491,0.051,0.023,0.006,437.060,-0.152,0.504,0.572,3.439,0.000,-0.509
3.777,0.169,0.841,3.671,0.044,0.018,-0.000,434.658,-0.204,0.404,0.587,3.630,0.000,-0.329
4.029,0.172,0.839,3.808,0.054,0.018,-0.007,432.801,-0.679,0.339,0.626,3.777,0.000,-0.192
4.280,0.179,0.853,3.905,0.055,0.017,-0.022,431.458,-1.401,0.082,0.654,3.884,0.000,-0.095
4.532,0.190,0.874,3.960,0.046,0.017,-0.042,430.641,-1.781,-0.134,0.660,3.949,0.000,-0.040
4.784,0.206,0.895,3.971,0.047,0.015,-0.054,430.357,-2.097,-0.472,0.670,3.972,0.000,-0.029
5.037,0.222,0.908,3.942,0.047,0.017,-0.053,430.619,-2.152,-0.750,0.650,3.951,0.000,-0.058
5.289,0.238,0.910,3.874,0.040,0.019,-0.058,431.383,-1.961,-0.989,0.649,3.890,0.000,-0.126
5.542,0.252,0.899,3.774,0.035,0.019,-0.062,432.536,-1.496,-1.167,0.653,3.799,0.000,-0.226
5.795,0.264,0.876,3.643,0.039,0.018,-0.053,434.122,-0.808,-1.424,0.628,3.673,0.000,-0.357
6.048,0.272,0.842,3.488,0.030,0.023,-0.045,436.010,-0.034,-1.438,0.593,3.523,0.000,-0.512
6.300,0.274,0.805,3.313,0.033,0.024,-0.034,438.174,0.534,-1.336,0.582,3.351,0.000,-0.687
6.553,0.268,0.770,3.127,0.036,0.027,-0.023,440.537,1.044,-1.028,0.562,3.163,0.000,-0.873
6.805,0.260,0.741,2.923,0.052,0.027,-0.018,443.092,1.406,-0.860,0.550,2.960,0.000,-1.077
7.058,0.250,0.720,2.692,0.054,0.029,-0.019,445.782,1.470,-0.700,0.540,2.746,0.000,-1.308
7.311,0.246,0.711,2.469,0.054,0.027,-0.030,448.563,1.397,-0.799,0.530,2.525,0.000,-1.531
7.563,0.249,0.708,2.240,0.061,0.028,-0.033,451.419,1.318,-0.921,0.541,2.299,0.000,-1.760
7.815,0.258,0.705,2.013,0.054,0.027,-0.041,454.322,1.366,-1.207,0.545,2.068,0.000,-1.987
8.068,0.272,0.701,1.795,0.049,0.023,-0.046,457.080,1.424,-1.643,0.566,1.849,0.000,-2.205
8.320,0.288,0.693,1.586,0.040,0.020,-0.044,459.728,1.683,-2.011,0.595,1.639,0.000,-2.414
8.573,0.300,0.682,1.393,0.034,0.019,-0.044,462.229,1.923,-1.993,0.611,1.440,0.000,-2.607
8.825,0.306,0.667,1.221,0.035,0.015,-0.049,464.476,2.224,-1.949,0.649,1.261,0.000,-2.779
9.077,0.303,0.649,1.083,0.030,0.015,-0.044,466.317,2.639,-1.643,0.671,1.115,0.000,-2.917
9.330,0.292,0.627,0.976,0.045,0.012,-0.043,467.746,2.947,-1.350,0.684,1.002,0.000,-3.024
9.582,0.279,0.603,0.898,0.053,0.012,-0.038,468.875,3.402,-1.105,0.701,0.912,0.000,-3.102
9.834,0.272,0.584,0.862,0.064,0.014,-0.019,469.436,3.641,-1.116,0.691,0.867,0.000,-3.138
10.086,0.273,0.574,0.870,0.059,0.013,-0.020,469.469,3.645,-1.278,0.713,0.865,0.000,-3.130
10.339,0.283,0.574,0.921,0.058,0.014,-0.017,468.937,3.306,-1.775,0.705,0.907,0.000,-3.079
10.592,0.296,0.583,1.005,0.048,0.016,-0.028,467.974,2.951,-2.039,0.689,0.984,0.000,-2.995
10.844,0.311,0.599,1.114,0.042,0.020,-0.031,466.664,2.543,-2.231,0.669,1.088,0.000,-2.886
11.097,0.322,0.615,1.240,0.036,0.018,-0.045,465.119,2.220,-2.364,0.641,1.210,0.000,-2.760
11.349,0.325,0.625,1.378,0.035,0.020,-0.053,463.429,2.248,-2.178,0.617,1.345,0.000,-2.622
11.602,0.322,0.624,1.524,0.043,0.024,-0.049,461.625,2.506,-2.011,0.608,1.488,0.000,-2.476
11.854,0.313,0.612,1.680,0.042,0.019,-0.060,459.717,2.974,-1.752,0.608,1.639,0.000,-2.320
12.106,0.302,0.591,1.832,0.044,0.021,-0.050,457.793,3.496,-1.489,0.598,1.792,0.000,-2.168
12.359,0.289,0.566,1.982,0.050,0.025,-0.033,455.912,4.013,-1.259,0.579,1.942,0.000,-2.018
12.611,0.277,0.544,2.127,0.058,0.024,-0.026,454.057,4.260,-1.109,0.577,2.089,0.000,-1.873
12.864,0.268,0.529,2.262,0.051,0.022,-0.023,452.336,4.356,-1.035,0.582,2.226,0.000,-1.738
13.116,0.262,0.523,2.384,0.045,0.022,-0.020,450.714,4.270,-1.012,0.607,2.355,0.000,-1.616
13.369,0.257,0.526,2.500,0.049,0.019,-0.023,449.257,4.003,-0.930,0.620,2.470,0.000,-1.500
13.621,0.252,0.537,2.601,0.051,0.017,-0.034,447.958,3.630,-0.871,0.640,2.574,0.000,-1.399
13.873,0.249,0.550,2.685,0.052,0.017,-0.040,446.830,3.435,-0.847,0.655,2.663,0.000,-1.315
14.125,0.248,0.560,2.750,0.050,0.014,-0.046,445.940,3.270,-0.829,0.668,2.734,0.000,-1.250
14.378,0.248,0.563,2.798,0.050,0.014,-0.055,445.262,3.450,-0.910,0.679,2.788,0.000,-1.202
14.630,0.250,0.556,2.826,0.050,0.015,-0.054,444.862,3.837,-0.956,0.678,2.819,0.000,-1.174
14.882,0.252,0.541,2.834,0.047,0.016,-0.048,444.680,4.447,-1.061,0.670,2.834,0.000,-1.166
15.134,0.255,0.519,2.822,0.049,0.017,-0.042,444.777,4.696,-1.133,0.657,2.826,0.000,-1.178
15.387,0.256,0.497,2.798,0.043,0.017,-0.037,445.058,5.092,-1.062,0.661,2.804,0.000,-1.202
15.642,0.257,0.475,2.753,0.048,0.017,-0.024,445.545,5.459,-1.097,0.652,2.765,0.000,-1.247
15.895,0.258,0.460,2.698,0.047,0.016,-0.020,446.214,5.471,-1.098,0.652,2.712,0.000,-1.302
16.147,0.258,0.454,2.626,0.050,0.018,-0.022,447.040,5.350,-1.115,0.644,2.646,0.000,-1.374
16.400,0.260,0.459,2.549,0.054,0.021,-0.016,447.993,5.035,-1.219,0.638,2.571,0.000,-1.451
16.652,0.264,0.471,2.461,0.048,0.020,-0.026,449.049,4.697,-1.289,0.633,2.487,0.000,-1.539
16.904,0.270,0.489,2.365,0.042,0.022,-0.038,450.244,4.139,-1.427,0.619,2.392,0.000,-1.635
17.157,0.273,0.504,2.255,0.044,0.023,-0.045,451.562,3.970,-1.468,0.588,2.287,0.000,-1.745
17.409,0.273,0.511,2.128,0.044,0.026,-0.053,453.117,4.124,-1.411,0.571,2.164,0.000,-1.872
17.662,0.273,0.509,1.993,0.049,0.028,-0.045,454.780,4.368,-1.336,0.555,2.032,0.000,-2.007
17.914,0.273,0.501,1.848,0.058,0.033,-0.027,456.578,4.665,-1.423,0.513,1.889,0.000,-2.152
18.166,0.278,0.492,1.703,0.059,0.033,-0.029,458.413,4.853,-1.585,0.474,1.743,0.000,-2.297
18.419,0.290,0.487,1.557,0.059,0.039,-0.027,460.328,4.780,-2.031,0.430,1.591,0.000,-2.443
18.671,0.303,0.484,1.422,0.039,0.041,-0.040,462.041,4.803,-2.178,0.376,1.455,0.000,-2.578
18.924,0.313,0.479,1.297,0.039,0.045,-0.036,463.655,4.836,-2.285,0.337,1.327,0.000,-2.703
19.176,0.316,0.473,1.180,0.035,0.048,-0.031,465.142,5.071,-2.207,0.310,1.209,0.000,-2.820
19.429,0.310,0.466,1.073,0.035,0.053,-0.028,466.527,5.137,-1.909,0.278,1.099,0.000,-2.927
19.681,0.296,0.458,0.977,0.039,0.052,-0.038,467.784,5.378,-1.493,0.266,0.999,0.000,-3.023
19.933,0.276,0.446,0.900,0.044,0.050,-0.041,468.807,5.661,-1.051,0.262,0.917,0.000,-3.100
20.186,0.254,0.433,0.842,0.051,0.052,-0.030,469.601,5.872,-0.758,0.246,0.854,0.000,-3.158
20.438,0.233,0.421,0.809,0.056,0.057,-0.021,470.098,6.041,-0.448,0.230,0.815,0.000,-3.191
20.691,0.217,0.414,0.809,0.063,0.055,-0.020,470.203,6.039,-0.335,0.240,0.807,0.000,-3.191
20.943,0.211,0.412,0.842,0.068,0.053,-0.018,469.886,5.937,-0.399,0.244,0.832,0.000,-3.158
21.196,0.218,0.416,0.914,0.073,0.051,-0.026,469.120,5.705,-0.789,0.239,0.893,0.000,-3.086
21.448,0.235,0.425,1.013,0.060,0.053,-0.028,467.980,5.455,-1.344,0.255,0.983,0.000,-2.987
21.701,0.257,0.434,1.129,0.047,0.055,-0.035,466.553,5.180,-1.886,0.257,1.096,0.000,-2.871
21.954,0.278,0.442,1.249,0.045,0.053,-0.026,465.020,5.125,-2.091,0.259,1.218,0.000,-2.751
22.206,0.297,0.450,1.387,0.039,0.051,-0.031,463.387,5.004,-2.266,0.264,1.348,0.000,-2.613
22.459,0.309,0.457,1.522,0.034,0.049,-0.039,461.675,4.963,-2.261,0.267,1.484,0.000,-2.478
22.711,0.312,0.462,1.654,0.037,0.048,-0.032,459.989,4.918,-2.132,0.293,1.618,0.000,-2.346
22.963,0.309,0.464,1.780,0.046,0.041,-0.041,458.380,5.005,-1.961,0.339,1.746,0.000,-2.220
23.216,0.302,0.462,1.896,0.048,0.038,-0.038,456.820,5.065,-1.741,0.387,1.870,0.000,-2.104
23.468,0.295,0.458,1.996,0.050,0.037,-0.036,455.538,5.232,-1.567,0.435,1.971,0.000,-2.004
23.721,0.289,0.452,2.081,0.054,0.033,-0.031,454.409,5.391,-1.490,0.476,2.061,0.000,-1.919
23.973,0.285,0.449,2.157,0.053,0.033,-0.027,453.430,5.387,-1.488,0.486,2.139,0.000,-1.843
24.225,0.285,0.448,2.216,0.058,0.030,-0.027,452.616,5.336,-1.581,0.505,2.204,0.000,-1.784
24.478,0.292,0.453,2.266,0.065,0.029,-0.027,451.967,5.098,-1.853,0.506,2.255,0.000,-1.734
24.731,0.306,0.463,2.298,0.057,0.031,-0.027,451.507,4.711,-2.353,0.500,2.292,0.000,-1.702
24.983,0.325,0.477,2.316,0.046,0.033,-0.035,451.249,4.450,-2.699,0.487,2.312,0.000,-1.684
25.236,0.341,0.489,2.318,0.033,0.031,-0.044,451.166,4.247,-2.959,0.486,2.319,0.000,-1.682
25.488,0.351,0.495,2.298,0.031,0.034,-0.047,451.343,4.394,-2.849,0.474,2.305,0.000,-1.702
25.741,0.352,0.494,2.260,0.042,0.031,-0.043,451.755,4.542,-2.659,0.471,2.272,0.000,-1.740
25.993,0.348,0.487,2.205,0.042,0.038,-0.041,452.384,4.766,-2.482,0.430,2.222,0.000,-1.795
26.246,0.338,0.475,2.133,0.035,0.041,-0.044,453.237,5.076,-2.229,0.403,2.154,0.000,-1.867
26.498,0.325,0.462,2.047,0.050,0.042,-0.032,454.265,5.372,-1.962,0.377,2.073,0.000,-1.953
26.751,0.309,0.448,1.954,0.055,0.045,-0.028,455.428,5.639,-1.647,0.346,1.980,0.000,-2.046
27.003,0.299,0.440,1.856,0.068,0.047,-0.023,456.640,5.620,-1.690,0.322,1.884,0.000,-2.144
27.256,0.295,0.436,1.756,0.054,0.050,-0.033,457.899,5.554,-1.728,0.295,1.784,0.000,-2.244
27.508,0.296,0.435,1.658,0.054,0.053,-0.033,459.171,5.465,-1.908,0.247,1.683,0.000,-2.342
27.761,0.297,0.434,1.552,0.039,0.053,-0.038,460.456,5.483,-1.872,0.252,1.581,0.000,-2.448
28.013,0.296,0.434,1.452,0.041,0.051,-0.038,461.811,5.466,-1.857,0.246,1.473,0.000,-2.548
28.266,0.289,0.433,1.347,0.040,0.051,-0.034,463.091,5.580,-1.602,0.262,1.371,0.000,-2.653
28.517,0.281,0.430,1.251,0.052,0.048,-0.037,464.322,5.627,-1.409,0.293,1.274,0.000,-2.749
28.769,0.273,0.425,1.166,0.054,0.046,-0.043,465.428,5.766,-1.308,0.321,1.186,0.000,-2.834
29.021,0.266,0.417,1.095,0.049,0.050,-0.038,466.369,5.978,-1.261,0.309,1.111,0.000,-2.905
29.274,0.261,0.404,1.042,0.050,0.050,-0.042,467.088,6.316,-1.232,0.261,1.054,0.000,-2.958
29.526,0.257,0.392,1.006,0.052,0.057,-0.029,467.594,6.464,-1.219,0.222,1.014,0.000,-2.994
29.779,0.254,0.381,0.992,0.052,0.059,-0.028,467.846,6.647,-1.238,0.184,0.994,0.000,-3.008
30.031,0.253,0.376,0.997,0.059,0.063,-0.017,467.837,6.542,-1.314,0.139,0.995,0.000,-3.003
30.283,0.253,0.378,1.023,0.048,0.070,-0.014,467.584,6.324,-1.385,0.090,1.015,0.000,-2.977
30.536,0.255,0.390,1.067,0.047,0.070,-0.009,467.087,5.818,-1.415,0.061,1.054,0.000,-2.933
30.789,0.256,0.410,1.123,0.051,0.068,-0.020,466.408,5.291,-1.379,0.064,1.108,0.000,-2.877
31.041,0.257,0.435,1.199,0.046,0.065,-0.036,465.538,4.944,-1.293,0.076,1.177,0.000,-2.801
31.294,0.256,0.456,1.279,0.048,0.066,-0.041,464.546,4.637,-1.248,0.092,1.256,0.000,-2.721
31.545,0.253,0.469,1.366,0.053,0.064,-0.049,463.468,4.665,-1.168,0.118,1.342,0.000,-2.634
31.798,0.252,0.470,1.450,0.058,0.064,-0.050,462.394,4.933,-1.184,0.127,1.427,0.000,-2.550
32.050,0.254,0.460,1.530,0.064,0.064,-0.042,461.374,5.289,-1.294,0.134,1.508,0.000,-2.470
32.303,0.261,0.440,1.605,0.063,0.061,-0.038,460.424,5.890,-1.599,0.169,1.583,0.000,-2.395
32.554,0.270,0.413,1.676,0.040,0.064,-0.035,459.442,6.454,-1.810,0.140,1.661,0.000,-2.324
32.807,0.277,0.384,1.741,0.047,0.058,-0.024,458.601,6.894,-1.921,0.170,1.728,0.000,-2.259
33.059,0.281,0.359,1.799,0.045,0.054,-0.022,457.861,7.247,-1.782,0.197,1.787,0.000,-2.201
33.311,0.283,0.341,1.851,0.052,0.055,-0.017,457.205,7.333,-1.837,0.223,1.839,0.000,-2.149
33.564,0.284,0.332,1.890,0.049,0.050,-0.015,456.669,7.287,-1.789,0.256,1.882,0.000,-2.110
33.817,0.284,0.330,1.920,0.045,0.046,-0.022,456.269,7.165,-1.708,0.290,1.913,0.000,-2.080
34.069,0.282,0.335,1.938,0.047,0.045,-0.019,456.004,6.969,-1.623,0.324,1.934,0.000,-2.062
34.322,0.279,0.345,1.946,0.051,0.038,-0.032,455.872,6.709,-1.509,0.360,1.945,0.000,-2.054
34.574,0.277,0.356,1.943,0.055,0.037,-0.036,455.868,6.511,-1.525,0.416,1.945,0.000,-2.057
34.826,0.280,0.365,1.925,0.056,0.034,-0.035,456.058,6.371,-1.633,0.452,1.930,0.000,-2.075
35.079,0.287,0.371,1.897,0.057,0.029,-0.033,456.385,6.350,-1.786,0.476,1.904,0.000,-2.103
35.331,0.302,0.377,1.866,0.061,0.032,-0.032,456.758,6.315,-2.124,0.486,1.875,0.000,-2.134
35.584,0.317,0.381,1.837,0.036,0.032,-0.045,457.125,6.202,-2.529,0.519,1.845,0.000,-2.163
35.837,0.329,0.379,1.797,0.023,0.031,-0.051,457.585,6.368,-2.611,0.509,1.809,0.000,-2.203
36.089,0.329,0.371,1.752,0.028,0.033,-0.044,458.145,6.682,-2.375,0.487,1.764,0.000,-2.248
36.341,0.319,0.357,1.700,0.037,0.035,-0.038,458.784,6.994,-1.968,0.447,1.714,0.000,-2.300
36.594,0.304,0.340,1.641,0.056,0.032,-0.037,459.500,7.373,-1.641,0.448,1.657,0.000,-2.359
36.847,0.290,0.321,1.583,0.054,0.038,-0.033,460.228,7.705,-1.476,0.449,1.599,0.000,-2.417
37.099,0.282,0.304,1.526,0.063,0.035,-0.026,460.958,7.863,-1.499,0.451,1.541,0.000,-2.474
37.352,0.282,0.292,1.477,0.062,0.036,-0.023,461.650,8.020,-1.692,0.424,1.486,0.000,-2.523
37.605,0.288,0.285,1.419,0.051,0.038,-0.025,462.338,8.013,-1.933,0.408,1.431,0.000,-2.581
37.857,0.293,0.285,1.358,0.037,0.043,-0.023,463.068,7.838,-2.006,0.364,1.373,0.000,-2.642
38.109,0.296,0.288,1.293,0.039,0.036,-0.038,463.873,7.671,-1.918,0.385,1.309,0.000,-2.707
38.365,0.288,0.291,1.228,0.023,0.036,-0.036,464.698,7.631,-1.593,0.421,1.244,0.000,-2.772
38.620,0.274,0.295,1.165,0.040,0.034,-0.032,465.498,7.668,-1.149,0.464,1.180,0.000,-2.835
38.876,0.255,0.300,1.106,0.056,0.030,-0.021,466.248,7.539,-0.694,0.490,1.121,0.000,-2.894
39.129,0.240,0.305,1.063,0.061,0.028,-0.037,466.837,7.440,-0.555,0.531,1.074,0.000,-2.937
39.381,0.235,0.309,1.032,0.070,0.026,-0.044,467.273,7.463,-0.674,0.531,1.039,0.000,-2.968
39.633,0.240,0.306,1.019,0.076,0.028,-0.041,467.507,7.570,-1.109,0.526,1.021,0.000,-2.981
39.885,0.258,0.299,1.026,0.067,0.027,-0.037,467.472,7.783,-1.631,0.523,1.023,0.000,-2.974
40.145,0.288,0.289,1.057,0.058,0.030,-0.028,467.172,8.038,-2.431,0.525,1.047,0.000,-2.943
40.397,0.318,0.281,1.107,0.042,0.031,-0.027,466.587,8.097,-2.871,0.505,1.094,0.000,-2.893
40.650,0.343,0.277,1.166,0.023,0.030,-0.025,465.864,8.042,-3.096,0.508,1.151,0.000,-2.834
40.903,0.356,0.278,1.235,0.028,0.031,-0.024,465.041,7.917,-3.066,0.487,1.217,0.000,-2.765
41.156,0.354,0.282,1.305,0.027,0.030,-0.028,464.175,7.753,-2.756,0.506,1.285,0.000,-2.695
41.408,0.339,0.290,1.379,0.029,0.033,-0.022,463.253,7.597,-2.156,0.500,1.359,0.000,-2.621
41.661,0.313,0.299,1.445,0.032,0.030,-0.027,462.387,7.362,-1.357,0.523,1.427,0.000,-2.555
41.914,0.281,0.308,1.502,0.047,0.027,-0.039,461.643,7.251,-0.711,0.543,1.487,0.000,-2.498
42.166,0.250,0.314,1.545,0.066,0.020,-0.042,461.040,7.280,-0.060,0.557,1.534,0.000,-2.455
42.418,0.228,0.318,1.576,0.069,0.022,-0.034,460.593,7.328,-0.066,0.590,1.570,0.000,-2.424
42.670,0.217,0.320,1.595,0.067,0.022,-0.037,460.318,7.327,-0.234,0.594,1.592,0.000,-2.405
42.922,0.218,0.321,1.601,0.070,0.026,-0.029,460.209,7.311,-0.559,0.583,1.600,0.000,-2.399
43.176,0.229,0.321,1.598,0.067,0.021,-0.039,460.222,7.331,-0.955,0.597,1.599,0.000,-2.402
43.432,0.250,0.318,1.584,0.061,0.022,-0.039,460.370,7.444,-1.614,0.595,1.588,0.000,-2.416
43.685,0.277,0.314,1.569,0.063,0.030,-0.025,460.563,7.514,-2.265,0.559,1.572,0.000,-2.431
43.937,0.309,0.311,1.550,0.052,0.030,-0.025,460.778,7.515,-2.800,0.522,1.555,0.000,-2.450
44.189,0.337,0.311,1.533,0.036,0.034,-0.023,461.002,7.386,-3.200,0.488,1.537,0.000,-2.467
44.442,0.358,0.314,1.521,0.033,0.036,-0.032,461.171,7.276,-3.382,0.457,1.524,0.000,-2.479
44.694,0.367,0.314,1.512,0.028,0.034,-0.043,461.301,7.338,-3.161,0.463,1.514,0.000,-2.488
44.947,0.364,0.309,1.505,0.036,0.032,-0.047,461.387,7.555,-2.806,0.456,1.507,0.000,-2.495
45.199,0.351,0.300,1.495,0.039,0.039,-0.034,461.498,7.790,-2.479,0.445,1.498,0.000,-2.505
45.451,0.333,0.288,1.486,0.048,0.038,-0.028,461.616,8.036,-2.115,0.432,1.489,0.000,-2.514
45.704,0.315,0.278,1.472,0.054,0.034,-0.032,461.783,8.157,-1.773,0.449,1.475,0.000,-2.528
45.956,0.301,0.271,1.458,0.060,0.035,-0.036,461.963,8.264,-1.613,0.462,1.461,0.000,-2.542
46.209,0.294,0.266,1.448,0.062,0.033,-0.034,462.100,8.283,-1.652,0.457,1.450,0.000,-2.552
46.461,0.295,0.261,1.442,0.063,0.038,-0.031,462.192,8.323,-1.911,0.432,1.443,0.000,-2.558
46.714,0.303,0.258,1.447,0.065,0.043,-0.030,462.160,8.315,-2.262,0.387,1.445,0.000,-2.553
46.966,0.316,0.256,1.457,0.045,0.044,-0.030,462.047,8.282,-2.561,0.336,1.454,0.000,-2.543
47.218,0.330,0.255,1.473,0.043,0.046,-0.029,461.866,8.254,-2.821,0.315,1.469,0.000,-2.527
47.471,0.341,0.254,1.490,0.047,0.043,-0.030,461.655,8.344,-2.904,0.330,1.486,0.000,-2.510
47.723,0.346,0.252,1.509,0.037,0.040,-0.032,461.419,8.366,-2.887,0.368,1.504,0.000,-2.491
47.976,0.347,0.248,1.524,0.043,0.040,-0.035,461.207,8.481,-2.768,0.386,1.521,0.000,-2.476
48.228,0.343,0.243,1.533,0.043,0.041,-0.027,461.083,8.592,-2.574,0.410,1.531,0.000,-2.467
48.480,0.338,0.238,1.533,0.056,0.037,-0.033,461.045,8.704,-2.465,0.409,1.534,0.000,-2.467
48.733,0.336,0.234,1.523,0.053,0.043,-0.027,461.146,8.709,-2.543,0.376,1.526,0.000,-2.477
48.985,0.337,0.233,1.508,0.045,0.043,-0.029,461.314,8.669,-2.637,0.353,1.513,0.000,-2.492
49.238,0.338,0.231,1.483,0.042,0.045,-0.028,461.607,8.671,-2.640,0.352,1.489,0.000,-2.517
49.490,0.335,0.230,1.449,0.036,0.043,-0.030,462.004,8.647,-2.492,0.354,1.458,0.000,-2.551
49.743,0.327,0.229,1.403,0.043,0.040,-0.035,462.521,8.751,-2.252,0.376,1.417,0.000,-2.597
49.995,0.318,0.229,1.351,0.048,0.044,-0.019,463.167,8.760,-2.035,0.389,1.365,0.000,-2.649
50.247,0.310,0.230,1.297,0.059,0.037,-0.031,463.833,8.635,-1.941,0.384,1.313,0.000,-2.703
50.500,0.306,0.231,1.237,0.055,0.041,-0.038,464.571,8.699,-1.979,0.399,1.254,0.000,-2.763
50.752,0.308,0.228,1.174,0.054,0.040,-0.040,465.407,8.802,-2.183,0.394,1.188,0.000,-2.826
51.005,0.314,0.223,1.112,0.057,0.041,-0.035,466.206,8.964,-2.458,0.380,1.124,0.000,-2.888
51.258,0.325,0.217,1.060,0.051,0.046,-0.028,466.865,9.050,-2.882,0.354,1.072,0.000,-2.940
51.510,0.336,0.215,1.025,0.042,0.047,-0.025,467.353,8.925,-2.880,0.323,1.033,0.000,-2.975
51.762,0.343,0.217,1.001,0.037,0.048,-0.029,467.688,8.797,-2.921,0.295,1.006,0.000,-2.999
52.015,0.345,0.224,0.990,0.039,0.051,-0.022,467.870,8.547,-2.853,0.277,0.992,0.000,-3.010
52.267,0.340,0.236,0.987,0.034,0.056,-0.022,467.928,8.263,-2.619,0.250,0.987,0.000,-3.013
52.520,0.330,0.252,0.991,0.046,0.053,-0.031,467.898,7.914,-2.285,0.248,0.990,0.000,-3.009
52.772,0.319,0.268,0.996,0.052,0.053,-0.031,467.836,7.667,-2.078,0.254,0.995,0.000,-3.004
53.024,0.312,0.283,1.008,0.060,0.053,-0.039,467.705,7.473,-2.047,0.245,1.005,0.000,-2.992
53.277,0.308,0.292,1.023,0.054,0.049,-0.045,467.524,7.443,-2.032,0.270,1.019,0.000,-2.977
53.529,0.310,0.293,1.043,0.058,0.051,-0.039,467.296,7.652,-2.232,0.266,1.038,0.000,-2.957
53.782,0.313,0.287,1.066,0.053,0.055,-0.034,467.013,7.859,-2.375,0.251,1.060,0.000,-2.934
54.034,0.319,0.276,1.090,0.050,0.052,-0.035,466.727,8.168,-2.478,0.258,1.083,0.000,-2.910
54.287,0.323,0.260,1.115,0.045,0.049,-0.033,466.411,8.556,-2.566,0.281,1.108,0.000,-2.885
54.539,0.325,0.240,1.138,0.048,0.049,-0.026,466.112,9.114,-2.519,0.308,1.132,0.000,-2.862
54.791,0.325,0.220,1.160,0.051,0.044,-0.023,465.824,9.390,-2.477,0.337,1.154,0.000,-2.840
55.044,0.326,0.204,1.176,0.048,0.042,-0.010,465.606,9.540,-2.489,0.369,1.172,0.000,-2.824
55.296,0.326,0.192,1.193,0.046,0.036,-0.017,465.400,9.664,-2.445,0.405,1.188,0.000,-2.807
55.549,0.325,0.191,1.210,0.045,0.032,-0.019,465.167,9.366,-2.322,0.460,1.207,0.000,-2.790
55.801,0.323,0.195,1.225,0.046,0.028,-0.023,464.979,9.177,-2.215,0.497,1.222,0.000,-2.775
56.054,0.321,0.203,1.241,0.054,0.031,-0.019,464.776,8.894,-2.144,0.507,1.238,0.000,-2.759
56.306,0.319,0.215,1.257,0.053,0.027,-0.026,464.575,8.606,-2.150,0.542,1.254,0.000,-2.743
56.559,0.319,0.224,1.270,0.051,0.029,-0.036,464.404,8.592,-2.188,0.567,1.267,0.000,-2.730
56.811,0.320,0.229,1.273,0.049,0.026,-0.036,464.336,8.566,-2.223,0.563,1.273,0.000,-2.727
57.064,0.321,0.231,1.275,0.051,0.025,-0.033,464.313,8.654,-2.230,0.554,1.274,0.000,-2.725
57.317,0.322,0.232,1.277,0.050,0.027,-0.026,464.282,8.640,-2.271,0.547,1.277,0.000,-2.723
57.569,0.324,0.232,1.282,0.044,0.026,-0.030,464.232,8.658,-2.283,0.539,1.281,0.000,-2.718
57.821,0.324,0.231,1.284,0.040,0.029,-0.029,464.193,8.692,-2.266,0.533,1.284,0.000,-2.716
58.074,0.320,0.227,1.280,0.041,0.028,-0.039,464.227,8.894,-2.127,0.536,1.281,0.000,-2.720
58.326,0.312,0.220,1.270,0.043,0.032,-0.025,464.326,9.005,-1.943,0.507,1.273,0.000,-2.730
58.579,0.299,0.211,1.251,0.047,0.031,-0.033,464.540,9.281,-1.593,0.502,1.256,0.000,-2.749
58.831,0.288,0.205,1.233,0.060,0.030,-0.024,464.763,9.364,-1.308,0.478,1.239,0.000,-2.767
59.083,0.279,0.201,1.211,0.056,0.036,-0.016,465.027,9.257,-1.478,0.465,1.218,0.000,-2.789
59.336,0.278,0.194,1.194,0.064,0.027,-0.071,465.292,9.380,-1.546,0.485,1.197,0.000,-2.806
59.589,0.281,0.143,1.230,0.059,0.022,-0.168,465.083,11.064,-1.702,0.565,1.213,0.000,-2.770
59.841,0.288,0.030,1.337,0.047,0.025,-0.104,463.957,14.186,-1.977,0.598,1.303,0.000,-2.663
60.094,0.293,-0.112,1.468,0.040,0.031,0.000,462.293,17.070,-2.218,0.512,1.435,0.000,-2.532
60.346,0.298,-0.246,1.546,0.048,0.026,0.006,461.059,19.071,-2.277,0.505,1.533,0.000,-2.454
60.599,0.308,-0.349,1.567,0.071,0.019,0.011,460.640,19.028,-2.362,0.582,1.566,0.000,-2.433
60.887,0.331,-0.424,1.558,0.067,0.015,0.022,460.715,18.166,-3.001,0.671,1.560,0.000,-2.442
61.140,0.361,-0.447,1.527,0.039,0.007,0.018,461.007,17.317,-3.494,0.709,1.537,0.000,-2.473
61.392,0.385,-0.432,1.446,0.005,0.013,0.026,461.845,16.172,-3.773,0.715,1.470,0.000,-2.554
61.645,0.383,-0.381,1.361,-0.011,0.012,0.019,463.013,15.542,-3.132,0.711,1.378,0.000,-2.639
61.897,0.352,-0.292,1.340,0.015,0.009,0.023,463.497,14.682,-1.978,0.721,1.339,0.000,-2.660
62.150,0.301,-0.170,1.380,0.024,0.009,0.031,463.105,11.741,-0.396,0.754,1.370,0.000,-2.620
62.402,0.239,-0.006,1.428,0.048,0.011,0.021,462.525,8.342,0.794,0.748,1.416,0.000,-2.572
62.655,0.178,0.175,1.464,0.053,0.008,0.012,462.024,5.433,1.606,0.752,1.456,0.000,-2.536
62.907,0.119,0.381,1.493,0.062,0.008,-0.024,461.617,1.866,2.501,0.766,1.489,0.000,-2.507
63.160,0.070,0.584,1.447,0.068,0.006,-0.034,461.908,-1.146,3.023,0.766,1.465,0.000,-2.553
63.413,0.028,0.795,1.298,0.056,0.007,0.014,463.434,-4.287,3.515,0.786,1.344,0.000,-2.702
63.665,-0.009,0.997,1.105,0.041,0.006,-0.022,465.737,-7.708,4.071,0.781,1.161,0.000,-2.895
63.917,-0.042,1.202,0.895,0.059,0.006,-0.028,468.375,-10.908,4.500,0.786,0.952,0.000,-3.105
64.170,-0.073,1.400,0.776,0.052,0.006,-0.032,470.309,-13.768,4.945,0.782,0.798,0.000,-3.224
64.423,-0.104,1.552,0.769,0.024,0.006,-0.152,470.730,-15.476,5.552,0.796,0.765,0.000,-3.231
64.675,-0.139,1.646,0.844,0.045,0.001,-0.160,470.048,-15.794,6.088,0.824,0.819,0.000,-3.156
64.928,-0.173,1.655,0.936,0.057,0.000,-0.158,468.891,-13.955,6.545,0.839,0.917,0.000,-3.064
65.180,-0.200,1.610,1.024,0.069,0.007,-0.074,467.710,-11.491,7.051,0.802,1.005,0.000,-2.976
65.433,-0.218,1.528,1.106,0.065,0.005,-0.060,466.623,-9.682,6.966,0.789,1.091,0.000,-2.894
65.685,-0.223,1.428,1.193,0.065,0.000,-0.056,465.555,-7.834,6.661,0.788,1.176,0.000,-2.807
65.938,-0.218,1.335,1.245,0.063,0.004,0.009,464.789,-6.330,6.385,0.790,1.237,0.000,-2.755
66.191,-0.205,1.264,1.239,0.058,0.004,0.018,464.698,-5.850,5.992,0.787,1.244,0.000,-2.761
66.444,-0.182,1.218,1.183,0.058,0.008,0.008,465.269,-5.548,5.417,0.771,1.199,0.000,-2.817
66.696,-0.154,1.198,1.102,0.059,0.011,0.004,466.222,-5.865,4.833,0.745,1.123,0.000,-2.898
66.949,-0.119,1.200,1.002,0.062,0.014,0.007,467.397,-6.442,3.997,0.712,1.029,0.000,-2.998
67.201,-0.077,1.217,0.858,0.063,0.016,-0.003,469.079,-7.200,3.133,0.678,0.896,0.000,-3.142
67.454,-0.024,1.249,0.711,0.066,0.017,-0.007,470.995,-8.222,1.919,0.644,0.744,0.000,-3.289
67.706,0.036,1.293,0.619,0.065,0.021,0.000,4