Time, X, Y, Z, Pitch, Yaw, Roll, errorHeight, errorRoll, errorPitch, errorYaw, HLeadOut, HIntegralOut, HeightError
------------------------[Parameters]------------------------
HOVER_VALUE, ctrl_x->ref, ctrl_y->ref, ctrl_yaw->ref, ctrl_h->ref, ctrl_h->kp, ctrl_h->tau_i, ctrl_h->tau_d, ctrl_h->alpha, ctrl_vel_x->tau_i, ctrl_vel_x->tau_d, ctrl_vel_x->alpha
84.000, -0.305, 0.644, -0.086, 3.000, 21.964, 6.447, 1.802, 0.200, 0.000, 0.347, 0.300, 
------------------------[Parameters]------------------------
0.252,-0.304,0.645,0.427,0.029,-0.088,-0.014,85.681,-0.013,-0.067,0.026,0.427,29.525,-2.573
0.504,-0.307,0.644,0.429,0.023,-0.087,-0.008,85.723,-0.011,0.196,0.014,0.427,31.717,-2.571
0.755,-0.303,0.660,0.447,0.060,-0.084,0.044,85.765,-0.717,-0.292,-0.007,0.430,33.907,-2.553
1.007,-0.303,0.708,0.494,0.049,-0.096,0.027,85.800,-3.412,-0.327,0.067,0.447,36.089,-2.506
1.259,-0.303,0.779,0.567,0.038,-0.106,-0.020,85.826,-5.285,-0.624,0.190,0.486,38.248,-2.433
1.511,-0.301,0.852,0.657,0.042,-0.114,-0.055,85.842,-7.287,-0.953,0.268,0.550,40.505,-2.343
1.762,-0.301,0.894,0.728,0.033,-0.120,-0.089,85.850,-7.165,-0.911,0.370,0.625,42.560,-2.272
2.014,-0.305,0.919,0.812,0.023,-0.123,-0.085,85.856,-5.612,-0.472,0.437,0.702,44.550,-2.188
2.266,-0.314,0.905,0.853,0.037,-0.125,-0.061,85.865,-3.524,0.189,0.462,0.769,46.477,-2.147
2.519,-0.322,0.877,0.868,0.045,-0.128,-0.038,85.882,-2.091,0.512,0.468,0.816,48.356,-2.132
2.771,-0.330,0.841,0.863,0.056,-0.128,-0.017,85.906,-1.181,0.673,0.478,0.842,50.203,-2.137
3.022,-0.332,0.817,0.838,0.057,-0.133,-0.012,85.940,-1.231,0.415,0.496,0.846,52.038,-2.162
3.274,-0.331,0.803,0.792,0.049,-0.134,-0.015,85.983,-1.786,0.110,0.539,0.831,53.877,-2.208
3.526,-0.327,0.797,0.738,0.047,-0.133,-0.026,86.033,-1.983,-0.155,0.547,0.799,55.736,-2.262
3.778,-0.320,0.794,0.659,0.047,-0.132,-0.034,86.092,-2.156,-0.379,0.547,0.747,57.632,-2.341
4.029,-0.311,0.790,0.589,0.052,-0.134,-0.046,86.156,-1.946,-0.733,0.552,0.688,59.575,-2.411
4.281,-0.301,0.782,0.525,0.034,-0.134,-0.036,86.221,-1.759,-0.788,0.557,0.625,61.571,-2.475
4.533,-0.290,0.773,0.479,0.049,-0.136,-0.030,86.288,-1.222,-1.209,0.556,0.563,63.621,-2.521
4.785,-0.277,0.761,0.442,0.046,-0.132,-0.022,86.352,-0.986,-1.300,0.557,0.510,65.719,-2.558
5.036,-0.270,0.755,0.433,0.035,-0.128,-0.014,86.410,-1.354,-1.082,0.504,0.472,67.857,-2.567
5.287,-0.269,0.760,0.470,0.053,-0.132,-0.032,86.458,-1.827,-0.852,0.503,0.458,70.018,-2.530
5.539,-0.265,0.762,0.508,0.054,-0.134,-0.043,86.494,-1.866,-1.137,0.548,0.473,72.178,-2.492
5.791,-0.255,0.760,0.556,0.038,-0.134,-0.036,86.523,-1.449,-1.582,0.559,0.502,74.318,-2.444
6.042,-0.245,0.752,0.601,0.031,-0.133,-0.039,86.547,-1.149,-1.586,0.556,0.542,76.429,-2.399
6.294,-0.239,0.742,0.656,0.035,-0.133,-0.029,86.571,-0.933,-1.413,0.565,0.587,78.642,-2.344
6.546,-0.240,0.733,0.697,0.030,-0.133,-0.025,86.591,-0.846,-1.162,0.571,0.633,80.677,-2.303
6.798,-0.244,0.727,0.730,0.036,-0.136,-0.026,86.612,-0.823,-0.756,0.571,0.676,82.674,-2.270
7.050,-0.254,0.723,0.760,0.047,-0.134,-0.023,86.634,-1.022,-0.491,0.559,0.713,84.637,-2.240
7.302,-0.264,0.721,0.778,0.053,-0.134,-0.036,86.659,-1.085,-0.268,0.558,0.742,86.571,-2.222
7.554,-0.269,0.720,0.778,0.051,-0.134,-0.031,86.689,-1.113,-0.411,0.574,0.761,88.485,-2.222
7.806,-0.268,0.719,0.762,0.051,-0.134,-0.032,86.724,-1.004,-0.727,0.552,0.766,90.389,-2.238
8.058,-0.265,0.717,0.731,0.043,-0.134,-0.028,86.765,-0.953,-0.866,0.550,0.758,92.294,-2.269
8.310,-0.262,0.716,0.691,0.043,-0.131,-0.029,86.812,-0.991,-0.971,0.544,0.734,94.213,-2.309
8.561,-0.258,0.714,0.653,0.050,-0.133,-0.039,86.863,-0.886,-1.001,0.535,0.703,96.155,-2.347
8.813,-0.253,0.713,0.616,0.047,-0.127,-0.034,86.916,-0.858,-1.224,0.500,0.669,98.125,-2.384
9.065,-0.245,0.708,0.583,0.053,-0.132,-0.044,86.970,-0.471,-1.568,0.497,0.635,100.124,-2.417
9.317,-0.235,0.701,0.558,0.036,-0.128,-0.038,87.024,-0.403,-1.584,0.512,0.602,102.153,-2.442
9.569,-0.228,0.693,0.551,0.045,-0.130,-0.046,87.074,-0.186,-1.655,0.510,0.578,104.206,-2.449
9.821,-0.217,0.681,0.544,0.033,-0.124,-0.025,87.122,0.283,-1.833,0.471,0.562,106.276,-2.456
10.073,-0.212,0.674,0.546,0.038,-0.124,-0.028,87.166,0.070,-1.724,0.470,0.553,108.357,-2.454
10.325,-0.209,0.668,0.556,0.039,-0.124,-0.028,87.207,0.077,-1.587,0.447,0.552,110.442,-2.444
10.577,-0.208,0.668,0.569,0.049,-0.125,-0.030,87.246,-0.122,-1.614,0.439,0.556,112.525,-2.431
10.829,-0.205,0.671,0.587,0.051,-0.125,-0.025,87.282,-0.395,-1.834,0.464,0.566,114.602,-2.413
11.081,-0.200,0.676,0.604,0.044,-0.123,-0.028,87.319,-0.515,-1.878,0.448,0.581,116.807,-2.396
11.333,-0.195,0.684,0.622,0.044,-0.126,-0.026,87.352,-0.778,-2.041,0.450,0.598,118.860,-2.378
11.585,-0.187,0.693,0.637,0.052,-0.125,-0.031,87.385,-0.837,-2.347,0.448,0.614,120.899,-2.363
11.837,-0.181,0.703,0.654,0.028,-0.123,-0.034,87.417,-1.063,-2.378,0.437,0.631,122.924,-2.346
12.089,-0.179,0.707,0.667,0.034,-0.125,-0.042,87.450,-0.955,-2.233,0.419,0.646,124.935,-2.333
12.341,-0.183,0.707,0.678,0.036,-0.121,-0.030,87.483,-0.791,-1.812,0.425,0.659,126.934,-2.322
12.593,-0.189,0.705,0.686,0.045,-0.124,-0.029,87.517,-0.636,-1.572,0.416,0.671,128.922,-2.314
12.846,-0.197,0.703,0.695,0.045,-0.121,-0.026,87.551,-0.692,-1.475,0.415,0.681,130.901,-2.305
13.098,-0.204,0.703,0.699,0.038,-0.119,-0.029,87.586,-0.784,-1.320,0.399,0.690,132.872,-2.301
13.350,-0.213,0.704,0.700,0.040,-0.119,-0.029,87.623,-0.885,-1.021,0.388,0.694,134.838,-2.300
13.601,-0.223,0.706,0.701,0.056,-0.124,-0.037,87.660,-0.926,-0.947,0.415,0.698,136.800,-2.299
13.853,-0.227,0.707,0.703,0.058,-0.121,-0.027,87.697,-0.890,-1.192,0.419,0.700,138.760,-2.297
14.106,-0.226,0.706,0.701,0.043,-0.120,-0.032,87.735,-0.774,-1.380,0.392,0.701,140.718,-2.299
14.357,-0.221,0.704,0.697,0.046,-0.122,-0.035,87.773,-0.630,-1.591,0.414,0.700,142.676,-2.303
14.609,-0.221,0.700,0.695,0.033,-0.122,-0.031,87.812,-0.428,-1.437,0.410,0.698,144.635,-2.305
14.862,-0.222,0.694,0.692,0.041,-0.121,-0.035,87.852,-0.370,-1.283,0.411,0.695,146.597,-2.308
15.113,-0.229,0.687,0.696,0.047,-0.123,-0.020,87.891,-0.320,-0.921,0.441,0.694,148.560,-2.304
15.365,-0.233,0.682,0.702,0.051,-0.128,-0.032,87.928,-0.170,-0.915,0.448,0.697,150.523,-2.298
15.617,-0.236,0.679,0.709,0.043,-0.129,-0.025,87.964,-0.336,-0.951,0.470,0.701,152.483,-2.291
15.869,-0.237,0.676,0.718,0.050,-0.131,-0.030,88.000,-0.229,-1.085,0.510,0.706,154.438,-2.282
16.121,-0.237,0.672,0.728,0.045,-0.133,-0.030,88.037,-0.086,-1.071,0.537,0.715,156.518,-2.272
16.373,-0.239,0.667,0.736,0.036,-0.130,-0.029,88.071,0.071,-0.990,0.521,0.724,158.461,-2.264
16.625,-0.240,0.657,0.746,0.051,-0.130,-0.035,88.105,0.485,-0.899,0.531,0.733,160.396,-2.254
16.877,-0.239,0.644,0.756,0.050,-0.131,-0.020,88.139,0.793,-0.933,0.546,0.742,162.322,-2.244
17.129,-0.236,0.631,0.760,0.048,-0.131,-0.026,88.173,1.178,-1.192,0.541,0.750,164.242,-2.240
17.381,-0.233,0.622,0.763,0.044,-0.131,-0.024,88.208,1.021,-1.165,0.524,0.756,166.155,-2.237
17.633,-0.229,0.613,0.769,0.048,-0.131,-0.024,88.243,1.056,-1.237,0.514,0.761,168.065,-2.231
17.885,-0.226,0.608,0.771,0.053,-0.130,-0.030,88.278,1.092,-1.333,0.513,0.765,169.969,-2.229
18.137,-0.220,0.605,0.774,0.047,-0.128,-0.024,88.314,1.014,-1.551,0.512,0.769,171.871,-2.226
18.388,-0.212,0.602,0.774,0.046,-0.131,-0.029,88.350,1.059,-1.731,0.504,0.772,173.769,-2.226
18.641,-0.208,0.598,0.768,0.035,-0.131,-0.033,88.387,1.114,-1.621,0.524,0.771,175.667,-2.232
18.893,-0.206,0.592,0.760,0.037,-0.134,-0.042,88.426,1.264,-1.465,0.524,0.768,177.566,-2.240
19.145,-0.208,0.580,0.741,0.043,-0.133,-0.035,88.466,1.777,-1.224,0.529,0.759,179.471,-2.259
19.397,-0.208,0.568,0.724,0.055,-0.134,-0.028,88.510,2.062,-1.234,0.563,0.746,181.384,-2.276
19.648,-0.206,0.558,0.709,0.048,-0.138,-0.024,88.554,2.166,-1.378,0.585,0.731,183.310,-2.291
19.900,-0.203,0.553,0.701,0.049,-0.138,-0.024,88.597,2.080,-1.680,0.599,0.717,185.249,-2.299
20.152,-0.191,0.548,0.693,0.047,-0.140,-0.026,88.640,1.963,-1.888,0.598,0.706,187.197,-2.307
20.404,-0.182,0.551,0.698,0.042,-0.139,-0.015,88.681,1.673,-2.275,0.608,0.700,189.154,-2.302
20.656,-0.175,0.555,0.708,0.042,-0.136,-0.026,88.719,1.457,-2.381,0.613,0.701,191.113,-2.292
20.908,-0.171,0.562,0.722,0.041,-0.140,-0.028,88.757,1.224,-2.225,0.609,0.708,193.198,-2.278
21.160,-0.171,0.567,0.735,0.033,-0.140,-0.033,88.790,1.028,-1.921,0.619,0.719,195.146,-2.265
21.412,-0.177,0.576,0.760,0.041,-0.142,-0.030,88.822,0.829,-1.616,0.621,0.733,197.083,-2.240
21.664,-0.186,0.584,0.785,0.045,-0.145,-0.027,88.851,0.687,-1.251,0.619,0.753,199.005,-2.215
21.916,-0.196,0.592,0.804,0.052,-0.144,-0.030,88.879,0.687,-1.215,0.653,0.775,200.909,-2.196
22.168,-0.204,0.599,0.813,0.052,-0.147,-0.034,88.908,0.507,-1.172,0.688,0.792,202.796,-2.187
22.420,-0.204,0.607,0.816,0.069,-0.146,-0.033,88.940,0.493,-1.529,0.690,0.804,204.671,-2.184
22.680,-0.197,0.610,0.811,0.054,-0.145,-0.043,88.974,0.678,-2.067,0.674,0.809,206.539,-2.189
22.933,-0.180,0.609,0.803,0.043,-0.140,-0.042,89.011,0.917,-2.614,0.641,0.808,208.405,-2.197
23.185,-0.166,0.603,0.797,0.035,-0.141,-0.046,89.049,1.479,-2.941,0.622,0.804,210.273,-2.203
23.437,-0.152,0.589,0.788,0.037,-0.135,-0.034,89.090,2.003,-2.846,0.581,0.798,212.271,-2.212
23.689,-0.148,0.574,0.780,0.031,-0.131,-0.027,89.130,2.248,-2.461,0.548,0.791,214.149,-2.220
23.941,-0.151,0.560,0.776,0.037,-0.129,-0.022,89.170,2.407,-1.948,0.506,0.784,216.033,-2.224
24.192,-0.159,0.553,0.778,0.051,-0.127,-0.011,89.208,2.025,-1.558,0.486,0.780,217.922,-2.222
24.444,-0.165,0.555,0.785,0.055,-0.125,-0.014,89.245,1.595,-1.685,0.466,0.781,219.812,-2.215
24.696,-0.168,0.563,0.796,0.053,-0.122,-0.029,89.280,1.185,-1.878,0.455,0.786,221.700,-2.204
24.948,-0.166,0.572,0.805,0.049,-0.121,-0.032,89.314,1.010,-2.133,0.424,0.793,223.583,-2.195
25.201,-0.163,0.578,0.815,0.044,-0.121,-0.034,89.347,0.991,-2.330,0.413,0.802,225.459,-2.185
25.453,-0.163,0.582,0.824,0.026,-0.117,-0.026,89.379,1.025,-2.080,0.401,0.811,227.327,-2.176
25.704,-0.170,0.582,0.834,0.035,-0.118,-0.027,89.411,1.165,-1.616,0.375,0.820,229.188,-2.166
25.956,-0.183,0.581,0.840,0.034,-0.118,-0.027,89.444,1.165,-0.999,0.371,0.829,231.040,-2.160
26.208,-0.207,0.580,0.854,0.051,-0.120,-0.029,89.476,1.160,-0.645,0.366,0.838,232.885,-2.146
26.460,-0.222,0.581,0.862,0.052,-0.117,-0.026,89.507,0.976,-0.051,0.365,0.848,234.722,-2.138
26.712,-0.240,0.581,0.874,0.066,-0.120,-0.043,89.539,0.983,0.143,0.362,0.858,236.550,-2.126
26.964,-0.241,0.579,0.879,0.076,-0.117,-0.036,89.571,1.249,-0.694,0.378,0.867,238.371,-2.121
27.216,-0.230,0.574,0.883,0.058,-0.113,-0.032,89.603,1.544,-1.521,0.356,0.874,240.184,-2.117
27.468,-0.215,0.569,0.886,0.051,-0.114,-0.028,89.636,1.744,-2.152,0.342,0.880,241.992,-2.114
27.720,-0.195,0.563,0.889,0.032,-0.114,-0.026,89.669,1.822,-2.402,0.319,0.884,243.796,-2.111
27.972,-0.180,0.558,0.886,0.037,-0.116,-0.024,89.704,1.908,-2.419,0.343,0.886,245.597,-2.114
28.224,-0.174,0.555,0.881,0.037,-0.120,-0.025,89.742,1.871,-2.251,0.367,0.885,247.517,-2.119
28.476,-0.174,0.554,0.877,0.041,-0.122,-0.024,89.778,1.798,-1.900,0.413,0.882,249.320,-2.123
28.728,-0.175,0.555,0.874,0.047,-0.126,-0.030,89.815,1.582,-1.796,0.441,0.878,251.126,-2.126
28.980,-0.175,0.557,0.878,0.048,-0.122,-0.034,89.851,1.513,-1.800,0.445,0.877,252.933,-2.122
29.231,-0.174,0.554,0.886,0.048,-0.125,-0.044,89.885,1.762,-1.904,0.440,0.879,254.741,-2.114
29.484,-0.170,0.551,0.891,0.048,-0.123,-0.029,89.918,1.897,-2.149,0.431,0.884,256.545,-2.109
29.736,-0.167,0.544,0.895,0.045,-0.122,-0.030,89.952,2.079,-2.113,0.411,0.888,258.345,-2.105
29.988,-0.161,0.538,0.898,0.050,-0.118,-0.031,89.985,2.315,-2.310,0.379,0.892,260.142,-2.102
30.239,-0.157,0.531,0.903,0.043,-0.114,-0.024,90.018,2.399,-2.329,0.353,0.896,261.935,-2.097
30.491,-0.153,0.525,0.906,0.036,-0.114,-0.025,90.052,2.562,-2.314,0.324,0.900,263.725,-2.094
30.743,-0.153,0.518,0.910,0.043,-0.115,-0.029,90.085,2.623,-2.109,0.332,0.904,265.511,-2.090
30.995,-0.154,0.510,0.910,0.050,-0.119,-0.032,90.118,2.879,-1.949,0.368,0.907,267.295,-2.090
31.247,-0.154,0.500,0.909,0.050,-0.122,-0.034,90.153,2.881,-2.055,0.402,0.908,269.076,-2.091
31.500,-0.150,0.489,0.907,0.052,-0.122,-0.033,90.188,3.377,-2.204,0.416,0.908,270.858,-2.093
31.751,-0.147,0.476,0.910,0.041,-0.123,-0.029,90.222,3.489,-2.269,0.428,0.908,272.639,-2.090
32.003,-0.144,0.462,0.919,0.039,-0.126,-0.026,90.256,3.984,-2.201,0.448,0.911,274.420,-2.081
32.256,-0.148,0.449,0.932,0.034,-0.131,-0.019,90.288,3.790,-1.891,0.481,0.918,276.196,-2.068
32.508,-0.154,0.442,0.943,0.039,-0.132,-0.021,90.318,3.899,-1.438,0.517,0.929,277.965,-2.057
32.761,-0.171,0.431,0.959,0.046,-0.137,-0.026,90.349,4.001,-0.830,0.563,0.941,279.842,-2.041
33.013,-0.182,0.424,0.960,0.057,-0.135,-0.025,90.379,3.892,-0.854,0.589,0.951,281.591,-2.040
33.265,-0.187,0.421,0.954,0.060,-0.139,-0.025,90.412,3.916,-1.047,0.606,0.954,283.334,-2.046
33.517,-0.185,0.418,0.939,0.063,-0.141,-0.025,90.448,3.973,-1.428,0.631,0.949,285.078,-2.061
33.769,-0.176,0.417,0.912,0.048,-0.145,-0.028,90.488,3.916,-2.004,0.644,0.935,286.830,-2.088
34.021,-0.168,0.417,0.892,0.041,-0.142,-0.034,90.531,3.889,-2.303,0.654,0.916,288.596,-2.108
34.273,-0.154,0.416,0.857,0.035,-0.148,-0.031,90.575,4.060,-2.209,0.691,0.893,290.380,-2.143
34.525,-0.147,0.412,0.838,0.043,-0.145,-0.024,90.620,4.200,-2.219,0.698,0.870,292.185,-2.162
34.776,-0.145,0.409,0.830,0.041,-0.145,-0.027,90.664,4.210,-2.094,0.690,0.852,294.007,-2.170
35.028,-0.143,0.406,0.831,0.047,-0.147,-0.028,90.705,4.307,-2.080,0.683,0.841,295.842,-2.169
35.281,-0.141,0.402,0.842,0.044,-0.145,-0.029,90.742,4.363,-2.064,0.688,0.838,297.683,-2.158
35.533,-0.135,0.395,0.860,0.055,-0.144,-0.037,90.775,4.652,-2.279,0.711,0.844,299.522,-2.140
35.785,-0.128,0.390,0.883,0.052,-0.144,-0.023,90.805,4.645,-2.480,0.688,0.858,301.353,-2.117
36.037,-0.113,0.386,0.917,0.047,-0.141,-0.018,90.831,4.679,-3.124,0.671,0.880,303.168,-2.083
36.289,-0.103,0.391,0.943,0.031,-0.140,-0.016,90.855,4.313,-3.081,0.637,0.905,304.963,-2.057
36.541,-0.097,0.401,0.972,0.032,-0.145,-0.030,90.878,3.832,-2.978,0.663,0.931,306.737,-2.028
36.793,-0.095,0.416,1.000,0.046,-0.146,-0.034,90.901,3.512,-2.893,0.688,0.958,308.487,-2.000
37.045,-0.092,0.427,1.026,0.058,-0.148,-0.044,90.922,3.289,-3.111,0.706,0.987,310.213,-1.974
37.297,-0.083,0.441,1.068,0.041,-0.140,-0.050,90.942,3.020,-3.593,0.696,1.019,311.914,-1.932
37.549,-0.076,0.444,1.110,0.024,-0.135,-0.039,90.960,3.494,-3.542,0.632,1.053,313.587,-1.890
37.801,-0.075,0.440,1.147,0.036,-0.136,-0.034,90.977,3.830,-3.136,0.583,1.093,315.337,-1.853
38.054,-0.082,0.435,1.184,0.041,-0.137,-0.033,90.993,3.926,-2.691,0.577,1.130,316.945,-1.816
38.306,-0.092,0.433,1.212,0.049,-0.135,-0.034,91.008,3.750,-2.519,0.567,1.165,318.523,-1.788
38.558,-0.101,0.434,1.233,0.053,-0.134,-0.032,91.026,3.594,-2.340,0.578,1.194,320.073,-1.767
38.810,-0.107,0.435,1.253,0.048,-0.139,-0.043,91.045,3.566,-2.330,0.609,1.219,321.600,-1.747
39.062,-0.107,0.435,1.268,0.050,-0.140,-0.051,91.065,3.725,-2.581,0.597,1.240,323.107,-1.732
39.313,-0.104,0.432,1.284,0.045,-0.135,-0.043,91.086,3.929,-2.813,0.584,1.259,324.597,-1.716
39.566,-0.095,0.422,1.309,0.043,-0.134,-0.043,91.107,4.351,-3.202,0.555,1.279,326.071,-1.691
39.818,-0.088,0.412,1.334,0.039,-0.131,-0.037,91.126,4.512,-3.115,0.531,1.301,327.528,-1.666
40.070,-0.084,0.401,1.358,0.035,-0.127,-0.035,91.144,4.855,-3.116,0.494,1.324,328.965,-1.642
40.322,-0.084,0.393,1.378,0.036,-0.123,-0.021,91.162,4.714,-2.926,0.446,1.346,330.383,-1.622
40.574,-0.089,0.389,1.399,0.047,-0.122,-0.018,91.181,4.493,-2.716,0.432,1.367,331.783,-1.601
40.825,-0.093,0.393,1.425,0.052,-0.120,-0.025,91.198,4.122,-2.606,0.426,1.389,333.165,-1.575
41.078,-0.095,0.400,1.448,0.055,-0.118,-0.026,91.214,3.799,-2.793,0.396,1.413,334.526,-1.552
41.330,-0.093,0.411,1.476,0.054,-0.110,-0.027,91.229,3.555,-3.077,0.326,1.439,335.866,-1.524
41.582,-0.087,0.419,1.497,0.043,-0.110,-0.039,91.245,3.561,-3.286,0.280,1.463,337.185,-1.503
41.834,-0.081,0.421,1.513,0.038,-0.116,-0.049,91.261,3.824,-3.421,0.312,1.485,338.485,-1.487
42.086,-0.076,0.415,1.526,0.039,-0.113,-0.043,91.279,4.198,-3.364,0.325,1.502,339.768,-1.474
42.337,-0.075,0.411,1.531,0.039,-0.117,-0.042,91.298,4.470,-3.215,0.347,1.515,341.037,-1.469
42.589,-0.076,0.394,1.540,0.036,-0.112,-0.031,91.318,4.903,-3.071,0.306,1.527,342.380,-1.460
42.842,-0.080,0.384,1.539,0.043,-0.114,-0.025,91.341,5.065,-2.767,0.298,1.534,343.632,-1.461
43.094,-0.083,0.379,1.534,0.048,-0.112,-0.024,91.364,4.846,-2.733,0.300,1.535,344.880,-1.466
43.346,-0.089,0.373,1.523,0.046,-0.119,-0.037,91.390,4.841,-2.574,0.339,1.531,346.129,-1.477
43.598,-0.092,0.370,1.509,0.049,-0.123,-0.039,91.418,4.801,-2.626,0.376,1.524,347.383,-1.491
43.849,-0.091,0.368,1.498,0.046,-0.131,-0.048,91.447,4.858,-2.806,0.467,1.513,348.644,-1.502
44.101,-0.088,0.365,1.486,0.035,-0.133,-0.042,91.477,4.905,-2.866,0.510,1.502,349.915,-1.514
44.353,-0.088,0.365,1.477,0.039,-0.131,-0.035,91.507,4.871,-2.825,0.529,1.491,351.196,-1.523
44.606,-0.089,0.366,1.475,0.047,-0.134,-0.046,91.535,4.727,-2.746,0.571,1.483,352.485,-1.525
44.858,-0.088,0.364,1.474,0.049,-0.135,-0.052,91.562,4.895,-2.862,0.574,1.479,353.778,-1.526
45.110,-0.084,0.359,1.478,0.038,-0.136,-0.043,91.588,5.154,-3.003,0.589,1.477,355.075,-1.522
45.362,-0.082,0.350,1.484,0.028,-0.145,-0.046,91.613,5.455,-2.835,0.624,1.479,356.371,-1.516
45.613,-0.085,0.342,1.493,0.036,-0.141,-0.037,91.636,5.621,-2.576,0.654,1.484,357.664,-1.507
45.865,-0.091,0.336,1.501,0.054,-0.145,-0.028,91.658,5.563,-2.298,0.638,1.491,358.952,-1.499
46.117,-0.092,0.334,1.504,0.059,-0.147,-0.033,91.681,5.433,-2.534,0.690,1.497,360.235,-1.496
46.369,-0.088,0.335,1.506,0.050,-0.147,-0.026,91.704,5.238,-2.941,0.709,1.501,361.513,-1.494
46.621,-0.078,0.342,1.508,0.057,-0.149,-0.026,91.728,4.895,-3.412,0.713,1.504,362.788,-1.492
46.873,-0.069,0.349,1.512,0.045,-0.146,-0.038,91.751,4.636,-3.827,0.698,1.507,364.062,-1.488
47.125,-0.057,0.362,1.522,0.030,-0.146,-0.049,91.774,4.523,-3.835,0.679,1.512,365.331,-1.478
47.377,-0.051,0.367,1.538,0.035,-0.140,-0.046,91.795,4.554,-3.780,0.627,1.521,366.595,-1.462
47.629,-0.052,0.365,1.556,0.034,-0.139,-0.041,91.815,4.973,-3.250,0.597,1.535,367.932,-1.444
47.881,-0.058,0.362,1.566,0.035,-0.133,-0.027,91.833,5.059,-2.847,0.581,1.549,369.174,-1.434
48.133,-0.070,0.359,1.573,0.052,-0.133,-0.024,91.852,4.949,-2.465,0.568,1.559,370.405,-1.427
48.385,-0.077,0.364,1.581,0.064,-0.128,-0.029,91.873,4.522,-2.569,0.514,1.568,371.628,-1.419
48.637,-0.077,0.374,1.596,0.055,-0.126,-0.036,91.892,4.192,-3.027,0.467,1.579,372.843,-1.404
48.889,-0.071,0.388,1.612,0.051,-0.123,-0.041,91.910,3.787,-3.514,0.430,1.592,374.049,-1.388
49.141,-0.065,0.399,1.636,0.031,-0.115,-0.050,91.926,3.741,-3.656,0.371,1.608,375.241,-1.364
49.393,-0.061,0.403,1.661,0.032,-0.115,-0.052,91.940,4.003,-3.605,0.325,1.628,376.419,-1.339
49.645,-0.065,0.398,1.693,0.035,-0.107,-0.036,91.953,4.456,-3.171,0.270,1.652,377.577,-1.307
49.897,-0.073,0.389,1.724,0.041,-0.109,-0.026,91.963,4.756,-2.743,0.283,1.680,378.713,-1.276
50.149,-0.085,0.380,1.755,0.043,-0.115,-0.027,91.972,4.975,-2.277,0.311,1.709,379.825,-1.245
50.401,-0.097,0.376,1.784,0.045,-0.118,-0.034,91.981,4.768,-2.083,0.337,1.738,380.912,-1.216
50.653,-0.110,0.374,1.812,0.047,-0.130,-0.054,91.989,4.614,-1.827,0.391,1.768,381.974,-1.188
50.905,-0.117,0.370,1.839,0.062,-0.126,-0.046,91.997,4.795,-1.890,0.453,1.797,383.010,-1.161
51.157,-0.116,0.363,1.880,0.066,-0.129,-0.038,92.003,5.020,-2.378,0.446,1.829,384.022,-1.120
51.409,-0.107,0.357,1.923,0.050,-0.127,-0.037,92.007,5.216,-2.832,0.472,1.863,385.005,-1.077
51.661,-0.090,0.354,1.968,0.048,-0.127,-0.031,92.009,5.276,-3.451,0.477,1.903,385.957,-1.032
51.913,-0.074,0.352,2.016,0.035,-0.131,-0.030,92.009,5.178,-3.747,0.499,1.945,386.873,-0.984
52.165,-0.063,0.353,2.069,0.026,-0.133,-0.029,92.006,4.977,-3.745,0.543,1.992,387.752,-0.931
52.417,-0.059,0.355,2.124,0.039,-0.141,-0.040,92.000,4.958,-3.436,0.582,2.046,388.643,-0.876
52.669,-0.061,0.354,2.190,0.039,-0.141,-0.043,91.991,5.053,-3.075,0.624,2.102,389.432,-0.810
52.921,-0.065,0.351,2.242,0.039,-0.141,-0.045,91.980,5.159,-2.968,0.629,2.163,390.171,-0.758
53.173,-0.069,0.341,2.310,0.040,-0.140,-0.047,91.967,5.668,-2.778,0.632,2.223,390.859,-0.690
53.425,-0.072,0.331,2.349,0.042,-0.140,-0.042,91.955,6.208,-2.625,0.623,2.279,391.496,-0.651
53.677,-0.076,0.315,2.407,0.044,-0.135,-0.023,91.943,6.478,-2.597,0.577,2.335,392.086,-0.593
53.929,-0.077,0.303,2.464,0.051,-0.130,-0.014,91.932,6.301,-2.685,0.544,2.385,392.631,-0.536
54.181,-0.075,0.300,2.504,0.058,-0.129,-0.023,91.920,6.061,-3.029,0.506,2.437,393.132,-0.496
54.432,-0.068,0.304,2.561,0.052,-0.129,-0.023,91.907,5.612,-3.485,0.498,2.489,393.590,-0.439
54.685,-0.057,0.312,2.625,0.038,-0.124,-0.030,91.892,5.326,-3.819,0.459,2.543,394.003,-0.375
54.937,-0.047,0.320,2.691,0.037,-0.123,-0.036,91.874,5.218,-4.019,0.442,2.601,394.367,-0.309
55.189,-0.041,0.323,2.757,0.039,-0.121,-0.038,91.854,5.387,-3.857,0.431,2.662,394.682,-0.243
55.441,-0.038,0.322,2.823,0.040,-0.121,-0.036,91.831,5.563,-3.692,0.413,2.726,394.943,-0.177
55.693,-0.036,0.318,2.897,0.041,-0.121,-0.030,91.807,5.778,-3.644,0.395,2.793,395.149,-0.103
55.945,-0.033,0.315,2.967,0.046,-0.118,-0.024,91.781,5.852,-3.795,0.408,2.860,395.297,-0.033
56.197,-0.030,0.313,3.035,0.037,-0.121,-0.025,91.753,5.765,-3.762,0.383,2.929,395.386,0.035
56.449,-0.027,0.316,3.108,0.044,-0.119,-0.025,91.723,5.567,-3.874,0.389,3.000,395.416,0.108
56.701,-0.027,0.319,3.168,0.038,-0.118,-0.027,91.692,5.366,-3.807,0.388,3.071,395.386,0.168
56.953,-0.026,0.325,3.252,0.041,-0.122,-0.034,91.659,5.274,-3.761,0.390,3.143,395.295,0.252
57.205,-0.027,0.331,3.323,0.038,-0.119,-0.027,91.625,5.063,-3.756,0.386,3.221,395.130,0.323
57.457,-0.029,0.337,3.406,0.040,-0.120,-0.030,91.587,4.969,-3.693,0.390,3.295,394.910,0.406
57.709,-0.033,0.343,3.481,0.037,-0.121,-0.030,91.549,4.923,-3.473,0.400,3.370,394.627,0.481
57.962,-0.039,0.347,3.554,0.036,-0.122,-0.030,91.510,5.025,-3.509,0.399,3.445,394.280,0.554
58.214,-0.047,0.350,3.624,0.034,-0.122,-0.032,91.470,4.929,-3.255,0.412,3.520,393.869,0.624
58.467,-0.058,0.352,3.701,0.044,-0.122,-0.028,91.428,4.939,-3.051,0.418,3.595,393.394,0.701
58.719,-0.068,0.352,3.771,0.043,-0.123,-0.030,91.387,4.911,-2.879,0.423,3.667,392.856,0.771
58.971,-0.075,0.353,3.838,0.050,-0.121,-0.027,91.345,4.937,-2.902,0.435,3.738,392.258,0.838
59.224,-0.078,0.353,3.903,0.043,-0.123,-0.030,91.303,4.923,-2.872,0.448,3.806,391.600,0.903
59.476,-0.077,0.352,3.963,0.043,-0.124,-0.033,91.261,4.990,-3.046,0.441,3.872,390.885,0.963
59.729,-0.072,0.352,4.017,0.044,-0.124,-0.030,91.220,5.060,-3.127,0.435,3.932,390.117,1.017
59.981,-0.066,0.351,4.064,0.038,-0.124,-0.032,91.180,5.084,-3.254,0.445,3.987,389.299,1.064
60.234,-0.058,0.350,4.105,0.040,-0.125,-0.037,91.142,5.125,-3.390,0.445,4.036,388.437,1.105
60.486,-0.050,0.349,4.142,0.045,-0.125,-0.037,91.106,5.174,-3.606,0.447,4.080,387.536,1.142
60.738,-0.041,0.348,4.174,0.040,-0.123,-0.034,91.070,5.223,-3.707,0.441,4.120,386.598,1.174
60.991,-0.031,0.344,4.198,0.040,-0.123,-0.042,91.037,5.328,-3.883,0.425,4.154,385.630,1.198
61.243,-0.021,0.339,4.217,0.033,-0.117,-0.035,91.006,5.425,-4.067,0.394,4.181,384.635,1.217
61.496,-0.017,0.333,4.230,0.025,-0.117,-0.036,90.977,5.509,-4.012,0.367,4.203,383.619,1.230
61.749,-0.018,0.327,4.235,0.030,-0.114,-0.031,90.950,5.609,-3.876,0.335,4.218,382.588,1.235
62.001,-0.023,0.325,4.231,0.038,-0.111,-0.023,90.926,5.528,-3.713,0.318,4.226,381.547,1.231
62.253,-0.033,0.326,4.223,0.036,-0.108,-0.029,90.904,5.383,-3.521,0.262,4.227,380.432,1.223
62.506,-0.046,0.330,4.208,0.037,-0.106,-0.034,90.886,5.211,-3.270,0.242,4.221,379.390,1.208
62.759,-0.059,0.334,4.186,0.044,-0.106,-0.036,90.871,5.103,-3.015,0.218,4.208,378.355,1.186
63.011,-0.072,0.337,4.158,0.049,-0.101,-0.037,90.859,5.106,-2.904,0.209,4.190,377.333,1.158
63.264,-0.079,0.337,4.126,0.055,-0.104,-0.041,90.850,5.172,-2.873,0.194,4.165,376.330,1.126
63.516,-0.080,0.334,4.089,0.046,-0.100,-0.036,90.844,5.216,-2.996,0.186,4.136,375.350,1.089
63.768,-0.076,0.332,4.044,0.045,-0.097,-0.027,90.841,5.302,-3.181,0.164,4.100,374.397,1.044
64.021,-0.070,0.329,3.989,0.037,-0.098,-0.033,90.841,5.313,-3.335,0.147,4.057,373.478,0.989
64.273,-0.064,0.327,3.922,0.040,-0.099,-0.026,90.846,5.375,-3.460,0.133,4.005,372.599,0.922
64.526,-0.061,0.326,3.844,0.035,-0.100,-0.031,90.857,5.388,-3.307,0.130,3.943,371.769,0.844
64.778,-0.061,0.327,3.761,0.033,-0.099,-0.030,90.872,5.298,-3.266,0.132,3.872,370.996,0.761
65.030,-0.064,0.329,3.671,0.041,-0.097,-0.029,90.891,5.238,-3.262,0.152,3.794,370.286,0.671
65.283,-0.070,0.328,3.573,0.045,-0.098,-0.035,90.916,5.319,-3.045,0.164,3.708,369.645,0.573
65.535,-0.074,0.325,3.468,0.048,-0.100,-0