Time, X, Y, Z, Pitch, Yaw, Roll, errorHeight, errorRoll, errorPitch, errorYaw, HLeadOut, HIntegralOut, HeightError
------------------------[Parameters]------------------------
HOVER_VALUE, ctrl_x->ref, ctrl_y->ref, ctrl_yaw->ref, ctrl_h->ref, ctrl_h->kp, ctrl_h->tau_i, ctrl_h->tau_d, ctrl_h->alpha, ctrl_vel_x->tau_i, ctrl_vel_x->tau_d, ctrl_vel_x->alpha
88.000, 0.134, 0.653, -0.149, 3.000, 20.000, 0.000, 0.745, 0.070, 0.000, 0.347, 0.300, 
------------------------[Parameters]------------------------
0.251,0.135,0.654,0.431,0.016,-0.155,-0.018,89.003,-0.012,-0.062,0.031,0.431,0.000,-2.569
0.503,0.139,0.658,0.435,0.030,-0.157,-0.009,89.003,-0.299,-0.243,0.065,0.433,0.000,-2.565
0.755,0.139,0.671,0.448,0.051,-0.156,0.026,88.997,-1.568,-0.337,0.079,0.447,0.000,-2.552
1.006,0.130,0.737,0.588,0.041,-0.171,0.016,88.957,-4.424,-0.306,0.191,0.549,0.000,-2.412
1.258,0.119,0.806,0.770,0.033,-0.183,-0.042,88.889,-6.675,-0.356,0.355,0.724,0.000,-2.230
1.509,0.106,0.871,1.021,0.036,-0.188,-0.085,88.806,-7.652,-0.191,0.418,0.938,0.000,-1.979
1.761,0.094,0.904,1.290,0.040,-0.192,-0.097,88.694,-6.007,0.144,0.472,1.225,0.000,-1.710
2.052,0.088,0.903,1.610,0.055,-0.196,-0.069,88.569,-4.002,0.299,0.521,1.542,0.000,-1.390
2.304,0.093,0.877,1.900,0.053,-0.197,-0.045,88.456,-2.574,-0.049,0.527,1.833,0.000,-1.100
2.555,0.102,0.850,2.172,0.040,-0.200,-0.026,88.352,-1.612,-0.307,0.536,2.099,0.000,-0.828
2.807,0.110,0.831,2.428,0.037,-0.199,-0.016,88.243,-1.682,-0.381,0.548,2.378,0.000,-0.572
3.059,0.113,0.821,2.686,0.037,-0.199,-0.022,88.139,-2.025,-0.250,0.568,2.644,0.000,-0.314
3.310,0.112,0.815,3.006,0.041,-0.199,-0.036,88.031,-2.366,-0.129,0.586,2.921,0.000,0.006
3.562,0.111,0.810,3.284,0.046,-0.201,-0.044,87.915,-2.243,-0.040,0.593,3.218,0.000,0.284
3.815,0.112,0.799,3.566,0.048,-0.203,-0.040,87.805,-2.024,-0.093,0.596,3.499,0.000,0.566
4.067,0.116,0.783,3.831,0.047,-0.200,-0.040,87.700,-1.637,-0.150,0.600,3.767,0.000,0.831
4.319,0.123,0.762,4.098,0.039,-0.201,-0.044,87.599,-1.209,-0.191,0.606,4.028,0.000,1.098
4.571,0.131,0.738,4.348,0.047,-0.200,-0.039,87.500,-0.722,-0.277,0.595,4.279,0.000,1.348
4.823,0.139,0.714,4.593,0.041,-0.200,-0.032,87.404,-0.385,-0.396,0.583,4.526,0.000,1.593
5.076,0.147,0.692,4.831,0.035,-0.193,-0.028,87.311,0.039,-0.446,0.659,4.765,0.000,1.831
5.328,0.151,0.674,5.062,0.039,-0.193,-0.016,87.220,0.469,-0.123,0.422,4.997,0.000,2.062
5.581,0.151,0.665,5.283,0.043,-0.195,-0.012,87.129,0.528,0.054,0.460,5.228,0.000,2.283
5.833,0.149,0.663,5.350,0.042,-0.178,0.015,87.083,0.036,-0.345,0.357,5.348,0.000,2.350
6.085,0.149,0.663,5.350,0.042,-0.178,0.015,87.082,-0.020,-0.376,0.336,5.350,0.000,2.350
6.337,0.149,0.663,5.350,0.042,-0.178,0.015,87.082,-0.025,-0.378,0.334,5.350,0.000,2.350
6.589,0.149,0.663,5.350,0.042,-0.178,0.015,87.082,-0.026,-0.379,0.334,5.350,0.000,2.350
6.842,0.149,0.663,5.350,0.042,-0.178,0.015,87.082,-0.026,-0.379,0.334,5.350,0.000,2.350
7.094,0.149,0.663,5.350,0.042,-0.178,0.015,87.082,-0.026,-0.379,0.334,5.350,0.000,2.350
7.346,0.149,0.663,5.350,0.042,-0.178,0.015,87.082,-0.026,-0.379,0.334,5.350,0.000,2.350
7.599,0.149,0.663,5.350,0.042,-0.178,0.015,87.082,-0.026,-0.379,0.334,5.350,0.000,2.350
7.851,0.149,0.663,5.350,0.042,-0.178,0.015,87.082,-0.026,-0.379,0.334,5.350,0.000,2.350
8.103,0.149,0.663,5.350,0.042,-0.178,0.015,87.082,-0.026,-0.379,0.334,5.350,0.000,2.350
8.355,0.149,0.663,5.350,0.042,-0.178,0.015,87.082,-0.026,-0.379,0.334,5.350,0.000,2.350
8.608,0.149,0.663,5.350,0.042,-0.178,0.015,87.082,-0.026,-0.379,0.334,5.350,0.000,2.350
8.861,0.149,0.663,5.350,0.042,-0.178,0.015,87.082,-0.026,-0.379,0.334,5.350,0.000,2.350
9.113,0.149,0.663,5.350,0.042,-0.178,0.015,87.082,-0.026,-0.379,0.334,5.350,0.000,2.350
9.366,0.149,0.663,5.350,0.042,-0.178,0.015,87.082,-0.026,-0.379,0.334,5.350,0.000,2.350
9.618,-0.138,0.247,5.466,0.051,-0.156,0.014,87.065,6.040,5.424,0.283,5.394,0.000,2.466
9.871,-0.112,0.250,5.020,0.060,-0.156,-0.048,87.169,5.771,4.115,0.120,5.126,0.000,2.020
10.123,-0.082,0.251,4.693,0.055,-0.139,-0.047,87.304,5.572,3.257,-0.271,4.782,0.000,1.693
10.376,-0.043,0.249,4.422,0.054,-0.129,-0.060