Time, X, Y, Z, Pitch, Yaw, Roll, errorHeight, errorRoll, errorPitch, errorYaw, HLeadOut, HIntegralOut, HeightError
------------------------[Parameters]------------------------
HOVER_VALUE, ctrl_x->ref, ctrl_y->ref, ctrl_yaw->ref, ctrl_h->ref, ctrl_h->kp, ctrl_h->tau_i, ctrl_h->tau_d, ctrl_h->alpha, ctrl_vel_x->tau_i, ctrl_vel_x->tau_d, ctrl_vel_x->alpha
440.000, -0.261, 1.235, 0.148, 4.000, 12.445, 0.000, 0.745, 0.070, 0.000, 0.347, 0.300, 
------------------------[Parameters]------------------------
0.296,-0.259,1.236,0.424,0.023,0.157,-0.029,484.503,-0.007,-0.113,0.027,0.424,0.000,-3.576
0.594,-0.257,1.244,0.436,0.036,0.142,0.011,484.434,-0.393,-0.130,0.026,0.430,0.000,-3.564
0.890,-0.256,1.296,0.552,0.034,0.127,0.050,483.368,-2.057,0.098,0.072,0.515,0.000,-3.448
1.185,-0.252,1.396,0.803,0.047,0.127,-0.016,480.626,-4.698,0.402,0.211,0.736,0.000,-3.197
1.482,-0.252,1.511,1.154,0.049,0.113,-0.078,476.480,-6.478,0.399,0.352,1.069,0.000,-2.846
1.779,-0.261,1.595,1.551,0.041,0.100,-0.090,471.647,-7.325,0.791,0.476,1.457,0.000,-2.449
2.075,-0.272,1.619,1.948,0.061,0.107,-0.111,466.670,-6.414,1.029,0.450,1.857,0.000,-2.052
2.374,-0.281,1.579,2.314,0.056,0.113,-0.084,461.671,-4.388,0.872,0.493,2.259,0.000,-1.686
2.625,-0.286,1.507,2.614,0.058,0.117,-0.048,457.955,-2.093,0.621,0.412,2.557,0.000,-1.386
2.923,-0.286,1.397,2.940,0.077,0.147,-0.034,453.752,0.768,0.747,0.450,2.895,0.000,-1.060
3.175,-0.280,1.325,3.199,0.048,0.119,0.030,450.595,0.704,0.707,0.516,3.149,0.000,-0.801
3.427,-0.270,1.272,3.420,0.041,0.126,0.012,447.857,0.648,0.211,0.299,3.369,0.000,-0.580
3.679,-0.261,1.253,3.595,0.039,0.132,0.010,445.556,0.521,-0.281,0.259,3.554,0.000,-0.405
3.931,-0.257,1.264,3.732,0.049,0.123,-0.035,443.718,-0.622,-0.324,0.208,3.701,0.000,-0.268
4.183,-0.259,1.291,3.828,0.037,0.133,-0.009,442.345,-1.837,0.493,0.297,3.812,0.000,-0.172
4.435,-0.265,1.329,3.893,0.057,0.138,-0.041,441.496,-2.553,0.465,0.210,3.880,0.000,-0.107
4.688,-0.277,1.356,3.912,0.060,0.136,-0.061,441.120,-2.544,0.905,0.196,3.910,0.000,-0.088
4.940,-0.289,1.368,3.889,0.058,0.124,-0.064,441.281,-2.133,0.869,0.239,3.897,0.000,-0.111
5.192,-0.298,1.361,3.820,0.063,0.145,-0.062,441.992,-1.871,1.320,0.149,3.840,0.000,-0.180
5.444,-0.304,1.339,3.716,0.067,0.135,-0.049,443.185,-1.083,0.955,0.085,3.744,0.000,-0.284
5.696,-0.304,1.306,3.584,0.057,0.144,-0.028,444.825,-0.215,0.626,-0.001,3.612,0.000,-0.416
5.948,-0.303,1.261,3.393,0.055,0.154,-0.050,446.887,1.049,0.724,-0.014,3.447,0.000,-0.607
6.200,-0.303,1.220,3.196,0.056,0.109,-0.111,449.258,1.374,0.919,-0.167,3.256,0.000,-0.804
6.452,-0.308,1.183,2.988,0.058,0.202,0.038,451.866,1.757,0.516,-0.029,3.047,0.000,-1.012
6.705,-0.310,1.157,2.759,0.038,0.146,-0.027,454.617,1.370,0.286,-0.136,2.825,0.000,-1.241
6.958,-0.315,1.135,2.520,0.045,0.143,-0.028,457.591,2.225,0.740,0.003,2.587,0.000,-1.480
7.209,-0.322,1.119,2.277,0.063,0.155,-0.033,460.595,2.454,0.756,-0.015,2.345,0.000,-1.723
7.462,-0.327,1.108,2.038,0.054,0.155,-0.023,463.793,2.027,1.139,0.011,2.088,0.000,-1.962
7.714,-0.328,1.100,1.803,0.049,0.159,-0.029,466.735,2.597,0.656,-0.114,1.852,0.000,-2.197
7.966,-0.329,1.098,1.570,0.049,0.165,-0.013,469.647,2.253,0.786,-0.143,1.618,0.000,-2.430
8.218,-0.331,1.097,1.350,0.054,0.173,-0.047,472.414,2.406,1.316,-0.156,1.395,0.000,-2.650
8.471,-0.329,1.092,1.144,0.073,0.167,-0.038,474.973,2.614,0.734,-0.224,1.190,0.000,-2.856
8.723,-0.323,1.081,0.971,0.064,0.170,-0.042,477.198,2.482,0.230,-0.200,1.011,0.000,-3.029
8.975,-0.312,1.062,0.832,0.055,0.184,-0.041,479.061,3.260,-0.482,-0.384,0.861,0.000,-3.168
9.227,-0.305,1.038,0.722,0.043,0.174,-0.028,480.507,3.726,0.110,-0.266,0.745,0.000,-3.278
9.480,-0.304,1.010,0.662,0.047,0.170,-0.029,481.402,4.199,-0.306,-0.363,0.673,0.000,-3.338
9.732,-0.311,0.987,0.655,0.039,0.162,-0.023,481.652,4.509,-0.191,-0.269,0.653,0.000,-3.345
9.984,-0.323,0.969,0.707,0.047,0.159,-0.024,481.186,4.694,0.572,-0.163,0.691,0.000,-3.293
10.236,-0.338,0.961,0.809,0.058,0.160,-0.031,480.072,4.767,1.001,-0.193,0.780,0.000,-3.191
10.527,-0.351,0.958,0.978,0.027,0.117,0.040,478.083,4.633,1.437,-0.026,0.940,0.000,-3.022
10.781,-0.358,0.963,1.147,0.065,0.147,-0.026,476.106,4.294,1.170,-0.045,1.099,0.000,-2.853
11.033,-0.357,0.971,1.327,0.066,0.138,-0.017,473.894,4.148,0.980,-0.037,1.276,0.000,-2.673
11.285,-0.354,0.982,1.513,0.029,0.253,0.171,471.614,3.968,0.254,0.115,1.460,0.000,-2.487
11.537,-0.340,0.986,1.694,0.059,0.135,-0.048,469.277,3.852,0.299,0.186,1.647,0.000,-2.306
11.789,-0.326,0.985,1.887,0.054,0.133,-0.041,466.939,4.008,0.360,0.210,1.835,0.000,-2.113
12.041,-0.310,0.979,2.070,0.054,0.130,-0.046,464.656,4.146,-0.126,0.275,2.019,0.000,-1.930
12.294,-0.295,0.970,2.241,0.047,0.151,-0.009,462.360,3.936,-0.882,0.050,2.203,0.000,-1.759
12.546,-0.290,0.959,2.393,0.023,0.126,-0.045,460.338,4.782,-0.341,0.218,2.366,0.000,-1.607
12.798,-0.294,0.948,2.562,0.005,0.348,0.281,458.380,4.608,-0.935,0.020,2.523,0.000,-1.438
13.050,-0.293,0.948,2.687,0.039,0.128,-0.020,456.679,4.028,-0.081,0.119,2.660,0.000,-1.313
13.303,-0.301,0.945,2.805,0.036,0.134,-0.028,455.207,3.772,-0.186,0.130,2.778,0.000,-1.195
13.554,-0.313,0.938,2.892,0.058,0.115,-0.099,453.997,4.990,0.335,-0.032,2.875,0.000,-1.108
13.806,-0.329,0.932,2.970,0.064,0.147,-0.019,453.005,4.746,0.316,0.087,2.955,0.000,-1.030
14.059,-0.336,0.926,3.016,0.070,0.002,-0.230,452.324,5.328,1.646,0.149,3.010,0.000,-0.984
14.311,-0.337,0.913,3.052,0.083,0.137,-0.007,451.833,5.201,0.633,-0.257,3.049,0.000,-0.948
14.563,-0.327,0.899,3.052,0.052,0.145,-0.012,451.776,5.941,-0.073,0.044,3.054,0.000,-0.948
14.815,-0.311,0.888,3.029,0.055,0.156,0.005,451.989,5.648,-1.159,0.031,3.037,0.000,-0.971
15.068,-0.298,0.877,2.979,0.047,0.148,-0.025,452.525,5.772,-1.127,-0.075,2.994,0.000,-1.021
15.320,-0.294,0.868,2.913,0.020,0.216,0.087,453.335,6.262,-1.043,0.059,2.928,0.000,-1.087
15.572,-0.295,0.860,2.824,0.038,0.246,0.114,454.379,7.066,-0.814,-0.236,2.845,0.000,-1.176
15.825,-0.299,0.856,2.719,0.047,0.122,-0.004,455.671,6.488,0.191,0.155,2.741,0.000,-1.281
16.077,-0.306,0.854,2.577,0.056,0.125,-0.006,457.227,5.810,-0.391,0.241,2.616,0.000,-1.423
16.329,-0.309,0.857,2.431,0.066,0.138,-0.001,459.003,6.088,-0.262,0.421,2.473,0.000,-1.569
16.581,-0.311,0.866,2.275,0.057,0.134,-0.022,460.882,5.442,0.737,0.211,2.322,0.000,-1.725
16.834,-0.313,0.870,2.114,0.023,0.333,0.254,462.943,5.257,0.042,-0.292,2.156,0.000,-1.886
17.086,-0.301,0.874,1.930,0.056,0.129,-0.056,465.127,5.813,-0.339,-0.169,1.981,0.000,-2.070
17.338,-0.291,0.872,1.761,0.034,0.278,0.205,467.342,5.655,-0.969,-0.020,1.803,0.000,-2.239
17.590,-0.264,0.858,1.579,0.020,0.112,0.004,469.676,6.459,-0.982,0.175,1.615,0.000,-2.421
17.842,-0.236,0.840,1.408,0.049,0.145,-0.033,471.774,6.348,-2.242,-0.185,1.447,0.000,-2.592
18.094,-0.214,0.816,1.255,0.029,0.152,-0.044,473.813,7.228,-2.928,-0.012,1.283,0.000,-2.745
18.347,-0.208,0.790,1.109,0.013,0.148,-0.031,475.609,7.668,-1.417,-0.151,1.139,0.000,-2.891
18.599,-0.219,0.769,0.980,0.018,0.144,-0.008,477.222,7.804,-1.386,-0.123,1.009,0.000,-3.020
18.851,-0.246,0.756,0.866,0.039,0.156,-0.022,478.690,7.425,-0.585,-0.037,0.891,0.000,-3.134
19.145,-0.287,0.748,0.760,0.051,0.155,-0.019,480.086,7.963,-0.423,-0.101,0.779,0.000,-3.240
19.398,-0.324,0.749,0.709,0.028,0.243,0.130,480.874,7.767,-0.049,0.004,0.716,0.000,-3.291
19.650,-0.353,0.749,0.678,0.066,0.137,-0.032,481.280,7.857,1.310,-0.094,0.683,0.000,-3.322
19.902,-0.375,0.747,0.685,0.081,0.136,-0.041,481.301,7.946,1.494,0.109,0.681,0.000,-3.315
20.155,-0.385,0.737,0.727,0.084,0.135,-0.038,480.879,8.290,1.241,0.008,0.715,0.000,-3.273
20.407,-0.380,0.719,0.801,0.065,0.127,-0.024,480.059,9.145,-0.149,0.109,0.781,0.000,-3.199
20.659,-0.363,0.696,0.905,0.079,0.147,-0.025,478.844,8.762,0.196,-0.024,0.879,0.000,-3.095
20.912,-0.336,0.671,1.031,0.067,0.137,-0.024,477.362,9.688,-0.580,0.218,0.998,0.000,-2.969
21.164,-0.305,0.651,1.172,0.054,0.135,-0.014,475.647,9.424,-1.374,0.185,1.136,0.000,-2.828
21.416,-0.277,0.637,1.335,0.027,0.186,0.105,473.751,9.342,-2.225,0.123,1.288,0.000,-2.665
21.668,-0.259,0.635,1.491,0.026,0.115,-0.007,471.757,9.570,-1.210,0.040,1.448,0.000,-2.509
21.921,-0.252,0.649,1.652,0.022,0.103,0.001,469.762,8.731,-1.328,0.228,1.609,0.000,-2.348
22.173,-0.253,0.674,1.795,0.048,0.037,-0.120,467.808,8.282,-0.263,0.461,1.766,0.000,-2.205
22.426,-0.264,0.707,1.963,0.030,0.213,0.164,465.926,7.699,-0.821,0.195,1.917,0.000,-2.037
22.678,-0.266,0.734,2.098,0.054,0.110,-0.031,464.031,6.876,-0.543,0.508,2.069,0.000,-1.902
22.930,-0.269,0.754,2.220,0.048,0.108,-0.049,462.412,7.017,-0.725,-0.078,2.199,0.000,-1.780
23.182,-0.273,0.767,2.334,0.044,0.126,0.023,460.983,7.080,-0.807,0.290,2.314,0.000,-1.666
23.435,-0.280,0.763,2.428,0.051,0.108,-0.018,459.790,7.733,-0.701,0.646,2.410,0.000,-1.572
23.687,-0.286,0.757,2.500,0.056,0.115,-0.014,458.844,7.362,-0.213,0.391,2.486,0.000,-1.500
23.939,-0.288,0.750,2.553,0.055,0.113,-0.030,458.141,7.231,-0.141,0.399,2.542,0.000,-1.447
24.191,-0.286,0.738,2.584,0.052,0.113,-0.027,457.725,8.277,-0.601,0.718,2.576,0.000,-1.416
24.443,-0.275,0.733,2.588,0.071,0.007,-0.133,457.512,7.988,-0.055,0.082,2.593,0.000,-1.412
24.696,-0.267,0.716,2.584,0.053,0.120,-0.005,457.591,8.566,-1.297,0.380,2.587,0.000,-1.416
24.949,-0.254,0.712,2.558,0.044,0.121,-0.005,457.849,8.667,-1.603,0.202,2.566,0.000,-1.442
25.201,-0.240,0.718,2.514,0.043,0.108,-0.020,458.330,8.680,-1.677,0.201,2.527,0.000,-1.486
25.454,-0.229,0.728,2.454,-0.006,0.069,0.020,459.044,7.903,-0.320,0.235,2.470,0.000,-1.546
25.706,-0.225,0.744,2.376,0.049,0.115,-0.028,459.933,7.140,-1.425,0.210,2.398,0.000,-1.624
25.959,-0.228,0.754,2.287,0.033,0.114,-0.021,461.014,7.015,-0.674,0.128,2.311,0.000,-1.713
26.212,-0.232,0.756,2.182,0.065,0.108,-0.042,462.278,7.107,-0.697,-0.115,2.210,0.000,-1.818
26.464,-0.241,0.747,2.069,0.035,0.112,-0.046,463.669,7.976,-0.812,0.364,2.098,0.000,-1.931
26.717,-0.248,0.731,1.947,0.048,0.107,-0.029,465.107,8.702,-0.601,0.087,1.983,0.000,-2.053
26.970,-0.261,0.712,1.823,0.046,0.100,-0.027,466.633,9.247,-0.226,0.145,1.860,0.000,-2.177
27.222,-0.269,0.696,1.707,0.067,0.093,-0.022,468.123,8.879,0.124,0.285,1.740,0.000,-2.293
27.474,-0.276,0.687,1.600,0.023,0.221,0.187,469.609,8.329,-1.104,0.701,1.621,0.000,-2.400
27.727,-0.273,0.673,1.472,0.053,0.089,-0.045,471.077,8.895,-1.338,0.445,1.503,0.000,-2.528
27.980,-0.273,0.662,1.350,0.042,0.094,-0.031,472.664,9.208,-0.855,0.555,1.375,0.000,-2.650
28.232,-0.277,0.655,1.242,0.040,0.085,-0.027,474.028,9.307,-0.118,0.439,1.266,0.000,-2.758
28.485,-0.281,0.655,1.148,0.072,0.085,-0.024,475.255,9.128,-0.335,0.640,1.167,0.000,-2.852
28.738,-0.283,0.664,1.068,0.065,0.086,-0.033,476.279,8.702,-0.767,0.831,1.085,0.000,-2.932
28.990,-0.278,0.672,1.004,0.073,0.102,-0.022,477.096,8.787,-0.888,0.485,1.019,0.000,-2.996
29.243,-0.275,0.683,0.962,0.037,0.129,0.051,477.713,8.356,-1.986,0.412,0.970,0.000,-3.038
29.496,-0.276,0.690,0.934,0.035,0.080,-0.034,478.109,8.460,-0.492,0.756,0.938,0.000,-3.066
29.748,-0.286,0.695,0.933,0.052,0.077,-0.047,478.175,8.479,-0.118,0.795,0.933,0.000,-3.067
30.001,-0.302,0.700,0.956,0.054,0.082,-0.040,477.942,8.543,0.127,0.584,0.951,0.000,-3.044
30.253,-0.317,0.701,0.996,0.062,0.074,-0.035,477.509,8.765,0.742,0.490,0.986,0.000,-3.004
30.506,-0.324,0.710,1.048,0.051,-0.020,-0.245,476.848,7.929,1.370,0.749,1.039,0.000,-2.952
30.759,-0.324,0.714,1.128,0.074,0.078,-0.043,475.968,7.975,0.796,0.675,1.110,0.000,-2.872
31.012,-0.305,0.720,1.208,0.090,0.090,-0.024,475.000,8.342,-0.707,0.725,1.188,0.000,-2.792
31.265,-0.279,0.729,1.298,0.051,0.092,-0.034,473.890,7.787,-2.035,0.557,1.277,0.000,-2.702
31.517,-0.252,0.737,1.391,0.033,0.105,-0.041,472.731,7.485,-1.164,0.273,1.370,0.000,-2.609
31.770,-0.232,0.749,1.486,0.034,0.104,-0.038,471.557,6.882,-1.955,0.419,1.464,0.000,-2.514
32.022,-0.227,0.762,1.576,0.035,0.102,-0.060,470.416,6.675,-1.103,0.137,1.556,0.000,-2.424
32.275,-0.228,0.768,1.660,0.031,0.109,-0.023,469.390,7.040,-1.566,0.157,1.638,0.000,-2.340
32.528,-0.237,0.773,1.724,0.058,0.128,-0.019,468.548,7.017,-0.628,0.292,1.706,0.000,-2.276
32.781,-0.250,0.775,1.781,0.043,0.116,-0.043,467.780,7.050,-0.902,0.064,1.768,0.000,-2.219
33.033,-0.266,0.778,1.823,0.052,0.123,-0.023,467.231,7.209,-0.014,0.277,1.812,0.000,-2.177
33.286,-0.281,0.782,1.862,0.067,0.122,-0.028,466.737,6.420,0.137,0.286,1.852,0.000,-2.138
33.538,-0.291,0.786,1.890,0.054,0.128,-0.037,466.291,7.016,0.264,-0.086,1.887,0.000,-2.110
33.791,-0.296,0.788,1.908,0.062,0.130,-0.029,466.074,7.119,-0.173,0.232,1.905,0.000,-2.092
34.043,-0.296,0.791,1.914,0.067,0.131,-0.030,465.939,6.506,-0.309,0.072,1.916,0.000,-2.086
34.296,-0.293,0.791,1.907,0.058,0.135,-0.050,466.019,6.751,-0.988,0.102,1.909,0.000,-2.093
34.548,-0.291,0.791,1.899,0.008,0.285,0.215,466.196,6.890,-1.564,0.209,1.895,0.000,-2.101
34.801,-0.278,0.791,1.864,0.054,0.128,-0.024,466.501,7.051,-0.855,0.056,1.871,0.000,-2.136
35.053,-0.269,0.797,1.833,0.061,0.144,-0.025,466.865,6.726,-1.222,0.107,1.841,0.000,-2.167
35.306,-0.259,0.806,1.794,0.046,0.139,-0.021,467.310,6.585,-1.511,-0.005,1.806,0.000,-2.206
35.558,-0.253,0.819,1.753,0.043,0.135,-0.033,467.832,6.389,-1.188,0.180,1.764,0.000,-2.247
35.811,-0.252,0.837,1.714,-0.018,0.111,-0.002,468.334,5.882,-1.086,0.233,1.723,0.000,-2.286
36.064,-0.266,0.849,1.673,0.040,0.137,-0.046,468.842,5.907,-0.381,0.195,1.682,0.000,-2.327
36.316,-0.285,0.859,1.637,0.044,0.130,-0.050,469.309,5.954,-0.166,0.237,1.645,0.000,-2.363
36.569,-0.311,0.862,1.600,0.044,0.139,-0.064,469.773,5.794,0.410,0.253,1.608,0.000,-2.400
36.821,-0.337,0.855,1.568,0.066,0.203,0.057,470.159,6.307,1.564,-0.268,1.577,0.000,-2.432
37.074,-0.350,0.837,1.524,0.076,0.118,-0.031,470.652,6.847,1.125,-0.096,1.537,0.000,-2.476
37.327,-0.350,0.815,1.484,0.078,0.130,-0.039,471.189,7.290,0.596,0.226,1.494,0.000,-2.516
37.579,-0.336,0.790,1.443,0.077,0.122,-0.029,471.681,7.505,-0.004,0.275,1.454,0.000,-2.557
37.831,-0.317,0.767,1.403,0.056,0.125,-0.031,472.166,7.692,-0.902,0.352,1.415,0.000,-2.597
38.084,-0.298,0.748,1.362,0.039,0.126,-0.027,472.681,8.029,-0.763,0.119,1.374,0.000,-2.638
38.337,-0.283,0.730,1.323,0.045,0.136,-0.039,473.166,8.022,-1.386,-0.022,1.335,0.000,-2.677
38.589,-0.279,0.716,1.286,0.043,0.132,-0.000,473.632,8.502,-0.862,0.141,1.298,0.000,-2.714
38.842,-0.279,0.711,1.265,0.033,0.218,0.132,474.015,8.080,-1.129,0.082,1.267,0.000,-2.735
39.094,-0.280,0.708,1.236,0.064,0.135,-0.028,474.345,8.611,-1.004,0.275,1.240,0.000,-2.764
39.347,-0.277,0.712,1.218,0.064,0.124,-0.019,474.573,8.263,-0.864,0.212,1.222,0.000,-2.782
39.599,-0.269,0.719,1.210,0.056,0.131,-0.045,474.720,7.707,-1.332,0.321,1.210,0.000,-2.790
39.851,-0.261,0.725,1.206,0.047,0.124,-0.032,474.744,7.749,-1.687,0.076,1.208,0.000,-2.794
40.104,-0.258,0.723,1.203,0.040,0.122,-0.041,474.795,8.136,-1.100,0.150,1.204,0.000,-2.797
40.356,-0.263,0.715,1.202,0.037,0.106,-0.003,474.810,8.883,-0.412,0.358,1.203,0.000,-2.798
40.609,-0.274,0.702,1.212,0.050,0.109,-0.037,474.726,8.823,-0.460,0.189,1.210,0.000,-2.788
40.862,-0.285,0.688,1.230,0.069,0.124,-0.035,474.532,8.664,-0.682,0.405,1.225,0.000,-2.770
41.118,-0.293,0.671,1.252,0.058,0.120,-0.028,474.273,8.985,-0.141,0.261,1.246,0.000,-2.748
41.370,-0.297,0.660,1.290,0.045,0.189,0.136,473.878,9.777,-1.498,0.301,1.278,0.000,-2.710
41.623,-0.295,0.654,1.322,0.048,0.109,-0.018,473.429,8.695,-0.536,0.267,1.314,0.000,-2.678
41.875,-0.292,0.658,1.364,0.058,0.109,-0.035,472.936,8.854,-0.373,0.455,1.353,0.000,-2.636
42.128,-0.289,0.667,1.407,0.007,0.061,0.029,472.432,8.982,0.063,0.546,1.394,0.000,-2.593
42.380,-0.286,0.680,1.451,0.011,0.059,0.030,471.903,8.588,-0.489,0.574,1.436,0.000,-2.549
42.633,-0.289,0.700,1.495,0.046,0.109,-0.033,471.330,8.225,-0.721,0.617,1.483,0.000,-2.505
42.885,-0.288,0.719,1.542,0.062,0.105,-0.046,470.734,7.774,-0.445,0.286,1.530,0.000,-2.458
43.138,-0.288,0.736,1.587,0.049,0.099,-0.040,470.134,7.342,-0.668,0.383,1.579,0.000,-2.413
43.391,-0.289,0.744,1.629,0.051,0.109,-0.060,469.654,7.370,-0.780,0.414,1.617,0.000,-2.371
43.643,-0.290,0.743,1.671,0.059,0.094,-0.036,469.098,8.112,-0.173,0.573,1.662,0.000,-2.329
43.896,-0.286,0.734,1.708,0.070,0.099,-0.041,468.625,7.635,0.048,0.791,1.700,0.000,-2.292
44.148,-0.273,0.719,1.735,0.063,0.093,-0.031,468.242,8.547,-0.686,0.646,1.731,0.000,-2.265
44.401,-0.252,0.697,1.755,0.065,0.122,-0.009,467.957,9.074,-2.532,0.218,1.754,0.000,-2.245
44.654,-0.236,0.680,1.773,0.034,0.110,-0.018,467.750,9.247,-1.989,0.451,1.770,0.000,-2.227
44.906,-0.228,0.672,1.783,0.030,0.121,-0.027,467.605,8.972,-1.846,0.354,1.782,0.000,-2.217
45.159,-0.230,0.673,1.785,0.040,0.118,-0.023,467.564,8.720,-1.515,0.392,1.785,0.000,-2.215
45.411,-0.239,0.685,1.772,0.041,-0.021,-0.237,467.609,8.398,-0.610,0.516,1.782,0.000,-2.228
45.664,-0.263,0.697,1.767,0.041,0.109,-0.034,467.741,7.422,0.001,0.358,1.771,0.000,-2.233
45.917,-0.290,0.710,1.757,0.033,0.240,0.151,467.917,8.093,-0.783,0.169,1.757,0.000,-2.243
46.174,-0.307,0.716,1.724,0.058,0.105,-0.039,468.214,7.514,-0.223,0.154,1.733,0.000,-2.276
46.427,-0.322,0.716,1.694,0.064,0.113,-0.037,468.579,8.195,0.524,0.296,1.704,0.000,-2.306
46.679,-0.327,0.696,1.666,0.026,0.066,-0.070,468.959,9.065,0.894,0.234,1.673,0.000,-2.334
46.932,-0.344,0.630,1.686,0.025,0.039,-0.265,468.899,12.288,2.509,0.238,1.678,0.000,-2.314
47.185,-0.372,0.525,1.788,0.041,0.121,-0.017,467.819,15.346,0.343,0.072,1.765,0.000,-2.212
47.438,-0.406,0.422,1.898,0.044,0.104,0.023,466.383,16.024,1.585,0.277,1.880,0.000,-2.102
47.694,-0.441,0.343,1.890,0.040,0.124,-0.008,466.103,16.741,1.692,0.187,1.903,0.000,-2.110
47.947,-0.471,0.294,1.824,0.053,0.107,0.016,466.892,16.599,2.261,-0.026,1.839,0.000,-2.176
48.199,-0.495,0.282,1.838,0.045,0.140,0.012,466.995,16.187,3.003,-0.214,1.831,0.000,-2.162
48.452,-0.520,0.309,1.937,0.017,0.281,0.197,466.021,15.144,0.169,-0.624,1.909,0.000,-2.063
48.704,-0.534,0.351,1.947,0.082,0.272,-0.029,465.420,14.042,0.157,-1.340,1.957,0.000,-2.053
48.957,-0.533,0.406,1.823,0.102,0.325,-0.027,466.649,11.709,-0.101,-1.751,1.859,0.000,-2.177
49.213,-0.510,0.460,1.643,0.100,0.358,0.008,468.751,10.935,-0.418,-2.242,1.690,0.000,-2.357
49.465,-0.461,0.524,1.420,0.062,0.388,0.139,471.473,9.485,-2.125,-2.459,1.471,0.000,-2.580
49.718,-0.398,0.590,1.272,0.032,0.341,-0.025,473.564,7.464,-2.416,-2.276,1.303,0.000,-2.728
49.971,-0.353,0.631,1.248,0.021,0.286,-0.131,474.302,9.148,-1.364,-1.783,1.244,0.000,-2.752
50.223,-0.332,0.650,1.328,0.045,0.261,-0.017,473.523,8.529,-1.922,-1.381,1.306,0.000,-2.672
50.476,-0.327,0.652,1.422,0.052,0.255,0.016,472.315,8.777,-1.659,-1.176,1.403,0.000,-2.578
50.729,-0.326,0.681,1.511,0.027,0.222,0.002,471.181,7.798,-0.363,-1.092,1.495,0.000,-2.489
50.981,-0.328,0.732,1.591,0.041,0.220,0.010,470.186,6.898,-0.444,-0.929,1.574,0.000,-2.409
51.234,-0.328,0.798,1.668,0.052,0.223,0.043,469.234,5.668,-0.084,-0.926,1.651,0.000,-2.332
51.489,-0.326,0.855,1.735,0.062,0.217,-0.099,468.352,4.594,0.105,-0.946,1.722,0.000,-2.265
51.741,-0.319,0.884,1.791,0.067,0.223,-0.085,467.643,4.902,0.242,-0.666,1.779,0.000,-2.209
51.994,-0.312,0.888,1.799,0.064,0.212,-0.042,467.363,2.827,-2.126,-0.588,1.801,0.000,-2.201
52.247,-0.301,0.883,1.730,0.062,0.212,-0.036,467.970,5.303,-1.134,-0.718,1.753,0.000,-2.270
52.499,-0.284,0.877,1.589,0.056,0.207,-0.015,469.503,5.477,-1.073,-0.751,1.629,0.000,-2.411
52.751,-0.260,0.874,1.406,0.070,0.221,-0.028,471.714,5.211,-2.130,-0.779,1.452,0.000,-2.594
53.004,-0.231,0.873,1.222,0.063,0.218,-0.038,473.999,5.500,-2.354,-0.641,1.268,0.000,-2.778
53.256,-0.194,0.870,1.044,0.025,0.171,0.029,476.255,5.292,-2.868,-0.855,1.087,0.000,-2.956
53.509,-0.154,0.868,0.868,0.071,0.210,-0.020,478.461,5.028,-3.830,-0.760,0.910,0.000,-3.132
53.762,-0.106,0.863,0.717,0.066,0.200,-0.029,480.455,5.200,-5.218,-0.679,0.749,0.000,-3.283
54.015,-0.045,0.851,0.582,0.086,0.202,-0.034,482.169,4.916,-6.067,-0.893,0.612,0.000,-3.418
54.268,0.027,0.837,0.485,0.086,0.209,-0.039,483.471,5.635,-6.958,-0.642,0.507,0.000,-3.515
54.521,0.098,0.834,0.458,0.122,0.204,0.004,484.207,4.829,-7.943,-0.640,0.448,0.000,-3.542
54.773,0.114,0.840,0.436,0.083,0.223,-0.009,484.376,4.305,-7.788,-0.761,0.434,0.000,-3.564
55.026,0.078,0.833,0.427,-0.000,0.204,-0.027,484.464,5.217,-5.936,-0.619,0.427,0.000,-3.573
55.278,0.100,0.829,0.433,0.044,0.366,0.203,484.446,3.649,-7.767,-0.821,0.429,0.000,-3.567
55.531,0.082,0.832,0.427,0.008,0.203,-0.029,484.464,5.047,-6.208,-0.688,0.427,0.000,-3.573
55.784,0.100,0.829,0.428,0.052,0.210,-0.033,484.434,4.910,-7.010,-0.824,0.430,0.000,-3.572
56.036,0.086,0.832,0.428,0.016,0.212,-0.036,484.462,4.999,-6.392,-0.705,0.427,0.000,-3.572
56.289,0.09