Time, X, Y, Z, Pitch, Yaw, Roll, errorHeight, errorRoll, errorPitch, errorYaw, HLeadOut, HIntegralOut, HeightError
------------------------[Parameters]------------------------
HOVER_VALUE, ctrl_x->ref, ctrl_y->ref, ctrl_yaw->ref, ctrl_h->ref, ctrl_h->kp, ctrl_h->tau_i, ctrl_h->tau_d, ctrl_h->alpha, ctrl_vel_x->tau_i, ctrl_vel_x->tau_d, ctrl_vel_x->alpha
430.000, -0.126, 2.007, -0.066, 4.000, 12.445, 0.000, 2.863, 0.070, 0.000, 0.347, 0.300, 
------------------------[Parameters]------------------------
0.252,-0.124,2.007,0.415,0.032,-0.067,-0.005,474.615,0.018,-0.032,-0.023,0.415,0.000,-3.585
0.504,-0.121,2.008,0.417,0.033,-0.064,0.008,474.603,-0.080,-0.069,-0.014,0.416,0.000,-3.583
0.757,-0.122,2.038,0.474,0.067,-0.060,0.052,474.420,-0.549,-0.074,-0.064,0.431,0.000,-3.526
1.010,-0.122,2.092,0.609,0.061,-0.069,0.059,473.316,-1.641,-0.161,-0.014,0.519,0.000,-3.391
1.263,-0.118,2.231,0.964,0.047,-0.079,0.011,470.943,-4.311,-0.516,0.147,0.710,0.000,-3.036
1.515,-0.116,2.342,1.287,0.034,-0.092,-0.039,467.134,-6.497,-0.794,0.212,1.016,0.000,-2.713
1.768,-0.117,2.480,1.827,0.041,-0.081,-0.083,462.308,-8.146,-0.810,0.185,1.404,0.000,-2.173
2.020,-0.121,2.536,2.227,0.034,-0.087,-0.114,456.725,-8.951,-0.831,0.238,1.853,0.000,-1.773
2.272,-0.126,2.551,2.614,0.031,-0.086,-0.134,451.037,-8.726,-0.717,0.244,2.310,0.000,-1.386
2.524,-0.135,2.499,3.157,0.033,-0.100,-0.126,445.178,-7.346,-0.500,0.301,2.780,0.000,-0.843
2.823,-0.145,2.359,3.696,0.038,-0.101,-0.113,438.220,-3.425,0.158,0.249,3.339,0.000,-0.304
3.075,-0.150,2.198,4.131,0.056,-0.084,-0.061,432.480,0.277,0.654,0.314,3.801,0.000,0.131
3.327,-0.145,1.990,4.624,0.082,-0.104,0.038,427.066,2.086,0.802,0.315,4.236,0.000,0.624
3.580,-0.145,1.990,4.624,0.082,-0.104,0.038,423.622,0.970,0.834,0.424,4.513,0.000,0.624
3.832,-0.145,1.990,4.624,0.082,-0.104,0.038,422.633,0.870,0.837,0.435,4.592,0.000,0.624
4.084,-0.145,1.990,4.624,0.082,-0.104,0.038,422.349,0.861,0.838,0.437,4.615,0.000,0.624
4.335,-0.145,1.990,4.624,0.082,-0.104,0.038,422.267,0.860,0.838,0.437,4.621,0.000,0.624
4.587,-0.145,1.990,4.624,0.082,-0.104,0.038,422.244,0.860,0.838,0.437,4.623,0.000,0.624
4.839,-0.145,1.990,4.624,0.082,-0.104,0.038,422.237,0.860,0.838,0.437,4.624,0.000,0.624
5.090,-0.145,1.990,4.624,0.082,-0.104,0.038,422.235,0.860,0.838,0.437,4.624,0.000,0.624
5.342,-0.145,1.990,4.624,0.082,-0.104,0.038,422.235,0.860,0.838,0.437,4.624,0.000,0.624
5.593,-0.145,1.990,4.624,0.082,-0.104,0.038,422.235,0.860,0.838,0.437,4.624,0.000,0.624
5.846,-0.145,1.990,4.624,0.082,-0.104,0.038,422.235,0.860,0.838,0.437,4.624,0.000,0.624
6.098,-0.145,1.990,4.624,0.082,-0.104,0.038,422.235,0.860,0.838,0.437,4.624,0.000,0.624
6.350,-0.145,1.990,4.624,0.082,-0.104,0.038,422.235,0.860,0.838,0.437,4.624,0.000,0.624
6.602,-0.145,1.990,4.624,0.082,-0.104,0.038,422.235,0.860,0.838,0.437,4.624,0.000,0.624
6.855,-0.145,1.990,4.624,0.082,-0.104,0.038,422.235,0.860,0.838,0.437,4.624,0.000,0.624
7.107,-0.145,1.990,4.624,0.082,-0.104,0.038,422.235,0.860,0.838,0.437,4.624,0.000,0.624
7.359,-0.145,1.990,4.624,0.082,-0.104,0.038,422.235,0.860,0.838,0.437,4.624,0.000,0.624
7.612,-0.145,1.990,4.624,0.082,-0.104,0.038,422.235,0.860,0.838,0.437,4.624,0.000,0.624
7.865,-0.145,1.990,4.624,0.082,-0.104,0.038,422.235,0.860,0.838,0.437,4.624,0.000,0.624
8.117,-0.145,1.990,4.624,0.082,-0.104,0.038,422.235,0.860,0.838,0.437,4.624,0.000,0.624
8.370,-0.145,1.990,4.624,0.082,-0.104,0.038,422.235,0.860,0.838,0.437,4.624,0.000,0.624
8.623,-0.145,1.990,4.624,0.082,-0.104,0.038,422.235,0.860,0.838,0.437,4.624,0.000,0.624
8.876,-0.145,1.990,4.624,0.082,-0.104,0.038,422.235,0.860,0.838,0.437,4.624,0.000,0.624
9.128,-0.145,1.990,4.624,0.082,-0.104,0.038,422.235,0.860,0.838,0.437,4.624,0.000,0.624
9.381,-0.145,1.990,4.624,0.082,-0.104,0.038,422.235,0.860,0.838,0.437,4.624,0.000,0.624
9.633,-0.145,1.990,4.624,0.082,-0.104,0.038,422.235,0.860,0.838,0.437,4.624,0.000,0.624
9.885,-0.145,1.990,4.624,0.082,-0.104,0.038,422.235,0.860,0.838,0.437,4.624,0.000,0.624
10.138,-0.145,1.990,4.624,0.082,-0.104,0.038,422.235,0.860,0.838,0.437,4.624,0.000,0.624
10.391,-0.145,1.990,4.624