Time, X, Y, Z, Pitch, Yaw, Roll, errorHeight, errorRoll, errorPitch, errorYaw, HLeadOut, HIntegralOut, HeightError
------------------------[Parameters]------------------------
HOVER_VALUE, ctrl_x->ref, ctrl_y->ref, ctrl_yaw->ref, ctrl_h->ref, ctrl_h->kp, ctrl_h->tau_i, ctrl_h->tau_d, ctrl_h->alpha, ctrl_vel_x->tau_i, ctrl_vel_x->tau_d, ctrl_vel_x->alpha
83.000, 0.266, 0.741, -0.064, 3.000, 8.907, 3.849, 3.637, 0.070, 0.000, 0.347, 0.300, 
------------------------[Parameters]------------------------
0.252,0.267,0.742,0.432,0.026,-0.067,-0.018,83.836,-0.020,-0.044,0.050,0.432,19.920,-2.568
0.505,0.264,0.742,0.433,0.020,-0.068,-0.018,83.865,-0.022,0.052,0.028,0.432,21.406,-2.567
0.758,0.272,0.753,0.441,0.043,-0.064,0.024,83.893,-0.477,-0.381,0.026,0.435,22.891,-2.559
1.010,0.276,0.788,0.447,0.042,-0.074,0.050,83.921,-1.419,-0.340,0.063,0.441,24.373,-2.553
1.263,0.275,0.849,0.447,0.034,-0.087,0.009,83.949,-3.903,-0.454,0.181,0.445,25.852,-2.553
1.515,0.267,0.933,0.440,0.027,-0.099,-0.030,83.979,-5.417,-0.323,0.334,0.444,27.330,-2.560
1.767,0.252,1.014,0.434,0.025,-0.101,-0.018,84.008,-7.191,-0.014,0.413,0.439,28.811,-2.566
2.019,0.243,1.066,0.441,0.031,-0.110,-0.054,84.037,-7.100,-0.037,0.504,0.438,30.293,-2.559
2.271,0.229,1.101,0.438,0.022,-0.112,-0.042,84.066,-7.085,0.325,0.539,0.439,31.775,-2.562
2.524,0.218,1.106,0.439,0.021,-0.123,-0.053,84.095,-6.094,0.374,0.616,0.438,33.257,-2.561
2.776,0.208,1.089,0.441,0.021,-0.136,-0.068,84.124,-5.119,0.529,0.757,0.440,34.739,-2.559
3.028,0.200,1.067,0.444,0.034,-0.146,-0.068,84.153,-4.530,0.641,0.908,0.441,36.220,-2.556
3.280,0.192,1.041,0.441,0.030,-0.161,-0.054,84.181,-3.902,0.811,1.039,0.442,37.700,-2.559
3.533,0.181,1.019,0.443,0.045,-0.173,-0.053,84.210,-3.793,1.073,1.203,0.442,39.180,-2.557
3.785,0.174,1.000,0.443,0.042,-0.182,-0.059,84.241,-3.349,1.163,1.333,0.443,40.758,-2.557
4.037,0.168,0.984,0.442,0.027,-0.194,-0.065,84.270,-3.491,1.178,1.455,0.443,42.238,-2.558
4.289,0.160,0.975,0.440,0.016,-0.206,-0.065,84.299,-3.551,1.309,1.528,0.442,43.718,-2.560
4.541,0.158,0.966,0.442,0.024,-0.216,-0.078,84.328,-3.278,1.135,1.678,0.442,45.198,-2.558
4.793,0.159,0.953,0.443,0.036,-0.217,-0.069,84.357,-2.807,1.023,1.745,0.443,46.678,-2.557
5.045,0.160,0.943,0.446,0.035,-0.227,-0.084,84.385,-2.635,0.979,1.835,0.444,48.157,-2.554
5.297,0.165,0.932,0.446,0.054,-0.222,-0.054,84.414,-2.557,0.883,1.821,0.445,49.636,-2.554
5.549,0.167,0.927,0.445,0.051,-0.214,-0.052,84.443,-2.678,0.995,1.794,0.445,51.114,-2.555
5.801,0.176,0.927,0.449,0.063,-0.210,-0.055,84.471,-2.994,0.399,1.710,0.447,52.592,-2.551
6.053,0.186,0.931,0.450,0.076,-0.198,-0.049,84.500,-3.240,-0.025,1.602,0.448,54.068,-2.550
6.304,0.201,0.936,0.452,0.094,-0.183,-0.052,84.529,-3.288,-0.489,1.460,0.449,55.545,-2.548
6.557,0.216,0.943,0.457,0.120,-0.159,-0.048,84.557,-3.462,-0.611,1.225,0.453,57.019,-2.543
6.809,0.232,0.952,0.453,0.070,-0.139,-0.051,84.585,-3.701,-0.860,0.965,0.455,58.492,-2.547
7.061,0.264,0.959,0.452,0.080,-0.121,-0.045,84.615,-3.548,-1.445,0.763,0.450,59.966,-2.548
7.357,0.288,0.960,0.463,0.033,-0.116,-0.069,84.648,-3.240,-1.811,0.643,0.457,61.734,-2.537
7.610,0.311,0.945,0.457,0.036,-0.120,-0.060,84.676,-2.628,-1.659,0.633,0.460,63.204,-2.543
7.862,0.329,0.918,0.441,0.043,-0.121,-0.048,84.706,-1.480,-1.915,0.650,0.453,64.675,-2.559
8.114,0.315,0.906,0.452,0.033,-0.121,-0.040,84.736,-2.049,-0.662,0.680,0.449,66.151,-2.548
8.367,0.304,0.892,0.445,0.053,-0.129,-0.049,84.766,-1.802,-0.468,0.714,0.450,67.725,-2.555
8.620,0.289,0.882,0.443,0.027,-0.138,-0.058,84.796,-1.821,-0.031,0.794,0.445,69.202,-2.557
8.872,0.276,0.876,0.439,0.025,-0.149,-0.044,84.825,-1.888,-0.013,0.901,0.442,70.681,-2.561
9.128,0.268,0.872,0.440,0.029,-0.158,-0.037,84.855,-1.947,0.024,1.012,0.440,72.161,-2.560
9.380,0.264,0.868,0.440,0.034,-0.164,-0.041,84.884,-1.903,-0.138,1.122,0.441,73.642,-2.560
9.633,0.265,0.865,0.442,0.032,-0.169,-0.044,84.912,-1.796,-0.311,1.181,0.441,75.123,-2.558
9.886,0.271,0.861,0.445,0.047,-0.172,-0.044,84.941,-1.640,-0.649,1.220,0.443,76.603,-2.555
10.138,0.276,0.860,0.447,0.054,-0.162,-0.044,84.970,-1.741,-0.5