Time, X, Y, Z, Pitch, Yaw, Roll, errorHeight, errorRoll, errorPitch, errorYaw, HLeadOut, HIntegralOut, HeightError
------------------------[Parameters]------------------------
HOVER_VALUE, ctrl_x->ref, ctrl_y->ref, ctrl_yaw->ref, ctrl_h->ref, ctrl_h->kp, ctrl_h->tau_i, ctrl_h->tau_d, ctrl_h->alpha, ctrl_vel_x->tau_i, ctrl_vel_x->tau_d, ctrl_vel_x->alpha
83.000, -0.192, 1.066, 0.046, 3.000, 44.025, 3.515, 1.661, 0.070, 0.000, 0.347, 0.300, 
------------------------[Parameters]------------------------
0.252,-0.190,1.066,0.427,0.013,0.042,-0.015,87.308,-0.003,-0.024,0.013,0.426,107.259,-2.573
0.504,-0.189,1.067,0.428,0.019,0.043,-0.016,87.464,-0.027,-0.088,0.007,0.427,115.315,-2.572
0.756,-0.195,1.088,0.451,0.044,0.039,0.047,87.616,-0.225,0.052,0.023,0.434,123.363,-2.549
1.009,-0.207,1.153,0.541,0.037,0.025,0.055,87.728,-1.855,0.395,0.152,0.485,131.339,-2.459
1.261,-0.217,1.255,0.681,0.045,0.014,-0.002,87.771,-5.111,0.661,0.293,0.609,139.027,-2.319
1.513,-0.224,1.372,0.862,0.051,0.006,-0.066,87.773,-7.397,0.682,0.404,0.771,146.270,-2.138
1.765,-0.229,1.471,1.064,0.046,-0.002,-0.100,87.738,-8.590,0.724,0.491,0.964,152.952,-1.936
2.018,-0.231,1.529,1.261,0.048,-0.001,-0.113,87.687,-8.545,0.691,0.548,1.162,159.015,-1.739
2.270,-0.230,1.537,1.445,0.049,-0.006,-0.118,87.629,-7.549,0.514,0.589,1.352,164.468,-1.555
2.522,-0.227,1.506,1.595,0.044,-0.008,-0.104,87.575,-5.053,0.309,0.607,1.526,169.349,-1.405
2.774,-0.222,1.433,1.774,0.044,-0.008,-0.057,87.516,-2.202,0.200,0.621,1.694,173.709,-1.226
3.025,-0.219,1.374,1.895,0.039,-0.014,-0.022,87.464,0.445,0.161,0.657,1.842,177.564,-1.105
3.277,-0.214,1.284,2.109,0.042,-0.016,0.022,87.382,0.385,0.081,0.679,2.013,180.916,-0.891
3.528,-0.214,1.253,2.261,0.041,-0.018,0.011,87.312,-1.501,0.221,0.711,2.159,183.763,-0.739
3.780,-0.217,1.245,2.400,0.038,-0.022,-0.024,87.220,-2.262,0.511,0.771,2.320,186.137,-0.600
4.032,-0.224,1.245,2.538,0.038,-0.029,-0.048,87.143,-2.782,0.788,0.835,2.454,188.062,-0.462
4.284,-0.232,1.241,2.657,0.043,-0.031,-0.058,87.044,-2.552,1.057,0.859,2.602,189.534,-0.343
4.535,-0.243,1.222,2.809,0.052,-0.027,-0.051,86.952,-1.807,1.179,0.851,2.733,190.573,-0.191
4.787,-0.248,1.197,2.924,0.055,-0.024,-0.039,86.857,-0.687,1.181,0.829,2.858,191.208,-0.076
5.039,-0.248,1.170,3.027,0.053,-0.026,-0.030,86.762,-0.141,0.841,0.818,2.975,191.489,0.027
5.290,-0.244,1.153,3.097,0.051,-0.025,-0.023,86.676,-0.187,0.531,0.809,3.072,191.402,0.097
5.542,-0.233,1.127,3.213,0.048,-0.021,-0.024,86.587,0.178,0.145,0.778,3.168,191.028,0.213
5.794,-0.221,1.113,3.288,0.046,-0.019,-0.026,86.501,0.092,-0.242,0.754,3.252,190.366,0.288
6.046,-0.207,1.103,3.352,0.045,-0.016,-0.030,86.424,0.082,-0.620,0.724,3.322,189.466,0.352
6.298,-0.196,1.094,3.409,0.036,-0.016,-0.034,86.349,-0.052,-0.440,0.717,3.384,188.361,0.409
6.550,-0.185,1.083,3.459,0.039,-0.018,-0.038,86.280,0.158,-0.453,0.705,3.435,187.079,0.459
6.802,-0.180,1.071,3.490,0.036,-0.013,-0.034,86.219,0.558,-0.503,0.701,3.474,185.654,0.490
7.053,-0.177,1.057,3.516,0.036,-0.010,-0.026,86.165,0.812,-0.469,0.713,3.502,184.124,0.516
7.305,-0.179,1.043,3.530,0.040,-0.010,-0.026,86.115,1.056,-0.176,0.697,3.523,182.517,0.530
7.557,-0.180,1.031,3.532,0.048,-0.012,-0.025,86.076,1.186,-0.090,0.672,3.531,180.863,0.532
7.809,-0.178,1.022,3.520,0.052,-0.013,-0.024,86.048,1.070,-0.292,0.696,3.526,179.205,0.520
8.061,-0.172,1.017,3.500,0.048,-0.013,-0.022,86.030,0.949,-0.580,0.690,3.510,177.579,0.500
8.313,-0.163,1.016,3.462,0.041,-0.013,-0.022,86.025,0.848,-0.832,0.684,3.480,176.026,0.462
8.565,-0.155,1.017,3.416,0.038,-0.014,-0.027,86.032,0.701,-0.939,0.679,3.440,174.582,0.416
8.817,-0.149,1.021,3.355,0.046,-0.014,-0.026,86.052,0.584,-0.962,0.689,3.387,173.286,0.355
9.068,-0.145,1.025,3.281,0.043,-0.016,-0.026,86.088,0.499,-0.947,0.705,3.320,172.173,0.281
9.320,-0.139,1.027,3.194,0.048,-0.020,-0.033,86.141,0.494,-1.107,0.736,3.238,171.296,0.194
9.572,-0.134,1.028,3.109,0.040,-0.022,-0.037,86.207,0.586,-1.078,0.762,3.148,170.690,0.109
9.824,-0.129,1.023,2.999,0.039,-0.025,-0.042,86.282,0.843,-1.179,0.785,3.053,170.374,-0.001
10.076,-0.127,1.014,2.901,0.037,-0.027,-0.042,86.366,1.281,-1.058,0.824,2.955,170.361,-0.099
10.328,-0.129,0.999,2.790,0.030,-0.029,-0.041,86.461,1.674,-0.842,0.833,2.844,170.694,-0.210
10.580,-0.135,0.985,2.685,0.040,-0.035,-0.032,86.577,1.761,-0.647,0.870,2.732,171.355,-0.315
10.832,-0.144,0.970,2.562,0.044,-0.034,-0.026,86.695,2.073,-0.307,0.887,2.618,172.369,-0.438
11.084,-0.153,0.961,2.446,0.043,-0.034,-0.031,86.824,1.981,-0.248,0.900,2.500,173.750,-0.554
11.336,-0.162,0.954,2.324,0.046,-0.036,-0.039,86.959,2.057,-0.048,0.913,2.382,175.499,-0.676
11.588,-0.170,0.947,2.198,0.044,-0.034,-0.037,87.108,2.249,0.120,0.927,2.257,177.630,-0.802
11.840,-0.178,0.936,2.055,0.046,-0.032,-0.039,87.266,2.567,0.324,0.924,2.131,180.146,-0.945
12.091,-0.186,0.923,1.917,0.047,-0.034,-0.048,87.438,2.874,0.348,0.931,1.997,183.068,-1.083
12.343,-0.190,0.909,1.779,0.053,-0.034,-0.041,87.629,3.119,0.293,0.909,1.852,186.435,-1.221
12.595,-0.192,0.896,1.655,0.055,-0.031,-0.031,87.825,3.527,0.248,0.896,1.710,190.251,-1.345
12.847,-0.190,0.884,1.504,0.051,-0.030,-0.028,88.035,3.458,0.007,0.884,1.563,194.522,-1.496
13.131,-0.186,0.874,1.355,0.040,-0.028,-0.030,88.297,3.520,-0.207,0.855,1.388,200.277,-1.645
13.383,-0.180,0.868,1.157,0.044,-0.027,-0.032,88.536,3.356,-0.263,0.829,1.230,205.520,-1.843
13.634,-0.175,0.863,1.002,0.053,-0.026,-0.044,88.782,3.531,-0.437,0.829,1.075,211.314,-1.998
13.886,-0.167,0.854,0.868,0.050,-0.027,-0.052,89.019,3.843,-0.765,0.805,0.942,217.557,-2.132
14.138,-0.155,0.840,0.755,0.050,-0.021,-0.044,89.256,4.350,-1.171,0.767,0.817,224.208,-2.245
14.389,-0.144,0.824,0.677,0.042,-0.017,-0.035,89.476,4.762,-1.371,0.746,0.720,231.195,-2.323
14.641,-0.131,0.810,0.637,0.047,-0.016,-0.016,89.673,5.008,-1.721,0.708,0.656,238.446,-2.363
14.893,-0.116,0.801,0.639,0.043,-0.017,-0.014,89.834,4.687,-1.799,0.703,0.636,245.828,-2.361
15.145,-0.105,0.805,0.684,0.043,-0.020,-0.023,89.960,4.052,-1.838,0.727,0.657,253.206,-2.316
15.396,-0.100,0.816,0.763,0.034,-0.021,-0.022,90.051,3.442,-1.660,0.748,0.717,260.458,-2.237
15.648,-0.100,0.831,0.856,0.035,-0.024,-0.029,90.117,2.869,-1.427,0.762,0.799,267.484,-2.144
15.900,-0.109,0.847,0.992,0.037,-0.024,-0.051,90.155,2.714,-0.895,0.799,0.917,274.636,-2.008
16.151,-0.120,0.857,1.131,0.052,-0.025,-0.043,90.165,2.821,-0.569,0.826,1.049,280.945,-1.869
16.403,-0.127,0.860,1.277,0.056,-0.027,-0.050,90.153,3.046,-0.476,0.827,1.196,286.831,-1.723
16.655,-0.130,0.858,1.445,0.058,-0.022,-0.045,90.134,3.335,-0.717,0.809,1.342,292.254,-1.555
16.907,-0.126,0.851,1.618,0.051,-0.023,-0.043,90.085,3.672,-1.065,0.794,1.510,297.162,-1.382
17.158,-0.118,0.843,1.783,0.046,-0.020,-0.031,90.008,3.897,-1.481,0.778,1.698,301.530,-1.217
17.410,-0.108,0.835,1.969,0.043,-0.020,-0.027,89.928,4.175,-1.835,0.734,1.878,305.309,-1.031
17.662,-0.097,0.829,2.173,0.043,-0.018,-0.028,89.821,3.983,-1.931,0.734,2.076,308.520,-0.827
17.914,-0.086,0.828,2.345,0.050,-0.017,-0.025,89.711,3.916,-2.087,0.724,2.262,311.117,-0.655
18.165,-0.073,0.828,2.551,0.043,-0.016,-0.026,89.579,3.744,-2.492,0.714,2.461,313.128,-0.449
18.417,-0.060,0.830,2.761,0.029,-0.017,-0.033,89.444,3.646,-2.648,0.719,2.650,314.519,-0.239
18.669,-0.053,0.832,2.947,0.030,-0.015,-0.030,89.298,3.601,-2.622,0.701,2.838,315.313,-0.053
18.920,-0.051,0.833,3.121,0.032,-0.013,-0.029,89.142,3.607,-2.355,0.674,3.024,315.545,0.121
19.172,-0.052,0.833,3.276,0.038,-0.012,-0.031,88.982,3.645,-2.072,0.655,3.202,315.183,0.276
19.424,-0.056,0.834,3.439,0.038,-0.009,-0.026,88.818,3.592,-1.852,0.637,3.372,314.286,0.439
19.676,-0.060,0.834,3.617,0.044,-0.010,-0.034,88.646,3.681,-1.853,0.629,3.540,312.854,0.617
19.927,-0.061,0.833,3.765,0.043,-0.011,-0.033,88.470,3.804,-1.973,0.641,3.700,310.910,0.765
20.179,-0.056,0.830,3.934,0.050,-0.011,-0.036,88.291,3.914,-2.392,0.644,3.854,308.475,0.934
20.431,-0.047,0.825,4.088,0.039,-0.010,-0.037,88.103,4.001,-2.639,0.634,4.006,305.564,1.088
20.683,-0.036,0.821,4.225,0.039,-0.006,-0.034,87.907,4.062,-2.927,0.611,4.157,302.177,1.225
20.935,-0.025,0.816,4.366,0.028,-0.007,-0.034,87.715,4.113,-3.070,0.596,4.293,298.338,1.366
21.187,-0.018,0.813,4.487,0.029,-0.004,-0.032,87.520,4.066,-2.965,0.591,4.423,294.084,1.487
21.486,-0.015,0.813,4.619,0.034,-0.005,-0.033,87.276,4.017,-2.839,0.585,4.572,288.137,1.619
21.738,-0.015,0.816,4.711,0.034,-0.002,-0.032,87.090,3.837,-2.836,0.557,4.672,283.056,1.711
21.990,-0.015,0.820,4.796,0.038,0.000,-0.035,86.912,3.684,-2.762,0.530,4.758,277.681,1.796
22.243,-0.016,0.823,4.859,0.037,0.001,-0.040,86.741,3.718,-2.734,0.495,4.830,272.062,1.859
22.496,-0.018,0.823,4.914,0.045,-0.002,-0.041,86.574,3.850,-2.600,0.504,4.891,266.233,1.914
22.748,-0.019,0.817,4.953,0.040,-0.004,-0.046,86.419,4.149,-2.643,0.539,4.935,260.240,1.953
23.001,-0.022,0.811,4.978,0.033,0.021,-0.006,86.272,4.385,-2.636,0.382,4.967,254.127,1.978
23.253,-0.024,0.800,4.991,0.036,0.028,0.012,86.136,4.546,-2.689,0.233,4.985,247.939,1.991
23.505,-0.026,0.788,4.992,0.037,0.001,-0.030,86.009,5.019,-2.650,0.449,4.991,241.710,1.992
23.757,-0.030,0.777,4.978,0.034,0.030,0.015,85.892,5.050,-2.551,0.364,4.986,235.479,1.978
24.009,-0.032,0.769,4.955,0.045,-0.000,-0.032,85.788,5.014,-2.414,0.469,4.966,229.291,1.955
24.261,-0.037,0.762,4.918,0.029,0.006,-0.027,85.694,5.062,-2.252,0.502,4.937,223.177,1.918
24.514,-0.042,0.756,4.871,0.045,0.007,-0.028,85.614,5.092,-2.198,0.449,4.893,217.178,1.871
24.766,-0.048,0.751,4.808,0.054,0.009,-0.031,85.547,5.080,-2.006,0.429,4.838,211.332,1.808
25.018,-0.047,0.748,4.725,0.048,0.012,-0.026,85.499,5.106,-2.321,0.431,4.766,205.684,1.725
25.270,-0.040,0.747,4.633,0.050,0.012,-0.034,85.469,4.966,-2.712,0.388,4.679,200.288,1.633
25.522,-0.028,0.750,4.510,0.040,0.017,-0.028,85.462,4.870,-2.919,0.357,4.571,195.196,1.510
25.775,-0.014,0.759,4.363,0.037,0.018,-0.025,85.481,4.536,-3.306,0.328,4.441,190.474,1.363
26.027,-0.007,0.772,4.194,0.023,0.019,-0.028,85.531,4.187,-3.179,0.298,4.286,186.198,1.194
26.279,-0.005,0.784,4.022,0.034,0.018,-0.042,85.612,4.005,-3.093,0.296,4.107,182.446,1.022
26.531,-0.009,0.796,3.785,0.040,0.022,-0.041,85.725,3.817,-2.912,0.289,3.904,179.288,0.785
26.783,-0.018,0.800,3.547,0.030,0.022,-0.048,85.882,3.949,-2.597,0.255,3.661,176.671,0.547
27.035,-0.028,0.797,3.294,0.045,0.024,-0.033,86.059,4.225,-2.332,0.255,3.417,174.980,0.294
27.287,-0.039,0.791,3.027,0.047,0.019,-0.033,86.269,4.495,-2.038,0.256,3.153,174.084,0.027
27.539,-0.047,0.784,2.723,0.054,0.017,-0.024,86.512,4.624,-2.112,0.307,2.869,174.048,-0.277
27.791,-0.049,0.780,2.423,0.050,0.013,-0.032,86.793,4.583,-2.214,0.344,2.563,174.930,-0.577
28.043,-0.048,0.778,2.090,0.043,0.011,-0.035,87.102,4.634,-2.343,0.369,2.246,176.793,-0.910
28.295,-0.047,0.775,1.779,0.038,0.008,-0.039,87.437,4.718,-2.286,0.426,1.921,179.658,-1.221
28.547,-0.049,0.771,1.406,0.042,0.002,-0.028,87.804,4.747,-2.189,0.490,1.582,183.569,-1.594
28.799,-0.054,0.766,1.072,0.037,-0.005,-0.041,88.190,4.921,-1.901,0.554,1.247,188.533,-1.928
29.051,-0.061,0.760,0.736,0.045,-0.008,-0.039,88.613,5.114,-1.685,0.603,0.892,194.578,-2.264
29.302,-0.071,0.761,0.431,0.036,-0.016,0.005,89.039,5.181,-1.567,0.645,0.558,201.701,-2.569
29.554,-0.075,0.798,0.568,0.063,-0.013,-0.053,89.229,3.474,-1.608,0.665,0.515,209.510,-2.432
29.807,-0.074,0.829,0.741,0.055,-0.015,-0.085,89.252,2.640,-1.848,0.690,0.661,217.082,-2.259
30.059,-0.070,0.834,0.925,0.031,-0.011,-0.084,89.241,3.506,-2.022,0.675,0.833,224.139,-2.075
30.311,-0.071,0.810,1.103,0.029,-0.014,-0.064,89.211,4.756,-1.831,0.668,1.015,230.641,-1.897
30.563,-0.079,0.770,1.291,0.047,-0.011,-0.034,89.173,6.327,-1.367,0.657,1.194,236.573,-1.709
30.814,-0.090,0.731,1.466,0.047,-0.009,-0.004,89.144,7.744,-0.891,0.634,1.351,241.973,-1.534
31.066,-0.098,0.709,1.640,0.060,-0.007,0.017,89.079,7.109,-0.965,0.622,1.537,246.829,-1.360
31.318,-0.101,0.710,1.800,0.050,-0.012,-0.004,89.017,5.686,-1.140,0.635,1.706,251.138,-1.200
31.569,-0.100,0.724,1.920,0.051,-0.011,-0.025,88.960,4.483,-1.478,0.642,1.859,254.942,-1.080
31.821,-0.097,0.743,2.037,0.046,-0.008,-0.035,88.906,3.711,-1.714,0.623,1.998,258.287,-0.963
32.073,-0.089,0.768,2.214,0.048,-0.009,-0.046,88.849,3.459,-1.973,0.636,2.131,261.229,-0.786
32.325,-0.079,0.778,2.334,0.053,-0.008,-0.043,88.782,3.825,-2.311,0.602,2.275,263.881,-0.666
32.576,-0.072,0.782,2.429,0.039,-0.008,-0.039,88.717,4.246,-2.283,0.613,2.392,265.964,-0.571
32.828,-0.064,0.786,2.566,0.041,-0.007,-0.029,88.647,4.307,-2.294,0.604,2.512,267.681,-0.434
33.080,-0.060,0.789,2.670,0.041,-0.009,-0.028,88.581,4.170,-2.236,0.622,2.620,269.038,-0.330
33.332,-0.059,0.794,2.772,0.042,-0.013,-0.032,88.514,4.116,-2.128,0.639,2.722,270.064,-0.228
33.584,-0.058,0.797,2.850,0.048,-0.015,-0.038,88.449,4.092,-2.121,0.664,2.813,270.786,-0.150
33.835,-0.056,0.798,2.919,0.050,-0.012,-0.036,88.392,4.210,-2.074,0.669,2.891,271.250,-0.081
34.087,-0.055,0.796,2.961,0.051,-0.013,-0.035,88.347,4.417,-2.248,0.672,2.948,271.490,-0.039
34.339,-0.049,0.792,3.014,0.048,-0.013,-0.031,88.301,4.433,-2.380,0.675,3.003,271.554,0.014
34.591,-0.037,0.784,3.065,0.040,-0.014,-0.030,88.264,4.733,-2.794,0.662,3.045,271.481,0.065
34.842,-0.030,0.780,3.085,0.037,-0.009,-0.025,88.235,4.828,-2.980,0.634,3.074,271.291,0.085
35.094,-0.026,0.778,3.099,0.032,-0.009,-0.023,88.214,4.711,-2.778,0.635,3.093,271.027,0.099
35.346,-0.026,0.777,3.104,0.039,-0.010,-0.027,88.200,4.568,-2.534,0.631,3.101,270.722,0.104
35.597,-0.032,0.778,3.101,0.036,-0.010,-0.034,88.193,4.580,-2.153,0.631,3.103,270.400,0.101
35.849,-0.039,0.778,3.094,0.049,-0.009,-0.029,88.192,4.516,-1.984,0.626,3.097,270.086,0.094
36.101,-0.044,0.778,3.087,0.051,-0.008,-0.030,88.191,4.528,-2.015,0.629,3.091,269.791,0.087
36.353,-0.047,0.779,3.070,0.049,-0.010,-0.029,88.197,4.409,-2.122,0.630,3.078,269.525,0.070
36.604,-0.045,0.781,3.057,0.050,-0.011,-0.028,88.204,4.382,-2.363,0.647,3.065,269.300,0.057
36.856,-0.042,0.782,3.037,0.041,-0.013,-0.033,88.216,4.385,-2.466,0.658,3.046,269.122,0.037
37.108,-0.037,0.784,3.002,0.035,-0.014,-0.037,88.237,4.422,-2.518,0.663,3.020,269.016,0.002
37.360,-0.036,0.784,2.975,0.037,-0.015,-0.037,88.264,4.454,-2.521,0.683,2.988,269.002,-0.025
37.611,-0.038,0.783,2.938,0.036,-0.017,-0.030,88.298,4.555,-2.164,0.717,2.951,269.098,-0.062
37.863,-0.044,0.782,2.887,0.045,-0.022,-0.032,88.331,4.554,-2.013,0.750,2.917,269.291,-0.113
38.115,-0.050,0.780,2.844,0.041,-0.021,-0.031,88.374,4.614,-1.686,0.786,2.875,269.645,-0.156
38.366,-0.057,0.781,2.796,0.044,-0.024,-0.025,88.426,4.576,-1.572,0.789,2.825,270.122,-0.204
38.618,-0.064,0.785,2.745,0.047,-0.029,-0.025,88.485,4.211,-1.469,0.829,2.772,270.753,-0.255
38.870,-0.070,0.795,2.696,0.039,-0.033,-0.032,88.543,4.011,-1.535,0.879,2.722,271.552,-0.304
39.121,-0.075,0.806,2.645,0.049,-0.039,-0.044,88.604,3.512,-1.451,0.918,2.672,272.499,-0.355
39.373,-0.076,0.811,2.608,0.053,-0.040,-0.048,88.667,3.524,-1.586,0.963,2.624,273.603,-0.392
39.624,-0.073,0.816,2.540,0.045,-0.042,-0.045,88.742,3.854,-1.854,0.985,2.565,274.873,-0.460
39.876,-0.068,0.817,2.476,0.035,-0.041,-0.032,88.821,3.948,-2.040,0.998,2.507,276.320,-0.524
40.128,-0.065,0.820,2.412,0.036,-0.044,-0.026,88.908,3.731,-2.006,1.004,2.443,277.964,-0.588
40.379,-0.064,0.827,2.341,0.046,-0.042,-0.025,89.002,3.396,-2.031,1.012,2.376,279.807,-0.659
40.631,-0.062,0.841,2.255,0.040,-0.043,-0.040,89.107,2.950,-2.019,1.000,2.300,281.872,-0.745
40.883,-0.059,0.853,2.164,0.046,-0.039,-0.049,89.227,2.660,-2.187,0.969,2.214,284.199,-0.836
41.134,-0.056,0.859,2.074,0.043,-0.037,-0.053,89.355,2.895,-2.254,0.953,2.123,286.787,-0.926
41.386,-0.051,0.858,1.960,0.037,-0.034,-0.043,89.504,3.372,-2.359,0.941,2.016,289.698,-1.040
41.638,-0.046,0.853,1.860,0.044,-0.035,-0.033,89.660,3.693,-2.483,0.929,1.909,292.946,-1.140
41.890,-0.041,0.845,1.730,0.033,-0.036,-0.032,89.828,3.838,-2.416,0.922,1.795,296.540,-1.270
42.142,-0.039,0.840,1.627,0.038,-0.038,-0.032,90.003,3.944,-2.362,0.943,1.681,300.487,-1.373
42.393,-0.038,0.836,1.522,0.046,-0.039,-0.029,90.164,3.882,-2.322,0.976,1.591,304.758,-1.478
42.645,-0.034,0.837,1.433,0.050,-0.040,-0.026,90.343,3.648,-2.555,0.987,1.487,309.345,-1.567
42.896,-0.029,0.843,1.359,0.035,-0.040,-0.026,90.512,3.325,-2.802,0.991,1.402,314.224,-1.641
43.148,-0.022,0.852,1.287,0.035,-0.041,-0.033,90.674,2.992,-2.902,0.978,1.329,319.347,-1.713
43.400,-0.023,0.858,1.231,0.024,-0.040,-0.049,90.836,3.032,-2.588,0.984,1.262,324.687,-1.769
43.652,-0.028,0.861,1.166,0.041,-0.038,-0.048,91.011,3.118,-2.195,0.965,1.193,330.605,-1.834
43.904,-0.036,0.859,1.112,0.046,-0.035,-0.040,91.173,3.466,-1.859,0.944,1.135,336.356,-1.888
44.155,-0.042,0.853,1.067,0.042,-0.034,-0.040,91.330,3.782,-1.780,0.916,1.086,342.271,-1.933
44.407,-0.045,0.846,1.027,0.051,-0.028,-0.033,91.483,3.859,-1.976,0.861,1.047,348.328,-1.973
44.659,-0.046,0.840,0.998,0.049,-0.025,-0.028,91.634,3.887,-2.168,0.843,1.012,354.503,-2.002
44.911,-0.043,0.837,0.979,0.041,-0.022,-0.027,91.776,3.719,-2.309,0.793,0.988,360.768,-2.021
45.163,-0.041,0.838,0.968,0.040,-0.020,-0.031,91.913,3.601,-2.349,0.746,0.973,367.093,-2.032
45.415,-0.042,0.840,0.969,0.042,-0.019,-0.030,92.041,3.569,-2.243,0.734,0.968,373.451,-2.031
45.667,-0.044,0.842,0.992,0.048,-0.019,-0.035,92.155,3.534,-2.219,0.729,0.980,379.800,-2.008
45.919,-0.043,0.845,1.041,0.053,-0.016,-0.023,92.246,3.444,-2.313,0.749,1.016,386.074,-1.959
46.171,-0.040,0.847,1.114,0.040,-0.026,-0.039,92.314,3.447,-2.376,0.777,1.077,392.196,-1.886
46.424,-0.035,0.850,1.207,0.045,-0.024,-0.039,92.358,3.385,-2.527,0.791,1.159,398.095,-1.793
46.676,-0.029,0.851,1.297,0.051,-0.025,-0.041,92.382,3.446,-2.737,0.804,1.259,403.704,-1.703
46.928,-0.020,0.850,1.425,0.044,-0.023,-0.046,92.388,3.497,-2.920,0.772,1.372,408.992,-1.575
47.180,-0.013,0.846,1.558,0.034,-0.014,-0.042,92.373,3.690,-3.088,0.719,1.501,413.897,-1.442
47.431,-0.013,0.837,1.718,0.031,-0.015,-0.041,92.341,3.965,-2.780,0.702,1.640,418.379,-1.282
47.683,-0.020,0.828,1.875,0.036,-0.014,-0.031,92.291,4.150,-2.418,0.707,1.790,422.402,-1.125
47.935,-0.028,0.822,2.036,0.049,-0.016,-0.034,92.221,4.144,-2.154,0.697,1.952,425.943,-0.964
48.187,-0.036,0.817,2.206,0.050,-0.012,-0.033,92.134,4.121,-2.015,0.679,2.121,428.965,-0.794
48.439,-0.037,0.816,2.414,0.061,-0.009,-0.026,92.022,4.020,-2.273,0.636,2.307,431.424,-0.586
48.691,-0.032,0.817,2.596,0.064,-0.005,-0.031,91.892,3.918,-2.677,0.585,2.500,433.290,-0.404
48.943,-0.016,0.823,2.829,0.055,0.000,-0.031,91.755,3.618,-3.344,0.533,2.689,434.596,-0.171
49.195,-0.001,0.828,3.020,0.037,0.005,-0.033,91.556,3.466,-3.757,0.483,2.935,435.219,0.020
49.447,0.014,0.835,3.259,0.025,0.010,-0.031,91.360,3.251,-3.941,0.427,3.160,435.087,0.259
49.698,0.017,0.840,3.499,0.025,0.008,-0.032,91.150,3.269,-3.459,0.453,3.385,434.244,0.499
49.950,0.010,0.844,3.724,0.035,0.003,-0.035,90.921,3.336,-2.948,0.478,3.616,432.676,0.724
50.202,-0.003,0.847,3.932,0.040,0.000,-0.040,90.686,3.317,-2.352,0.512,3.837,430.401,0.932
50.454,-0.013,0.847,4.108,0.047,0.001,-0.039,90.451,3.452,-2.265,0.515,4.044,427.442,1.108
50.706,-0.026,0.842,4.380,0.051,0.003,-0.041,90.181,3.665,-2.275,0.506,4.275,423.807,1.380
50.957,-0.032,0.835,4.534,0.048,0.005,-0.040,89.926,3.946,-2.373,0.484,4.474,419.494,1.534
51.210,-0.034,0.823,4.779,0.048,0.006,-0.029,89.651,4.326,-2.437,0.478,4.681,414.540,1.779
51.462,-0.035,0.815,4.954,0.043,0.009,-0.023,89.379,4.367,-2.522,0.418,4.871,408.987,1.954
51.715,-0.035,0.808,5.152,0.040,0.029,0.010,89.125,4.276,-2.666,0.399,5.030,402.924,2.152
52.015,-0.034,0.808,5.334,0.041,0.016,-0.011,88.775,3.963,-2.847,0.360,5.253,394.857,2.334
52.268,-0.035,0.809,5.475,0.043,0.008,-0.022,88.499,3.919,-2.678,0.309,5.408,387.554,2.475
52.521,-0.034,0.809,5.484,0.043,0.007,-0.026,88.291,3.894,-2.791,0.428,5.475,379.876,2.484
52.775,-0.034,0.809,5.484,0.043,0.007,-0.026,88.133,3.892,-2.801,0.441,5.483,372.111,2.484
53.028,-0.034,0.809,5.484,0.043,0.007,-0.026,87.980,3.891,-2.802,0.442,5.484,364.336,2.484
53.282,-0.034,0.809,5.484,0.043,0.007,-0.026,87.828,3.891,-2.802,0.442,5.484,356.560,2.484
53.535,-0.034,0.809,5.484,0.043,0.007,-0.026,87.677,3.891,-2.802,0.442,5.484,348.784,2.484
53.788,-0.034,0.809,5.484,0.043,0.007,-0.026,87.525,3.891,-2.802,0.442,5.484,341.007,2.484
54.040,-0.034,0.809,5.484,0.043,0.007,-0.026,87.373,3.891,-2.802,0.442,5.484,333.231,2.484
54.293,-0.034,0.809,5.484,0.043,0.007,-0.026,87.221,3.891,-2.802,0.442,5.484,325.455,2.484
54.544,-0.034,0.809,5.484,0.043,0.007,-0.026,87.059,3.891,-2.802,0.442,5.484,317.160,2.484
54.797,-0.034,0.809,5.484,0.043,0.007,-0.026,86.907,3.891,-2.802,0.442,5.484,309.383,2.484
55.050,-0.034,0.809,5.484,0.043,0.007,-0.026,86.755,3.891,-2.802,0.442,5.484,301.607,2.484
55.302,-0.034,0.809,5.484,0.043,0.007,-0.026,86.603,3.891,-2.802,0.442,5.484,293.831,2.484
55.554,-0.034,0.809,5.484,0.043,0.007,-0.026,86.451,3.891,-2.802,0.442,5.484,286.054,2.484
55.806,-0.034,0.809,5.484,0.043,0.007,-0.026,86.300,3.891,-2.802,0.442,5.484,278.278,2.484
56.059,-0.034,0.809,5.484,0.043,0.007,-0.026,86.148,3.891,-2.802,0.442,5.484,270.501,2.484
56.311,-0.034,0.809,5.484,0.043,0.007,-0.026,85.996,3.891,-2.802,0.442,5.484,262.725,2.484
56.564,-0.034,0.809,5.484,0.043,0.007,-0.026,85.844,3.891,-2.802,0.442,5.484,254.949,2.484
56.816,-0.034,0.809,5.484,0.043,0.007,-0.026,85.692,3.891,-2.802,0.442,5.484,247.172,2.484
57.069,0.728,0.870,5.391,0.056,-0.081,-0.060,85.540,4.122,-2.450,0.442,5.484,239.396,2.391
57.321,0.787,0.814,5.241,0.048,-0.021,-0.062,85.518,6.184,-17.962,1.206,5.338,231.813,2.241
57.574,0.861,0.744,5.055,0.054,-0.020,-0.043,85.551,8.214,-19.021,0.893,5.140,224.807,2.055
57.826,0.931,0.671,4.905,0.052,-0.007,-0.029,85.572,10.224,-20.440,0.671,4.969,218.385,1.905
58.078,1.014,0.587,4.773,0.049,-0.010,-0.035,85.574,11.942,-20.758,0.650,4.832,212.438,1.773
58.330,1.091,0.511,4.678,0.045,-0.016,-0.043,85.554,11.712,-19.319,0.667,4.729,206.868,1.678
58.582,1.155,0.447,4.570,0.013,-0.012,-0.028,85.541,13.305,-19.780,0.665,4.625,201.614,1.570
58.834,1.207,0.386,4.420,-0.008,-0.008,-0.006,85.559,13.140,-18.636,0.612,4.492,196.723,1.420
59.086,1.235,0.345,4.254,0.017,-0.001,0.015,85.601,13.555,-18.146,0.566,4.342,192.281,1.254
59.338,1.245,0.333,4.076,0.034,0.002,0.017,85.663,12.142,-17.237,0.515,4.180,188.328,1.076
59.590,1.240,0.344,3.932,0.004,0.005,-0.005,85.750,10.478,-16.389,0.457,3.997,184.695,0.932
59.842,1.216,0.385,3.704,0.020,0.017,-0.007,85.867,9.345,-16.263,0.361,3.797,181.884,0.704
60.094,1.179,0.437,3.504,0.028,0.023,0.004,85.995,7.983,-15.793,0.296,3.599,179.699,0.504
60.346,1.131,0.504,3.297,0.024,0.028,0.002,86.139,5.941,-15.140,0.239,3.395,178.142,0.297
60.598,1.080,0.579,3.082,0.051,0.025,-0.043,86.304,5.252,-15.413,0.219,3.183,177.235,0.082
60.850,1.034,0.642,2.885,0.057,0.026,-0.071,86.474,3.129,-14.502,0.220,2.980,176.990,-0.115
61.102,0.983,0.702,2.636,0.028,0.035,-0.052,86.678,1.776,-13.754,0.177,2.752,177.395,-0.364
61.354,0.930,0.743,2.415,0.009,0.034,-0.045,86.888,1.896,-13.368,0.109,2.533,178.502,-0.585
61.606,0.880,0.775,2.246,0.027,0.029,-0.025,87.109,1.852,-12.962,0.136,2.317,180.316,-0.754
61.858,0.784,0.828,1.991,0.010,-0.001,-0.025,87.341,1.796,-11.812,0.380,2.103,182.761,-1.009
62.110,0.695,0.875,1.801,0.007,-0.030,-0.032,87.577,1.692,-10.748,0.691,1.899,185.892,-1.199
62.362,0.582,0.924,1.606,0.004,-0.054,-0.049,87.819,0.719,-7.589,1.013,1.703,189.650,-1.394
62.615,0.455,0.951,1.436,-0.010,-0.077,-0.102,88.057,0.982,-4.594,1.293,1.525,193.987,-1.564
62.866,0.299,0.952,1.264,0.006,-0.098,-0.076,88.301,1.842,-1.030,1.540,1.352,198.877,-1.736
63.118,0.147,0.932,1.121,0.038,-0.105,-0.045,88.544,2.874,2.828,1.682,1.193,204.285,-1.879
63.370,-0.022,0.902,0.968,0.052,-0.111,-0.026,88.784,3.437,7.490,1.754,1.047,210.161,-2.032
63.622,-0.160,0.879,0.832,0.094,-0.112,-0.019,89.038,3.380,7.855,1.792,0.896,216.512,-2.168
63.874,-0.288,0.862,0.680,0.103,-0.113,-0.023,89.288,3.073,7.227,1.837,0.760,223.319,-2.320
64.126,-0.362,0.854,0.559,0.135,-0.106,-0.041,89.547,3.062,7.170,1.788,0.623,230.562,-2.441
64.378,-0.382,0.850,0.499,0.129,-0.109,-0.048,89.779,3.165,4.446,1.775,0.526,238.168,-2.501
64.630,-0.357,0.835,0.462,0.069,-0.111,-0.060,89.972,4.183,1.896,1.794,0.479,245.996,-2.538
64.881,-0.323,0.836,0.432,0.071,-0.096,0.007,90.159,3.775,0.216,1.760,0.442,253.944,-2.568
65.133,-0.348,0.862,0.426,0.020,-0.089,-0.010,90.327,0.993,3.807,1.641,0.430,261.974,-2.574
65.385,-0.352,0.860,0.425,0.009,-0.086,-0.016,90.498,2.884,3.084,1.548,0.425,270.567,-2.575
65.637,-0.345,0.860,0.425,0.023,-0.089,-0.012,90.656,2.994,2.773,1.525,0.425,278.629,-2.575
65.889,-0.353,0.859,0.424,0.000,-0.088,-0.013,90.814,3.084,2.976,1.522,0.425,286.692,-2.576
66.141,-0.348,0.860,0.425,0.016,-0.084,-0.013,90.9