Time, X, Y, Z, Pitch, Yaw, Roll, errorHeight, errorRoll, errorPitch, errorYaw, HLeadOut, HIntegralOut, HeightError
------------------------[Parameters]------------------------
HOVER_VALUE, ctrl_x->ref, ctrl_y->ref, ctrl_yaw->ref, ctrl_h->ref, ctrl_h->kp, ctrl_h->tau_i, ctrl_h->tau_d, ctrl_h->alpha, ctrl_vel_x->tau_i, ctrl_vel_x->tau_d, ctrl_vel_x->alpha
85.000, -0.071, 0.864, 0.057, 3.000, 21.964, 6.447, 1.802, 0.200, 0.000, 0.347, 0.300, 
------------------------[Parameters]------------------------
0.254,-0.069,0.864,0.430,0.024,0.048,-0.015,93.395,0.012,-0.054,0.026,0.429,29.501,-2.570
0.508,-0.067,0.863,0.432,0.032,0.050,-0.016,93.608,0.047,-0.146,0.030,0.430,31.690,-2.568
0.761,-0.073,0.882,0.474,0.043,0.050,0.044,93.805,-0.745,0.211,0.069,0.437,33.877,-2.526
1.014,-0.078,0.934,0.634,0.060,0.040,0.040,93.905,-2.213,0.317,0.146,0.489,36.042,-2.366
1.266,-0.075,1.023,0.906,0.056,0.037,0.001,93.807,-4.488,0.155,0.207,0.636,38.264,-2.094
1.518,-0.065,1.122,1.276,0.049,0.029,-0.051,93.494,-6.280,-0.118,0.271,0.869,40.184,-1.724
1.771,-0.051,1.203,1.714,0.049,0.028,-0.085,92.967,-7.412,-0.449,0.323,1.192,41.867,-1.286
2.024,-0.037,1.244,2.193,0.042,0.030,-0.103,92.261,-7.176,-0.734,0.314,1.584,43.244,-0.807
2.276,-0.023,1.234,2.708,0.045,0.026,-0.100,91.414,-5.670,-0.944,0.328,2.025,44.266,-0.292
2.529,-0.013,1.194,3.231,0.039,0.032,-0.010,90.460,-3.767,-1.181,0.317,2.499,44.897,0.231
2.782,-0.007,1.150,3.794,0.032,0.026,0.021,89.387,-3.241,-1.022,0.332,3.009,45.109,0.794
3.034,-0.006,1.149,4.368,0.029,0.026,0.088,88.195,-4.497,-0.944,0.337,3.554,44.871,1.368
3.286,-0.008,1.181,4.754,0.030,0.022,0.068,86.985,-6.066,-0.819,0.386,4.085,44.169,1.754
3.540,-0.008,1.181,4.754,0.030,0.022,0.068,86.162,-6.112,-0.802,0.392,4.420,43.085,1.754
3.794,-0.018,1.308,5.270,0.045,0.039,0.025,85.145,-12.806,0.149,0.215,4.831,41.690,2.270
4.048,-0.018,1.308,5.270,0.045,0.039,0.025,84.511,-13.367,0.240,0.208,5.050,40.026,2.270
4.301,-0.018,1.308,5.270,0.045,0.039,0.025,84.100,-13.418,0.248,0.207,5.160,38.228,2.270
4.599,-0.018,1.308,5.270,0.045,0.039,0.025,83.748,-13.423,0.249,0.207,5.222,35.984,2.270
4.892,-0.018,1.308,5.270,0.045,0.039,0.025,83.467,-13.423,0.249,0.207,5.249,33.698,2.270
5.145,-0.018,1.308,5.270,0.045,0.039,0.025,83.257,-13.423,0.249,0.207,5.259,31.778,2.270
5.399,0.108,1.778,4.694,-0.891,0.501,2.771,83.273,-17.496,5.716,-2.392,5.165,29.864,1.694
5.650,0.150,1.781,4.359,0.048,-0.076,-0.088,83.829,-13.993,-5.753,-0.367,4.823,28.053,1.359
5.902,0.200,1.739,4.008,0.042,-0.074,-0.078,84.393,-11.369,-7.283,1.300,4.496,26.638,1.008
6.155,0.253,1.664,3.667,0.052,-0.071,-0.081,85.010,-9.151,-7.789,1.450,4.157,25.509,0.667
6.407,0.306,1.565,3.393,0.039,-0.067,-0.069,85.609,-4.696,-9.320,1.431,3.839,24.661,0.393
6.659,0.361,1.448,3.174,0.042,-0.065,-0.043,86.171,-3.146,-9.476,1.396,3.550,24.073,0.174
6.911,0.416,1.307,2.975,0.030,-0.061,-0.023,86.639,-1.005,-9.877,1.386,3.315,23.706,-0.025
7.163,0.447,1.188,2.839,-0.007,-0.062,-0.009,87.057,2.910,-9.912,1.359,3.112,23.526,-0.161
7.415,0.456,1.082,2.734,0.006,-0.062,-0.003,87.405,3.747,-8.734,1.355,2.949,23.504,-0.266
7.668,0.442,0.984,2.628,0.024,-0.064,-0.020,87.704,2.381,-7.594,1.368,2.814,23.606,-0.372
7.920,0.416,0.904,2.517,0.020,-0.065,-0.028,87.993,3.984,-5.903,1.384,2.689,23.817,-0.483
8.172,0.367,0.810,2.348,0.028,-0.054,-0.021,88.299,5.800,-4.210,1.347,2.561,24.137,-0.652
8.424,0.325,0.747,2.197,0.042,-0.022,-0.015,88.654,5.792,-3.540,1.061,2.415,24.572,-0.803
8.676,0.273,0.687,1.993,0.039,0.002,-0.005,89.062,6.006,-2.658,0.735,2.251,25.141,-1.007
8.928,0.209,0.637,1.741,0.020,0.004,-0.016,89.556,5.806,-1.655,0.627,2.053,25.861,-1.259
9.181,0.153,0.608,1.542,0.040,0.008,-0.011,90.104,5.359,-1.012,0.586,1.839,26.759,-1.458
9.433,0.078,0.581,1.321,0.039,0.007,-0.028,90.657,5.440,0.331,0.581,1.630,27.836,-1.679
9.684,0.016,0.563,1.154,0.040,0.012,-0.028,91.199,5.969,2.723,0.536,1.434,29.087,-1.846
9.937,-0.064,0.541,0.960,0.044,0.015,-0.037,91.747,5.927,2.877,0.504,1.243,30.502,-2.040
10.189,-0.120,0.528,0.821,0.067,0.019,-0.010,92.284,6.109,3.942,0.455,1.064,32.075,-2.179
10.