Time, X, Y, Z, Pitch, Yaw, Roll, errorHeight, errorRoll, errorPitch, errorYaw, HLeadOut, HIntegralOut, HeightError
0.253,0.484,1.100,0.435,0.021,-0.016,-0.012,93.709,-0.018,-0.032,0.034
0.506,0.485,1.100,0.435,0.023,-0.016,-0.011,94.042,-0.073,-0.167,0.011
0.806,0.477,1.108,0.448,0.019,-0.013,0.023,94.436,-0.186,0.140,-0.002
1.105,0.462,1.158,0.521,0.038,-0.031,0.047,94.786,-1.135,0.347,0.125
1.356,0.440,1.267,0.663,0.041,-0.045,0.017,95.025,-3.100,0.649,0.274
1.607,0.418,1.395,0.826,0.049,-0.055,-0.036,95.199,-9.183,1.277,0.416
1.858,0.405,1.489,0.973,0.055,-0.066,-0.139,95.342,-10.133,1.170,0.545
2.109,0.402,1.537,1.116,0.053,-0.072,-0.163,95.476,-9.170,0.821,0.630
2.361,0.410,1.518,1.236,0.048,-0.067,-0.121,95.607,-6.333,0.540,0.640
2.661,0.429,1.435,1.357,0.039,-0.069,-0.072,95.763,-3.621,0.255,0.625
2.912,0.449,1.338,1.453,0.042,-0.068,-0.030,95.891,-1.729,0.014,0.638
3.164,0.468,1.247,1.538,0.046,-0.070,-0.010,96.022,0.421,-0.318,0.641
3.416,0.486,1.177,1.617,0.048,-0.067,0.016,96.140,0.649,-0.508,0.626
3.668,0.505,1.136,1.691,0.045,-0.069,0.011,96.252,0.601,-0.783,0.615
3.920,0.523,1.124,1.765,0.044,-0.065,0.003,96.358,0.000,-1.050,0.596
4.172,0.537,1.133,1.835,0.038,-0.066,-0.014,96.457,-0.744,-1.315,0.587
4.424,0.545,1.153,1.906,0.030,-0.062,-0.029,96.546,-1.177,-1.253,0.570
4.676,0.546,1.173,1.978,0.030,-0.060,-0.036,96.625,-1.638,-1.099,0.550
4.928,0.541,1.186,2.043,0.038,-0.059,-0.046,96.696,-1.718,-0.872,0.533
5.180,0.531,1.188,2.117,0.037,-0.061,-0.056,96.759,-1.387,-0.564,0.535
5.432,0.520,1.176,2.184,0.045,-0.060,-0.056,96.813,-0.812,-0.310,0.531
5.684,0.513,1.149,2.252,0.056,-0.057,-0.056,96.859,-0.164,-0.316,0.519
5.936,0.511,1.114,2.318,0.054,-0.053,-0.041,96.896,0.749,-0.347,0.499
6.188,0.517,1.073,2.392,0.056,-0.056,-0.030,96.923,2.136,-0.634,0.484
6.440,0.528,1.038,2.467,0.050,-0.057,-0.014,96.940,2.427,-0.980,0.477
6.691,0.539,1.017,2.540,0.037,-0.053,-0.009,96.946,2.282,-1.210,0.459
6.943,0.548,1.010,2.609,0.038,-0.055,-0.017,96.941,1.909,-1.333,0.466
7.195,0.550,1.009,2.688,0.034,-0.058,-0.033,96.926,1.566,-1.073,0.481
7.446,0.548,1.010,2.761,0.043,-0.058,-0.041,96.901,1.398,-0.855,0.496
7.698,0.544,1.005,2.836,0.045,-0.058,-0.045,96.874,1.697,-0.572,0.497
7.950,0.540,0.994,2.905,0.048,-0.057,-0.044,96.827,2.171,-0.626,0.511
8.201,0.535,0.973,2.981,0.046,-0.058,-0.036,96.773,2.826,-0.489,0.495
8.453,0.533,0.947,3.051,0.048,-0.060,-0.036,96.713,3.280,-0.511,0.522
8.705,0.531,0.923,3.117,0.049,-0.061,-0.028,96.646,3.857,-0.490,0.523
8.957,0.531,0.903,3.175,0.050,-0.058,-0.020,96.569,3.791,-0.521,0.523
9.209,0.530,0.884,3.239,0.046,-0.058,-0.023,96.492,4.100,-0.484,0.514
9.461,0.532,0.871,3.292,0.051,-0.057,-0.016,96.415,4.141,-0.564,0.521
9.713,0.533,0.865,3.335,0.047,-0.060,-0.022,96.334,4.031,-0.609,0.516
9.964,0.535,0.862,3.371,0.045,-0.063,-0.029,96.255,3.845,-0.648,0.538
10.216,0.537,0.862,3.402,0.047,-0.063,-0.038,96.180,3.846,-0.695,0.524
10.468,0.541,0.861,3.426,0.053,-0.061,-0.034,96.102,3.815,-0.786,0.528
10.719,0.547,0.857,3.444,0.051,-0.062,-0.037,96.028,4.025,-1.046,0.538
10.971,0.555,0.851,3.453,0.042,-0.062,-0.032,95.958,4.295,-1.226,0.553
11.223,0.562,0.844,3.457,0.039,-0.060,-0.029,95.893,4.339,-1.208,0.551
11.475,0.565,0.836,3.455,0.041,-0.063,-0.035,95.833,4.401,-1.090,0.552
11.727,0.564,0.828,3.445,0.039,-0.060,-0.032,95.780,4.585,-0.977,0.545
11.979,0.563,0.819,3.428,0.050,-0.059,-0.032,95.734,4.713,-0.904,0.548
12.231,0.564,0.808,3.401,0.053,-0.059,-0.036,95.698,4.961,-1.011,0.542
12.483,0.568,0.796,3.368,0.048,-0.060,-0.034,95.672,5.130,-1.120,0.535
12.735,0.575,0.782,3.326,0.048,-0.055,-0.026,95.658,5.528,-1.323,0.511
12.987,0.582,0.769,3.281,0.049,-0.055,-0.026,95.652,5.671,-1.445,0.489
13.239,0.589,0.762,3.230,0.049,-0.052,-0.020,95.659,5.744,-1.644,0.445
13.490,0.595,0.758,3.165,0.041,-0.051,-0.019,95.679,5.675,-1.794,0.433
13.742,0.600,0.760,3.104,0.044,-0.049,-0.021,95.718,5.299,-1.876,0.416
13.994,0.603,0.767,3.001,0.040,-0.048,-0.026,95.780,5.055,-1.755,0.399
14.245,0.604,0.775,2.895,0.040,-0.047,-0.031,95.862,4.719,-1.729,0.391
14.497,0.604,0.782,2.801,0.045,-0.048,-0.034,95.973,4.660,-1.681,0.392
14.749,0.604,0.787,2.675,0.046,-0.048,-0.038,96.114,4.778,-1.613,0.385
15.000,0.605,0.790,2.522,0.043,-0.046,-0.035,96.274,4.825,-1.720,0.373
15.252,0.606,0.790,2.378,0.041,-0.045,-0.038,96.460,4.991,-1.700,0.361
15.504,0.607,0.786,2.236,0.047,-0.046,-0.040,96.670,5.274,-1.728,0.347
15.755,0.607,0.777,2.073,0.042,-0.041,-0.033,96.909,5.536,-1.731,0.345
16.007,0.607,0.766,1.918,0.043,-0.040,-0.036,97.160,6.006,-1.651,0.318
16.259,0.605,0.752,1.749,0.042,-0.036,-0.028,97.455,6.129,-1.582,0.292
16.510,0.603,0.739,1.576,0.047,-0.036,-0.027,97.762,6.445,-1.548,0.260
16.762,0.601,0.728,1.428,0.052,-0.033,-0.027,98.089,6.394,-1.591,0.223
17.014,0.601,0.719,1.278,0.050,-0.032,-0.029,98.427,6.370,-1.647,0.218
17.265,0.603,0.710,1.133,0.041,-0.028,-0.034,98.777,6.642,-1.689,0.199
17.517,0.604,0.704,1.009,0.040,-0.028,-0.022,99.144,6.604,-1.758,0.181
17.768,0.604,0.699,0.882,0.052,-0.030,-0.029,99.511,6.595,-1.685,0.171
18.020,0.606,0.697,0.793,0.059,-0.033,-0.032,99.876,6.449,-1.816,0.177
18.272,0.616,0.693,0.734,0.066,-0.031,-0.042,100.000,6.528,-2.198,0.198
18.524,0.635,0.686,0.712,0.056,-0.033,-0.042,100.000,6.789,-2.727,0.225
18.776,0.659,0.676,0.730,0.043,-0.034,-0.031,100.000,7.121,-3.243,0.224
19.028,0.684,0.665,0.787,0.042,-0.036,-0.025,100.000,7.237,-3.579,0.250
19.280,0.705,0.656,0.875,0.037,-0.039,-0.027,100.000,7.412,-3.751,0.292
19.532,0.724,0.653,0.987,0.041,-0.040,-0.011,100.000,7.294,-4.110,0.287
19.784,0.734,0.660,1.116,0.024,-0.042,-0.008,100.000,6.925,-3.932,0.299
20.036,0.736,0.679,1.260,0.031,-0.043,-0.012,100.000,6.344,-3.711,0.331
20.288,0.729,0.700,1.398,0.031,-0.049,-0.027,100.000,5.720,-3.327,0.371
20.540,0.714,0.725,1.578,0.043,-0.056,-0.042,100.000,4.877,-2.648,0.456
20.791,0.700,0.738,1.751,0.056,-0.059,-0.048,100.000,5.170,-2.440,0.516
21.043,0.691,0.743,1.907,0.053,-0.058,-0.037,100.000,5.488,-2.333,0.517
21.295,0.685,0.741,2.099,0.053,-0.058,-0.034,100.000,5.869,-2.511,0.508
21.546,0.682,0.739,2.304,0.046,-0.054,-0.024,100.000,5.963,-2.636,0.500
21.798,0.680,0.738,2.510,0.043,-0.058,-0.026,100.000,5.909,-2.630,0.489
22.049,0.675,0.740,2.708,0.041,-0.058,-0.028,100.000,5.667,-2.468,0.500
22.301,0.668,0.743,2.905,0.042,-0.059,-0.029,100.000,5.520,-2.148,0.513
22.552,0.658,0.747,3.135,0.050,-0.062,-0.033,100.000,5.450,-1.852,0.537
22.804,0.649,0.749,3.363,0.054,-0.069,-0.043,100.000,5.576,-1.793,0.583
23.056,0.643,0.749,3.580,0.053,-0.064,-0.029,100.000,5.611,-1.821,0.588
23.307,0.641,0.748,3.807,0.048,-0.066,-0.029,100.000,5.685,-2.026,0.596
23.559,0.642,0.747,4.044,0.046,-0.068,-0.036,100.000,5.807,-2.129,0.618
23.811,0.642,0.747,4.284,0.040,-0.067,-0.027,100.000,5.707,-2.090,0.620
24.063,0.641,0.747,4.513,0.050,-0.066,-0.037,99.686,5.677,-2.106,0.617
24.314,0.640,0.752,4.768,0.045,-0.069,-0.034,99.277,5.431,-2.039,0.605
24.566,0.642,0.758,4.994,0.047,-0.136,-0.139,98.838,5.573,-1.451,0.842
24.818,0.641,0.762,5.214,0.050,-0.061,-0.025,98.369,5.144,-2.137,0.649
25.069,0.642,0.767,5.372,0.050,-0.065,-0.032,97.899,5.019,-2.221,0.584
25.319,0.642,0.767,5.372,0.050,-0.065,-0.032,97.547,5.093,-2.212,0.582
25.570,0.642,0.767,5.372,0.050,-0.065,-0.032,97.234,5.100,-2.211,0.581
25.820,0.642,0.767,5.372,0.050,-0.065,-0.032,96.925,5.101,-2.211,0.581
26.070,0.642,0.767,5.372,0.050,-0.065,-0.032,96.616,5.101,-2.211,0.581
26.321,0.642,0.767,5.372,0.050,-0.065,-0.032,96.286,5.101,-2.211,0.581
26.571,0.642,0.767,5.372,0.050,-0.065,-0.032,95.978,5.101,-2.211,0.581
26.821,0.642,0.767,5.372,0.050,-0.065,-0.032,95.669,5.101,-2.211,0.581
27.072,0.642,0.767,5.372,0.050,-0.065,-0.032,95.360,5.101,-2.211,0.581
27.322,0.642,0.767,5.372,0.050,-0.065,-0.032,95.051,5.101,-2.211,0.581
27.573,0.642,0.767,5.372,0.050,-0.065,-0.032,94.743,5.101,-2.211,0.581
27.824,0.642,0.767,5.372,0.050,-0.065,-0.032,94.434,5.101,-2.211,0.581
28.074,0.642,0.767,5.372,0.050,-0.065,-0.032,94.125,5.101,-2.211,0.581
28.327,0.642,0.767,5.372,0.050,-0.065,-0.032,93.816,5.101,-2.211,0.581
28.578,0.642,0.767,5.372,0.050,-0.065,-0.032,93.508,5.101,-2.211,0.581
28.829,0.642,0.767,5.372,0.050,-0.065,-0.032,93.199,5.101,-2.211,