Time, X, Y, Z, Pitch, Yaw, Roll, errorHeight, errorRoll, errorPitch, errorYaw, HLeadOut, HIntegralOut, HeightError
------------------------[Parameters]------------------------
HOVER_VALUE, ctrl_x->ref, ctrl_y->ref, ctrl_yaw->ref, ctrl_h->ref, ctrl_h->kp, ctrl_h->tau_i, ctrl_h->tau_d, ctrl_h->alpha, ctrl_vel_x->tau_i, ctrl_vel_x->tau_d, ctrl_vel_x->alpha
84.000, -0.131, 3.395, 1.534, 3.000, 28.964, 6.447, 1.802, 0.070, 0.000, 0.347, 0.300, 
------------------------[Parameters]------------------------
0.252,-0.131,3.394,0.411,0.022,1.531,-0.027,86.221,0.012,-0.013,0.026,0.411,38.714,-2.589
0.503,-0.131,3.396,0.412,0.022,1.531,-0.028,86.277,-0.016,0.032,0.017,0.412,41.622,-2.588
0.755,-0.117,3.390,0.424,0.056,1.535,0.017,86.331,-0.537,-0.235,-0.017,0.417,44.527,-2.576
1.006,-0.078,3.385,0.454,0.067,1.532,0.040,86.375,-1.763,-0.363,0.023,0.438,47.417,-2.546
1.258,-0.012,3.380,0.500,0.035,1.521,-0.007,86.410,-3.225,-0.497,0.100,0.475,50.275,-2.500
1.509,0.063,3.375,0.553,0.040,1.515,-0.044,86.438,-4.770,-0.671,0.182,0.523,53.085,-2.447
1.761,0.125,3.378,0.600,0.041,1.511,-0.076,86.463,-5.341,-0.530,0.247,0.574,55.838,-2.400
2.013,0.159,3.382,0.629,0.048,1.507,-0.095,86.494,-5.419,-0.427,0.281,0.613,58.539,-2.371
2.265,0.158,3.390,0.632,0.043,1.507,-0.090,86.536,-4.537,-0.244,0.314,0.631,61.207,-2.368
2.517,0.121,3.396,0.608,0.050,1.501,-0.083,86.593,-3.150,-0.071,0.329,0.622,63.871,-2.392
2.769,0.057,3.403,0.562,0.048,1.499,-0.067,86.664,-1.672,0.125,0.387,0.588,66.558,-2.438
3.020,-0.024,3.403,0.509,0.064,1.500,-0.043,86.746,0.200,0.161,0.410,0.539,69.294,-2.491
3.307,-0.123,3.396,0.445,0.063,1.496,-0.016,86.847,1.631,-0.021,0.389,0.475,72.654,-2.555
3.559,-0.196,3.386,0.415,0.066,1.495,-0.032,86.929,2.620,-0.218,0.441,0.429,75.516,-2.585
3.811,-0.226,3.392,0.459,0.065,1.495,0.015,86.983,2.198,0.201,0.449,0.440,78.596,-2.541
4.063,-0.241,3.391,0.506,0.066,1.494,0.003,87.015,2.074,0.056,0.469,0.483,81.448,-2.494
4.314,-0.237,3.383,0.539,0.055,1.493,-0.017,87.047,1.621,-0.258,0.471,0.522,84.252,-2.461
4.566,-0.221,3.372,0.556,0.056,1.492,-0.023,87.087,1.130,-0.515,0.469,0.547,87.019,-2.444
4.818,-0.200,3.362,0.559,0.039,1.495,-0.035,87.135,0.718,-0.690,0.456,0.557,89.767,-2.441
5.069,-0.180,3.354,0.555,0.043,1.498,-0.034,87.189,0.375,-0.822,0.419,0.557,92.510,-2.445
5.321,-0.167,3.352,0.549,0.041,1.499,-0.048,87.245,0.306,-0.724,0.420,0.552,95.256,-2.451
5.573,-0.164,3.350,0.542,0.041,1.499,-0.050,87.302,0.521,-0.681,0.412,0.546,98.009,-2.458
5.825,-0.172,3.353,0.529,0.032,1.497,-0.051,87.362,0.903,-0.573,0.401,0.536,100.770,-2.471
6.076,-0.189,3.360,0.522,0.048,1.497,-0.045,87.422,1.336,-0.308,0.412,0.526,103.544,-2.478
6.328,-0.216,3.369,0.524,0.049,1.497,-0.046,87.478,1.925,-0.064,0.424,0.523,106.325,-2.476
6.580,-0.244,3.373,0.532,0.072,1.497,-0.032,87.530,2.465,-0.079,0.432,0.527,109.105,-2.468
6.831,-0.270,3.372,0.541,0.061,1.496,-0.019,87.579,2.775,-0.187,0.436,0.536,111.877,-2.459
7.083,-0.291,3.362,0.545,0.056,1.495,-0.025,87.629,3.015,-0.494,0.447,0.543,114.639,-2.455
7.335,-0.301,3.348,0.548,0.056,1.494,-0.014,87.681,2.991,-0.828,0.442,0.546,117.397,-2.452
7.587,-0.307,3.332,0.552,0.045,1.496,-0.027,87.732,3.002,-1.099,0.449,0.551,120.150,-2.448
7.838,-0.308,3.316,0.553,0.044,1.494,-0.029,87.785,2.923,-1.381,0.451,0.553,122.900,-2.447
8.090,-0.308,3.305,0.553,0.036,1.494,-0.028,87.838,2.885,-1.466,0.456,0.553,125.648,-2.447
8.342,-0.307,3.301,0.551,0.036,1.493,-0.034,87.892,2.899,-1.362,0.464,0.552,128.397,-2.449
8.594,-0.308,3.302,0.547,0.049,1.493,-0.035,87.948,2.899,-1.225,0.470,0.550,131.147,-2.453
8.888,-0.310,3.305,0.538,0.059,1.492,-0.033,88.016,2.981,-1.124,0.482,0.543,134.454,-2.462
9.140,-0.312,3.307,0.530,0.045,1.493,-0.029,88.075,2.989,-1.101,0.470,0.535,137.218,-2.470
9.392,-0.314,3.308,0.530,0.060,1.491,-0.034,88.131,3.030,-1.098,0.479,0.530,139.990,-2.470
9.643,-0.315,3.307,0.538,0.057,1.494,-0.026,88.187,3.004,-1.197,0.478,0.534,142.947,-2.462
9.895,-0.314,3.300,0.544,0.061,1.492,-0.025,88.237,2.950,-1.415,0.477,0.541,145.712,-2.456
10.146,-0.310,3.289,0.546,0.060,1.494,-0.021,88.289,2.810,-1.741,0.475,0.545,148.472,-2.454
10.398,-0.305,3.274,0.552,0.058,1.492,-0.032,88.340,2.770,-2.053,0.482,0.549,151.227,-2.448
10.649,-0.297,3.252,0.558,0.054,1.490,-0.035,88.390,2.615,-2.775,0.482,0.555,153.977,-2.442
10.901,-0.293,3.232,0.567,0.037,1.491,-0.037,88.440,2.646,-2.943,0.478,0.562,156.719,-2.433
11.153,-0.290,3.217,0.583,0.041,1.492,-0.035,88.486,2.687,-2.992,0.482,0.574,159.451,-2.417
11.404,-0.290,3.210,0.596,0.038,1.493,-0.034,88.531,2.718,-2.877,0.476,0.589,162.166,-2.404
11.656,-0.292,3.207,0.606,0.049,1.494,-0.034,88.577,2.836,-2.793,0.468,0.601,164.867,-2.394
11.908,-0.296,3.208,0.616,0.055,1.493,-0.034,88.624,2.910,-2.730,0.470,0.610,167.556,-2.384
12.160,-0.298,3.209,0.626,0.046,1.495,-0.020,88.671,2.864,-2.679,0.456,0.621,170.234,-2.374
12.411,-0.298,3.210,0.633,0.052,1.494,-0.032,88.718,2.816,-2.681,0.457,0.629,172.901,-2.367
12.663,-0.295,3.210,0.640,0.053,1.497,-0.036,88.766,2.754,-2.691,0.430,0.636,175.559,-2.360
12.915,-0.293,3.205,0.644,0.066,1.497,-0.037,88.814,2.723,-2.903,0.420,0.642,178.210,-2.356
13.166,-0.293,3.196,0.642,0.053,1.504,-0.029,88.866,2.771,-3.124,0.388,0.643,180.857,-2.358
13.418,-0.297,3.184,0.634,0.054,1.497,-0.042,88.920,2.923,-3.367,0.388,0.638,183.506,-2.366
13.670,-0.303,3.171,0.622,0.051,1.501,-0.040,88.978,3.094,-3.608,0.372,0.628,186.164,-2.378
13.922,-0.313,3.158,0.611,0.042,1.501,-0.038,89.036,3.385,-3.767,0.368,0.617,188.834,-2.389
14.173,-0.327,3.147,0.603,0.051,1.499,-0.037,89.094,3.718,-3.919,0.378,0.607,191.516,-2.397
14.425,-0.341,3.141,0.591,0.038,1.502,-0.019,89.152,3.879,-3.859,0.368,0.598,194.208,-2.409
14.677,-0.352,3.138,0.579,0.052,1.501,-0.018,89.212,4.000,-3.846,0.378,0.586,196.912,-2.421
14.929,-0.356,3.138,0.566,0.049,1.498,-0.020,89.272,3.960,-3.750,0.384,0.573,199.631,-2.434
15.180,-0.356,3.142,0.561,0.045,1.498,-0.026,89.330,3.812,-3.625,0.424,0.564,202.362,-2.439
15.432,-0.353,3.147,0.566,0.054,1.496,-0.032,89.388,3.697,-3.524,0.418,0.563,205.281,-2.434
15.684,-0.346,3.153,0.577,0.052,1.496,-0.029,89.436,3.509,-3.440,0.435,0.572,208.014,-2.423
15.935,-0.339,3.154,0.592,0.063,1.496,-0.031,89.483,3.413,-3.497,0.436,0.584,210.734,-2.408
16.187,-0.334,3.149,0.608,0.072,1.497,-0.037,89.527,3.371,-3.800,0.443,0.599,213.440,-2.392
16.439,-0.333,3.135,0.631,0.054,1.495,-0.038,89.568,3.442,-4.120,0.450,0.619,216.125,-2.369
16.691,-0.336,3.118,0.655,0.047,1.496,-0.030,89.607,3.639,-4.473,0.442,0.642,218.787,-2.345
16.943,-0.344,3.102,0.681,0.050,1.494,-0.036,89.644,3.893,-4.702,0.463,0.667,221.421,-2.319
17.194,-0.353,3.089,0.708,0.041,1.492,-0.022,89.680,4.075,-4.804,0.475,0.694,224.026,-2.292
17.446,-0.360,3.080,0.730,0.042,1.490,-0.027,89.716,4.165,-4.810,0.482,0.718,226.601,-2.270
17.698,-0.362,3.076,0.750,0.052,1.490,-0.021,89.755,4.095,-4.787,0.492,0.739,229.152,-2.250
17.950,-0.360,3.076,0.766,0.049,1.491,-0.023,89.793,3.941,-4.721,0.493,0.758,231.680,-2.234
18.201,-0.353,3.076,0.774,0.058,1.489,-0.027,89.836,3.750,-4.722,0.499,0.770,234.191,-2.226
18.453,-0.345,3.079,0.780,0.045,1.491,-0.029,89.881,3.558,-4.664,0.501,0.777,236.691,-2.220
18.705,-0.336,3.082,0.784,0.048,1.490,-0.030,89.926,3.387,-4.553,0.500,0.782,239.184,-2.216
18.957,-0.328,3.090,0.782,0.046,1.492,-0.030,89.974,3.307,-4.387,0.499,0.783,241.674,-2.218
19.208,-0.322,3.098,0.776,0.054,1.490,-0.037,90.025,3.206,-4.255,0.501,0.780,244.165,-2.224
19.460,-0.319,3.105,0.765,0.058,1.488,-0.040,90.078,3.261,-4.144,0.498,0.771,246.663,-2.235
19.712,-0.321,3.108,0.752,0.057,1.491,-0.035,90.134,3.367,-4.183,0.501,0.759,249.173,-2.248
19.963,-0.327,3.107,0.735,0.055,1.491,-0.038,90.192,3.528,-4.281,0.505,0.744,251.697,-2.265
20.215,-0.338,3.105,0.720,0.051,1.489,-0.045,90.251,3.894,-4.308,0.499,0.728,254.240,-2.280
20.467,-0.353,3.100,0.707,0.055,1.490,-0.026,90.309,4.217,-4.413,0.489,0.714,256.799,-2.293
20.719,-0.368,3.095,0.692,0.047,1.486,-0.025,90.367,4.432,-4.445,0.515,0.701,259.374,-2.308
20.971,-0.380,3.089,0.676,0.049,1.490,-0.024,90.426,4.652,-4.626,0.525,0.685,261.964,-2.324
21.222,-0.387,3.083,0.660,0.051,1.485,-0.024,90.490,4.564,-4.650,0.535,0.668,264.748,-2.340
21.474,-0.388,3.080,0.650,0.050,1.486,-0.016,90.549,4.508,-4.656,0.550,0.655,267.375,-2.350
21.726,-0.383,3.078,0.641,0.049,1.483,-0.015,90.606,4.240,-4.621,0.569,0.645,270.014,-2.359
21.978,-0.371,3.079,0.639,0.044,1.481,-0.023,90.661,3.937,-4.619,0.594,0.640,272.662,-2.361
22.230,-0.355,3.081,0.638,0.049,1.483,-0.021,90.713,3.586,-4.573,0.615,0.639,275.313,-2.362
22.481,-0.336,3.086,0.641,0.049,1.480,-0.026,90.764,3.216,-4.459,0.622,0.639,277.965,-2.359
22.733,-0.320,3.088,0.652,0.059,1.477,-0.036,90.812,3.002,-4.472,0.642,0.646,280.613,-2.348
22.985,-0.308,3.090,0.673,0.049,1.477,-0.043,90.855,2.894,-4.477,0.648,0.662,283.249,-2.327
23.236,-0.303,3.090,0.699,0.051,1.479,-0.038,90.893,3.012,-4.513,0.638,0.685,285.862,-2.301
23.488,-0.304,3.092,0.725,0.045,1.478,-0.039,90.928,3.194,-4.428,0.630,0.711,288.447,-2.275
23.740,-0.312,3.095,0.754,0.054,1.479,-0.044,90.963,3.425,-4.347,0.634,0.738,291.002,-2.246
23.992,-0.322,3.099,0.784,0.058,1.476,-0.034,90.996,3.685,-4.237,0.629,0.768,293.526,-2.216
24.244,-0.335,3.101,0.818,0.054,1.479,-0.026,91.026,3.890,-4.203,0.628,0.799,296.015,-2.182
24.495,-0.345,3.103,0.852,0.051,1.477,-0.029,91.055,4.029,-4.170,0.643,0.834,298.467,-2.148
24.747,-0.354,3.105,0.888,0.050,1.475,-0.021,91.082,4.076,-4.141,0.666,0.869,300.880,-2.112
24.999,-0.359,3.109,0.921,0.043,1.479,-0.022,91.110,4.086,-4.060,0.622,0.902,303.255,-2.079
25.250,-0.360,3.116,0.946,0.041,1.469,-0.035,91.139,4.036,-3.853,0.699,0.932,305.593,-2.054
25.502,-0.360,3.123,0.966,0.051,1.471,-0.042,91.171,4.028,-3.698,0.751,0.955,307.903,-2.034
25.754,-0.360,3.129,0.974,0.064,1.475,-0.039,91.207,3.954,-3.661,0.714,0.969,310.191,-2.026
26.006,-0.361,3.129,0.976,0.061,1.477,-0.040,91.249,3.968,-3.821,0.699,0.975,312.468,-2.024
26.258,-0.362,3.123,0.970,0.053,1.475,-0.045,91.294,4.075,-4.011,0.668,0.974,314.742,-2.030
26.509,-0.366,3.113,0.957,0.047,1.480,-0.043,91.343,4.160,-4.293,0.655,0.964,317.022,-2.043
26.761,-0.370,3.101,0.939,0.051,1.479,-0.043,91.396,4.275,-4.476,0.649,0.950,319.316,-2.061
27.013,-0.374,3.091,0.916,0.051,1.489,-0.028,91.457,4.281,-4.676,0.570,0.927,321.785,-2.084
27.265,-0.378,3.081,0.891,0.052,1.498,-0.020,91.516,4.351,-4.824,0.467,0.904,324.126,-2.109
27.517,-0.380,3.072,0.860,0.050,1.495,-0.018,91.579,4.358,-4.971,0.442,0.875,326.495,-2.140
27.768,-0.383,3.066,0.825,0.048,1.492,-0.026,91.644,4.429,-4.959,0.475,0.843,328.900,-2.175
28.020,-0.384,3.062,0.792,0.052,1.491,-0.028,91.711,4.408,-4.967,0.487,0.810,331.341,-2.208
28.272,-0.384,3.060,0.765,0.048,1.490,-0.023,91.776,4.371,-4.939,0.485,0.779,333.819,-2.235
28.524,-0.382,3.060,0.746,0.055,1.490,-0.025,91.838,4.305,-4.942,0.494,0.756,336.326,-2.254
28.775,-0.375,3.059,0.739,0.053,1.491,-0.017,91.895,4.100,-4.973,0.496,0.742,338.856,-2.261
29.027,-0.367,3.059,0.741,0.045,1.489,-0.028,91.946,3.942,-4.975,0.507,0.740,341.393,-2.259
29.279,-0.356,3.056,0.752,0.058,1.490,-0.027,91.992,3.659,-5.111,0.512,0.746,343.929,-2.248
29.530,-0.346,3.054,0.775,0.048,1.488,-0.035,92.032,3.616,-5.113,0.531,0.763,346.452,-2.225
29.782,-0.337,3.050,0.802,0.046,1.484,-0.036,92.067,3.537,-5.184,0.539,0.788,348.951,-2.198
30.034,-0.331,3.049,0.835,0.049,1.487,-0.034,92.098,3.469,-5.220,0.544,0.817,351.419,-2.165
30.286,-0.328,3.046,0.872,0.054,1.487,-0.036,92.126,3.446,-5.248,0.544,0.852,353.851,-2.128
30.538,-0.325,3.045,0.913,0.050,1.490,-0.033,92.151,3.455,-5.263,0.523,0.891,356.242,-2.087
30.789,-0.325,3.044,0.961,0.055,1.493,-0.024,92.172,3.455,-5.274,0.468,0.935,358.587,-2.039
31.041,-0.324,3.043,1.011,0.049,1.485,-0.040,92.190,3.500,-5.240,0.536,0.982,360.880,-1.989
31.293,-0.323,3.042,1.061,0.055,1.489,-0.034,92.205,3.442,-5.281,0.511,1.033,363.117,-1.939
31.544,-0.323,3.041,1.107,0.060,1.494,-0.030,92.221,3.474,-5.341,0.499,1.081,365.299,-1.893
31.796,-0.326,3.038,1.150,0.053,1.493,-0.037,92.237,3.544,-5.406,0.473,1.125,367.430,-1.850
32.048,-0.329,3.033,1.192,0.056,1.493,-0.035,92.253,3.639,-5.503,0.457,1.168,369.511,-1.808
32.300,-0.333,3.028,1.235,0.056,1.500,-0.027,92.269,3.675,-5.613,0.427,1.210,371.545,-1.765
32.552,-0.336,3.019,1.279,0.060,1.500,-0.028,92.283,3.717,-5.849,0.397,1.254,373.530,-1.721
32.805,-0.337,3.007,1.322,0.051,1.502,-0.030,92.297,3.716,-6.138,0.376,1.300,375.594,-1.678
33.057,-0.337,2.991,1.365,0.053,1.505,-0.029,92.310,3.673,-6.452,0.345,1.344,377.479,-1.635
33.310,-0.336,2.975,1.403,0.048,1.505,-0.032,92.323,3.658,-6.708,0.328,1.384,379.316,-1.597
33.562,-0.336,2.959,1.436,0.050,1.509,-0.030,92.338,3.700,-6.946,0.315,1.419,381.111,-1.564
33.814,-0.339,2.947,1.460,0.038,1.510,-0.027,92.357,3.794,-7.066,0.295,1.447,382.871,-1.540
34.066,-0.346,2.939,1.479,0.041,1.504,-0.038,92.378,4.015,-7.078,0.320,1.468,384.603,-1.521
34.319,-0.356,2.936,1.492,0.041,1.499,-0.042,92.402,4.317,-6.964,0.374,1.485,386.313,-1.508
34.571,-0.369,2.939,1.501,0.040,1.495,-0.041,92.429,4.568,-6.768,0.415,1.496,388.008,-1.499
34.823,-0.384,2.947,1.511,0.044,1.497,-0.035,92.457,4.853,-6.461,0.423,1.506,389.691,-1.489
35.075,-0.401,2.959,1.518,0.046,1.499,-0.028,92.484,5.083,-6.212,0.408,1.514,391.365,-1.482
35.327,-0.417,2.971,1.524,0.059,1.491,-0.029,92.513,5.388,-5.952,0.442,1.521,393.029,-1.476
35.580,-0.430,2.982,1.526,0.057,1.491,-0.023,92.543,5.506,-5.841,0.474,1.525,394.687,-1.474
35.832,-0.441,2.988,1.525,0.056,1.492,-0.025,92.575,5.544,-5.841,0.479,1.526,396.343,-1.475
36.084,-0.447,2.988,1.521,0.060,1.491,-0.027,92.609,5.606,-5.945,0.487,1.524,398.000,-1.479
36.337,-0.451,2.985,1.517,0.055,1.489,-0.028,92.644,5.658,-6.087,0.497,1.519,399.660,-1.483
36.589,-0.454,2.978,1.514,0.050,1.486,-0.030,92.678,5.647,-6.253,0.528,1.516,401.325,-1.486
36.841,-0.455,2.971,1.506,0.048,1.485,-0.028,92.714,5.719,-6.366,0.535,1.510,402.995,-1.494
37.096,-0.456,2.969,1.497,0.040,1.486,-0.024,92.751,5.663,-6.281,0.538,1.503,404.672,-1.503
37.348,-0.455,2.973,1.486,0.048,1.483,-0.026,92.789,5.629,-6.107,0.549,1.493,406.359,-1.514
37.601,-0.455,2.985,1.475,0.038,1.483,-0.032,92.832,5.592,-5.712,0.580,1.481,408.172,-1.525
37.853,-0.456,3.001,1.464,0.052,1.483,-0.033,92.871,5.633,-5.317,0.586,1.470,409.884,-1.536
38.105,-0.460,3.022,1.452,0.050,1.485,-0.030,92.912,5.688,-4.918,0.597,1.458,411.609,-1.548
38.357,-0.467,3.042,1.440,0.060,1.482,-0.035,92.952,5.881,-4.591,0.601,1.446,413.347,-1.560
38.610,-0.478,3.060,1.429,0.065,1.483,-0.036,92.993,6.092,-4.363,0.586,1.435,415.099,-1.571
38.862,-0.491,3.070,1.420,0.072,1.485,-0.030,93.033,6.335,-4.367,0.577,1.425,416.862,-1.580
39.113,-0.505,3.071,1.410,0.069,1.489,-0.021,93.073,6.577,-4.525,0.528,1.415,418.637,-1.590
39.366,-0.518,3.063,1.400,0.069,1.488,-0.016,93.113,6.817,-4.830,0.518,1.405,420.422,-1.600
39.618,-0.529,3.048,1.390,0.060,1.487,-0.017,93.154,6.937,-5.193,0.537,1.395,422.218,-1.610
39.870,-0.536,3.031,1.382,0.053,1.481,-0.028,93.195,7.074,-5.444,0.567,1.386,424.026,-1.618
40.122,-0.542,3.016,1.376,0.046,1.484,-0.022,93.234,7.124,-5.709,0.592,1.379,425.842,-1.624
40.375,-0.545,3.006,1.373,0.044,1.480,-0.019,93.272,7.132,-5.653,0.605,1.375,427.665,-1.627
40.627,-0.545,3.007,1.371,0.042,1.480,-0.020,93.310,7.039,-5.487,0.610,1.372,429.493,-1.629
40.879,-0.542,3.016,1.370,0.043,1.479,-0.024,93.346,6.889,-5.154,0.610,1.370,431.322,-1.630
41.132,-0.537,3.033,1.374,0.051,1.480,-0.032,93.381,6.697,-4.739,0.615,1.372,433.152,-1.626
41.383,-0.532,3.052,1.380,0.059,1.488,-0.022,93.414,6.596,-4.449,0.597,1.377,434.978,-1.620
41.636,-0.530,3.070,1.393,0.060,1.481,-0.032,93.444,6.578,-4.046,0.569,1.386,436.796,-1.607
41.888,-0.529,3.084,1.411,0.066,1.483,-0.026,93.471,6.627,-3.989,0.567,1.401,438.601,-1.589
42.139,-0.533,3.097,1.433,0.056,1.485,-0.027,93.495,6.734,-3.825,0.570,1.421,440.386,-1.567
42.391,-0.539,3.108,1.460,0.060,1.484,-0.026,93.515,6.901,-3.685,0.565,1.445,442.146,-1.540
42.643,-0.548,3.116,1.488,0.069,1.478,-0.039,93.534,7.115,-3.538,0.580,1.472,443.877,-1.512
42.895,-0.557,3.118,1.518,0.072,1.480,-0.029,93.551,7.249,-3.653,0.603,1.501,445.577,-1.482
43.148,-0.567,3.112,1.550,0.071,1.484,-0.027,93.567,7.490,-3.930,0.594,1.534,447.354,-1.450
43.400,-0.576,3.099,1.584,0.069,1.483,-0.032,93.580,7.595,-4.291,0.566,1.567,448.982,-1.416
43.652,-0.584,3.083,1.617,0.059,1.488,-0.021,93.592,7.700,-4.667,0.540,1.600,450.573,-1.383
43.905,-0.589,3.069,1.653,0.048,1.488,-0.017,93.603,7.775,-4.876,0.524,1.634,452.126,-1.347
44.157,-0.590,3.059,1.693,0.050,1.487,-0.020,93.611,7.691,-4.830,0.533,1.672,453.639,-1.307
44.409,-0.588,3.058,1.735,0.046,1.485,-0.026,93.617,7.571,-4.717,0.546,1.712,455.108,-1.265
44.661,-0.583,3.062,1.783,0.052,1.486,-0.028,93.619,7.407,-4.538,0.548,1.758,456.529,-1.217
44.914,-0.578,3.072,1.836,0.055,1.486,-0.030,93.618,7.297,-4.247,0.540,1.807,457.897,-1.164
45.166,-0.576,3.084,1.897,0.064,1.487,-0.035,93.611,7.322,-4.014,0.532,1.864,459.205,-1.103
45.418,-0.577,3.094,1.963,0.070,1.487,-0.041,93.600,7.411,-3.878,0.502,1.927,460.446,-1.037
45.670,-0.582,3.100,2.033,0.069,1.496,-0.026,93.584,7.519,-3.906,0.456,1.995,461.613,-0.967
45.922,-0.588,3.102,2.103,0.061,1.498,-0.025,93.566,7.652,-3.979,0.460,2.065,462.702,-0.897
46.175,-0.594,3.099,2.175,0.067,1.498,-0.017,93.546,7.770,-4.140,0.420,2.136,463.713,-0.825
46.427,-0.599,3.095,2.246,0.062,1.501,-0.018,93.523,7.763,-4.297,0.391,2.208,464.643,-0.754
46.679,-0.601,3.091,2.320,0.054,1.502,-0.014,93.499,7.765,-4.315,0.373,2.280,465.492,-0.680
46.931,-0.598,3.090,2.403,0.054,1.502,-0.014,93.470,7.601,-4.279,0.380,2.357,466.258,-0.597
47.184,-0.592,3.093,2.485,0.056,1.499,-0.019,93.438,7.451,-4.162,0.391,2.438,466.935,-0.515
47.436,-0.586,3.098,2.573,0.055,1.498,-0.021,93.401,7.310,-3.974,0.421,2.523,467.520,-0.427
47.688,-0.581,3.105,2.663,0.061,1.495,-0.025,93.360,7.249,-3.828,0.433,2.612,468.006,-0.337
47.940,-0.578,3.112,2.756,0.060,1.493,-0.024,93.317,7.232,-3.725,0.458,2.702,468.392,-0.244
48.193,-0.577,3.119,2.850,0.063,1.491,-0.025,93.269,7.307,-3.563,0.476,2.796,468.674,-0.150
48.445,-0.580,3.124,2.947,0.056,1.489,-0.030,93.219,7.434,-3.499,0.491,2.891,468.850,-0.053
48.697,-0.587,3.129,3.046,0.061,1.488,-0.028,93.161,7.614,-3.448,0.503,2.996,468.918,0.046
48.949,-0.598,3.134,3.144,0.061,1.489,-0.024,93.104,7.882,-3.338,0.509,3.094,468.868,0.144
49.201,-0.609,3.137,3.244,0.067,1.489,-0.020,93.045,8.076,-3.318,0.517,3.193,468.706,0.244
49.453,-0.618,3.135,3.340,0.071,1.491,-0.012,92.985,8.172,-3.534,0.506,3.290,468.433,0.340
49.704,-0.624,3.128,3.435,0.060,1.489,-0.019,92.924,8.225,-3.731,0.494,3.385,468.054,0.435
49.957,-0.626,3.118,3.518,0.057,1.494,-0.014,92.865,8.161,-3.974,0.475,3.473,467.571,0.518
50.209,-0.625,3.110,3.593,0.053,1.495,-0.016,92.809,8.047,-4.062,0.443,3.552,466.994,0.593
50.461,-0.621,3.103,3.658,0.059,1.495,-0.014,92.755,7.957,-4.160,0.439,3.624,466.333,0.658
50.713,-0.612,3.098,3.722,0.053,1.492,-0.019,92.704,7.727,-4.145,0.439,3.688,465.596,0.722
50.965,-0.601,3.096,3.781,0.055,1.493,-0.016,92.654,7.350,-4.189,0.453,3.749,464.788,0.781
51.217,-0.587,3.096,3.835,0.050,1.495,-0.019,92.605,7.113,-4.130,0.459,3.806,463.915,0.835
51.470,-0.573,3.102,3.885,0.048,1.496,-0.021,92.557,6.940,-3.987,0.448,3.858,462.980,0.885
51.722,-0.560,3.112,3.930,0.053,1.494,-0.026,92.511,6.721,-3.648,0.446,3.905,461.989,0.930
51.973,-0.550,3.126,3.972,0.057,1.496,-0.028,92.466,6.569,-3.420,0.447,3.949,460.948,0.972
52.227,-0.546,3.139,4.013,0.059,1.493,-0.039,92.421,6.671,-3.205,0.446,3.991,459.859,1.013
52.479,-0.547,3.150,4.053,0.060,1.493,-0.037,92.376,6.858,-3.062,0.454,4.031,458.724,1.053
52.731,-0.555,3.155,4.095,0.075,1.494,-0.029,92.330,7.170,-3.066,0.448,4.072,457.543,1.095
52.983,-0.566,3.153,4.131,0.073,1.494,-0.023,92.284,7.435,-3.303,0.464,4.110,456.317,1.131
53.236,-0.577,3.143,4.163,0.071,1.491,-0.021,92.240,7.553,-3.614,0.489,4.144,455.050,1.163
53.487,-0.585,3.126,4.187,0.068,1.490,-0.015,92.199,7.698,-3.978,0.500,4.173,453.748,1.187
53.740,-0.590,3.107,4.204,0.059,1.490,-0.015,92.161,7.703,-4.345,0.512,4.194,452.418,1.204
53.992,-0.592,3.088,4.213,0.054,1.488,-0.015,92.127,7.667,-4.619,0.524,4.208,451.068,1.213
54.244,-0.591,3.073,4.211,0.048,1.483,-0.024,92.096,7.655,-4.720,0.561,4.211,449.618,1.211
54.497,-0.589,3.062,4.200,0.054,1.478,-0.024,92.073,7.653,-4.759,0.600,4.206,448.260,1.200
54.749,-0.586,3.057,4.181,0.055,1.477,-0.018,92.055,7.562,-4.739,0.635,4.191,446.914,1.181
55.001,-0.583,3.056,4.158,0.053,1.475,-0.024,92.041,7.508,-4.670,0.661,4.169,445.588,1.158
55.253,-0.580,3.059,4.130,0.055,1.473,-0.026,92.031,7.481,-4.492,0.691,4.144,444.289,1.130
55.506,-0.580,3.066,4.101,0.054,1.471,-0.032,92.022,7.519,-4.303,0.703,4.115,443.020,1.101
55.758,-0.584,3.074,4.067,0.059,1.471,-0.037,92.015,7.674,-4.087,0.713,4.085,441.785,1.067
56.010,-0.592,3.080,4.026,0.062,1.475,-0.026,92.013,7.829,-4.080,0.695,4.048,440.587,1.026
56.262,-0.602,3.081,3.977,0.066,1.476,-0.024,92.015,8.060,-4.145,0.675,4.003,439.434,0.977
56.514,-0.613,3.078,3.917,0.061,1.477,-0.021,92.024,8.263,-4.270,0.658,3.949,438.337,0.917
56.767,-0.623,3.074,3.850,0.058,1.481,-0.015,92.040,8.401,-4.422,0.631,3.886,437.305,0.850
57.019,-0.629,3.069,3.782,0.057,1.479,-0.021,92.061,8.396,-4.488,0.613,3.816,436.348,0.782
57.272,-0.629,3.063,3.701,0.055,1.483,-0.011,92.085,8.279,-4.638,0.592,3.742,435.473,0.701
57.524,-0.624,3.058,3.621,0.060,1.488,-0.012,92.114,8.014,-4.780,0.563,3.665,434.683,0.621
57.776,-0.612,3.052,3.537,0.063,1.489,-0.019,92.146,7.734,-4.884,0.532,3.583,433.982,0.537
58.028,-0.598,3.044,3.448,0.064,1.491,-0.028,92.183,7.445,-5.124,0.498,3.497,433.375,0.448
58.280,-0.586,3.033,3.349,0.058,1.496,-0.031,92.226,7.280,-5.432,0.471,3.404,432.869,0.349
58.533,-0.580,3.021,3.249,0.054,1.498,-0.032,92.273,7.341,-5.644,0.431,3.307,432.469,0.249
58.785,-0.578,3.012,3.146,0.047,1.503,-0.025,92.326,7.357,-5.748,0.395,3.203,432.182,0.146
59.037,-0.578,3.007,3.037,0.053,1.506,-0.025,92.384,7.442,-5.728,0.349,3.096,432.014,0.037
59.289,-0.578,3.005,2.919,0.059,1.512,-0.016,92.445,7.371,-5.733,0.293,2.985,431.968,-0.081
59.541,-0.577,3.003,2.804,0.062,1.514,-0.021,92.512,7.330,-5.771,0.252,2.870,432.049,-0.196
59.794,-0.575,2.999,2.683,0.064,1.519,-0.021,92.582,7.261,-5.939,0.209,2.753,432.260,-0.317
60.046,-0.575,2.994,2.554,0.053,1.524,-0.026,92.665,7.206,-6.070,0.146,2.619,432.635,-0.446
60.298,-0.577,2.991,2.418,0.046,1.526,-0.033,92.750,7.353,-6.068,0.092,2.487,433.136,-0.582
60.551,-0.582,2.995,2.272,0.041,1.531,-0.023,92.843,7.445,-5.894,0.056,2.346,433.791,-0.728
60.803,-0.585,3.002,2.121,0.066,1.532,-0.013,92.942,7.431,-5.752,0.030,2.197,434.608,-0.879
61.055,-0.583,3.008,1.970,0.069,1.534,-0.006,93.047,7.246,-5.679,0.016,2.046,435.594,-1.030
61.307,-0.574,3.007,1.819,0.060,1.535,-0.014,93.154,6.991,-5.868,-0.006,1.898,436.749,-1.181
61.559,-0.561,3.001,1.679,0.056,1.536,-0.024,93.261,6.652,-6.086,-0.002,1.754,438.068,-1.321
61.812,-0.548,2.995,1.546,0.050,1.536,-0.027,93.367,6.457,-6.211,0.008,1.617,439.545,-1.454
62.064,-0.539,2.992,1.420,0.051,1.535,-0.031,93.472,6.406,-6.192,0.010,1.488,441.171,-1.580
62.317,-0.535,2.992,1.309,0.051,1.529,-0.038,93.575,6.537,-6.048,0.054,1.367,442.938,-1.691
62.569,-0.537,2.995,1.203,0.054,1.529,-0.034,93.673,6.675,-5.956,-0.007,1.258,444.834,-1.797
62.821,-0.544,2.998,1.112,0.059,1.527,-0.030,93.768,6.911,-5.882,0.066,1.161,446.846,-1.888
63.073,-0.555,3.002,1.038,0.052,1.527,-0.025,93.856,7.122,-5.759,0.109,1.078,448.960,-1.962
63.326,-0.565,3.006,0.980,0.057,1.518,-0.021,93.937,7.353,-5.612,0.147,1.011,451.158,-2.020
63.578,-0.573,3.013,0.939,0.051,1.516,-0.021,94.009,7.429,-5.429,0.193,0.961,453.421,-2.061
63.830,-0.576,3.020,0.912,0.058,1.513,-0.017,94.074,7.389,-5.333,0.221,0.927,455.731,-2.088
64.082,-0.577,3.023,0.898,0.062,1.511,-0.026,94.132,7.368,-5.320,0.255,0.906,458.073,-2.102
64.335,-0.573,3.024,0.895,0.060,1.511,-0.020,94.183,7.212,-5.412,0.271,0.897,460.431,-2.105
64.587,-0.568,3.021,0.903,0.053,1.506,-0.022,94.228,7.143,-5.475,0.283,0.898,462.793,-2.097
64.839,-0.560,3.018,0.923,0.046,1.504,-0.024,94.266,6.972,-5.488,0.301,0.912,465.147,-2.077
65.092,-0.549,3.020,0.956,0.041,1.508,-0.024,94.297,6.709,-5.457,0.305,0.937,467.479,-2.044
65.344,-0.533,3.027,0.999,0.053,1.508,-0.020,94.321,6.345,-5.253,0.293,0.975,469.775,-2.001
65.596,-0.516,3.043,1.044,0.040,1.508,-0.028,94.341,5.969,-4.830,0.309,1.021,472.173,-1.956
65.848,-0.496,3.062,1.095,0.056,1.506,-0.030,94.357,5.587,-4.438,0.311,1.069,474.369,-1.905
66.100,-0.476,3.084,1.148,0.068,1.511,-0.020,94.369,5.275,-4.075,0.273,1.121,476.509,-1.852
66.353,-0.459,3.098,1.205,0.076,1.503,-0.036,94.379,5.007,-3.986,0.313,1.176,478.588,-1.795
66.606,-0.447,3.101,1.260,0.073,1.504,-0.037,94.387,4.979,-4.238,0.340,1.232,480.605,-1.740
66.858,-0.443,3.093,1.319,0.061,1.505,-0.036,94.393,5.165,-4.529,0.356,1.288,482.559,-1.681
67.110,-0.446,3.079,1.377,0.059,1.503,-0.036,94.398,5.365,-4.882,0.349,1.346,484.449,-1.623
67.363,-0.455,3.062,1.433,0.059,1.499,-0.037,94.402,5.672,-5.220,0.389,1.402,486.275,-1.567
67.615,-0.465,3.045,1.490,0.055,1.503,-0.022,94.404,5.806,-5.506,0.377,1.459,488.038,-1.510
67.867,-0.472,3.031,1.551,0.041,1.500,-0.027,94.404,5.932,-5.615,0.346,1.518,489.736,-1.449
68.119,-0.475,3.027,1.619,0.038,1.508,-0.020,94.399,5.845,-5.510,0.337,1.583,491.365,-1.381
68.372,-0.475,3.035,1.687,0.037,1.507,-0.023,94.391,5.746,-5.043,0.320,1.650,492.919,-1.313
68.624,-0.473,3.054,1.755,0.041,1.509,-0.029,94.381,5.636,-4.554,0.302,1.718,494.397,-1.245
68.876,-0.469,3.078,1.821,0.054,1.510,-0.027,94.370,5.481,-3.994,0.288,1.787,495.798,-1.179
69.128,-0.466,3.105,1.896,0.062,1.510,-0.035,94.356,5.460,-3.653,0.267,1.857,497.121,-1.104
69.381,-0.467,3.126,1.970,0.075,1.512,-0.034,94.339,5.500,-3.455,0.261,1.930,498.364,-1.030
69.633,-0.471,3.138,2.047,0.074,1.511,-0.037,94.320,5.681,-3.435,0.267,2.004,499.525,-0.953
69.885,-0.478,3.139,2.120,0.071,1.509,-0.032,94.298,5.804,-3.652,0.276,2.079,500.601,-0.880
70.137,-0.487,3.132,2.198,0.064,1.509,-0.037,94.275,6.073,-3.944,0.270,2.154,501.593,-0.802
70.389,-0.493,3.122,2.274,0.055,1.507,-0.028,94.250,6.098,-4.159,0.297,2.230,502.500,-0.726
70.642,-0.496,3.112,2.347,0.055,1.506,-0.020,94.224,6.091,-4.351,0.300,2.305,503.323,-0.653
70.894,-0.495,3.107,2.420,0.052,1.505,-0.022,94.196,6.013,-4.270,0.321,2.379,504.062,-0.580
71.146,-0.489,3.105,2.487,0.053,1.502,-0.024,94.168,5.796,-4.182,0.348,2.453,504.761,-0.513
71.398,-0.480,3.109,2.552,0.049,1.502,-0.027,94.142,5.581,-4.013,0.357,2.519,505.338,-0.448
71.650,-0.470,3.116,2.616,0.061,1.501,-0.029,94.115,5.389,-3.860,0.359,2.584,505.842,-0.384
71.903,-0.461,3.123,2.681,0.062,1.504,-0.032,94.087,5.225,-3.739,0.355,2.648,506.274,-0.319
72.155,-0.454,3.127,2.743,0.073,1.505,-0.032,94.058,5.177,-3.801,0.344,2.712,506.633,-0.257
72.407,-0.448,3.126,2.807,0.061,1.510,-0.028,94.029,5.054,-3.962,0.319,2.774,506.921,-0.193
72.660,-0.444,3.122,2.865,0.057,1.510,-0.026,93.999,5.050,-4.118,0.280,2.833,507.142,-0.135
72.912,-0.442,3.119,2.921,0.051,1.514,-0.031,93.970,5.040,-4.181,0.245,2.890,507.296,-0.079
73.164,-0.439,3.117,2.974,0.053,1.516,-0.026,93.941,4.951,-4.150,0.219,2.945,507.389,-0.026
73.416,-0.437,3.118,3.024,0.055,1.516,-0.031,93.912,4.980,-4.036,0.204,2.997,507.421,0.024
73.668,-0.435,3.120,3.073,0.061,1.519,-0.027,93.884,4.917,-4.051,0.179,3.047,507.396,0.073
73.920,-0.433,3.121,3.114,0.062,1.521,-0.028,93.857,4.927,-4.045,0.158,3.092,507.318,0.114
74.173,-0.432,3.119,3.151,0.062,1.523,-0.032,93.832,4.937,-4.137,0.137,3.131,507.192,0.151
74.425,-0.433,3.113,3.183,0.065,1.524,-0.024,93.809,4.954,-4.345,0.113,3.166,507.024,0.183
74.677,-0.435,3.103,3.217,0.058,1.523,-0.029,93.786,5.051,-4.537,0.099,3.200,506.819,0.217
74.929,-0.435,3.093,3.248,0.056,1.526,-0.018,93.763,5.014,-4.733,0.096,3.232,506.577,0.248
75.182,-0.435,3.087,3.278,0.045,1.526,-0.017,93.741,4.973,-4.797,0.101,3.261,506.299,0.278
75.434,-0.433,3.082,3.308,0.057,1.522,-0.024,93.718,4.972,-4.745,0.113,3.292,505.989,0.308
75.686,-0.431,3.081,3.336,0.062,1.523,-0.022,93.695,4.885,-4.766,0.116,3.320,505.645,0.336
75.939,-0.431,3.079,3.361,0.059,1.524,-0.029,93.672,4.937,-4.806,0.126,3.347,505.271,0.361
76.191,-0.434,3.077,3.384,0.049,1.523,-0.031,93.651,5.044,-4.790,0.127,3.371,504.867,0.384
76.443,-0.440,3.076,3.405,0.053,1.522,-0.029,93.630,5.224,-4.758,0.122,3.394,504.438,0.405
76.695,-0.448,3.079,3.423,0.055,1.523,-0.020,93.608,5.384,-4.638,0.133,3.414,503.954,0.423
76.947,-0.456,3.081,3.439,0.064,1.522,-0.024,93.590,5.517,-4.583,0.143,3.431,503.478,0.439
77.200,-0.461,3.081,3.449,0.066,1.521,-0.021,93.573,5.589,-4.666,0.160,3.444,502.986,0.449
77.452,-0.465,3.079,3.455,0.057,1.521,-0.020,93.559,5.577,-4.745,0.161,3.451,502.483,0.455
77.704,-0.467,3.077,3.457,0.057,1.520,-0.017,93.546,5.591,-4.756,0.153,3.456,501.973,0.457
77.957,-0.466,3.077,3.455,0.053,1.519,-0.016,93.536,5.490,-4.724,0.169,3.456,501.461,0.455
78.209,-0.460,3.076,3.448,0.063,1.520,-0.012,93.529,5.287,-4.765,0.163,3.452,500.951,0.448
78.461,-0.450,3.076,3.435,0.058,1.520,-0.013,93.525,5.010,-4.767,0.159,3.442,500.449,0.435
78.714,-0.435,3.074,3.419,0.059,1.520,-0.016,93.523,4.618,-4.864,0.155,3.427,499.960,0.419
78.966,-0.419,3.072,3.401,0.056,1.520,-0.025,93.523,4.356,-4.888,0.151,3.411,499.490,0.401
79.218,-0.405,3.069,3.382,0.061,1.521,-0.029,93.525,4.203,-5.008,0.150,3.392,499.039,0.382
79.470,-0.397,3.067,3.357,0.054,1.522,-0.034,93.529,4.235,-5.022,0.158,3.370,498.610,0.357
79.722,-0.397,3.065,3.329,0.050,1.523,-0.031,93.536,4.403,-5.010,0.143,3.344,498.208,0.329
79.974,-0.403,3.066,3.298,0.055,1.523,-0.029,93.545,4.660,-4.918,0.131,3.315,497.838,0.298
80.227,-0.414,3.068,3.260,0.056,1.524,-0.027,93.558,4.886,-4.888,0.110,3.281,497.502,0.260
80.479,-0.427,3.068,3.217,0.063,1.528,-0.023,93.575,5.176,-4.936,0.099,3.240,497.209,0.217
80.731,-0.441,3.064,3.165,0.061,1.529,-0.018,93.597,5.386,-5.035,0.075,3.193,496.965,0.165
80.983,-0.453,3.059,3.110,0.061,1.532,-0.012,93.623,5.549,-5.174,0.045,3.140,496.778,0.110
81.236,-0.461,3.053,3.056,0.058,1.537,-0.007,93.652,5.563,-5.340,-0.001,3.085,496.651,0.056
81.488,-0.463,3.048,2.992,0.044,1.539,-0.010,93.684,5.435,-5.405,-0.048,3.026,496.589,-0.008
81.740,-0.460,3.048,2.936,0.050,1.541,-0.012,93.718,5.278,-5.296,-0.070,2.967,496.593,-0.064
81.992,-0.454,3.054,2.882,0.050,1.543,-0.019,93.750,5.038,-5.067,-0.086,2.912,496.661,-0.118
82.244,-0.447,3.061,2.837,0.060,1.542,-0.024,93.783,4.988,-4.899,-0.088,2.859,496.799,-0.163
82.497,-0.443,3.070,2.792,0.065,1.544,-0.031,93.812,4.922,-4.772,-0.106,2.814,496.983,-0.208
82.749,-0.443,3.076,2.754,0.065,1.544,-0.032,93.839,5.043,-4.746,-0.112,2.774,497.215,-0.246
83.001,-0.448,3.079,2.720,0.063,1.544,-0.030,93.865,5.258,-4.725,-0.118,2.737,497.490,-0.280
83.254,-0.457,3.081,2.692,0.064,1.543,-0.028,93.889,5.510,-4.749,-0.111,2.706,497.803,-0.308
83.506,-0.468,3.081,2.666,0.058,1.542,-0.020,93.911,5.725,-4.728,-0.094,2.679,498.149,-0.334
83.758,-0.476,3.084,2.644,0.050,1.539,-0.013,93.932,5.788,-4.666,-0.080,2.656,498.523,-0.356
84.010,-0.479,3.086,2.624,0.063,1.537,-0.009,93.951,5.691,-4.592,-0.045,2.635,498.921,-0.376
84.262,-0.477,3.090,2.607,0.062,1.536,-0.014,93.970,5.535,-4.523,-0.019,2.616,499.342,-0.393
84.515,-0.468,3.091,2.593,0.065,1.535,-0.014,93.987,5.289,-4.540,-0.007,2.601,499.783,-0.407
84.767,-0.460,3.091,2.582,0.059,1.534,-0.029,94.004,5.162,-4.587,-0.009,2.588,500.239,-0.418
85.019,-0.454,3.091,2.574,0.055,1.534,-0.032,94.018,5.109,-4.596,-0.006,2.578,500.707,-0.426
85.271,-0.454,3.094,2.564,0.051,1.535,-0.036,94.032,5.231,-4.476,-0.005,2.569,501.186,-0.436
85.524,-0.459,3.099,2.559,0.054,1.538,-0.031,94.046,5.416,-4.346,-0.023,2.562,501.674,-0.441
85.776,-0.467,3.106,2.558,0.061,1.537,-0.024,94.058,5.612,-4.172,-0.047,2.558,502.168,-0.442
86.028,-0.475,3.114,2.562,0.055,1.541,-0.025,94.067,5.742,-4.035,-0.064,2.560,502.664,-0.438
86.281,-0.479,3.119,2.571,0.067,1.545,-0.016,94.073,5.704,-4.027,-0.106,2.566,503.155,-0.429
86.533,-0.481,3.123,2.582,0.068,1.545,-0.018,94.077,5.662,-4.044,-0.116,2.576,503.637,-0.418
86.785,-0.479,3.118,2.598,0.081,1.544,-0.019,94.078,5.525,-4.345,-0.121,2.589,504.106,-0.402
87.037,-0.475,3.106,2.617,0.068,1.547,-0.020,94.077,5.382,-4.717,-0.121,2.606,504.558,-0.383
87.289,-0.468,3.086,2.643,0.066,1.542,-0.025,94.074,5.327,-5.138,-0.108,2.628,504.988,-0.357
87.542,-0.461,3.063,2.674,0.060,1.539,-0.026,94.066,5.195,-5.574,-0.076,2.656,505.391,-0.326
87.794,-0.456,3.040,2.711,0.051,1.537,-0.030,94.053,5.225,-5.957,-0.047,2.692,505.782,-0.289
88.046,-0.457,3.020,2.752,0.050,1.534,-0.034,94.037,5.382,-6.366,-0.013,2.732,506.106,-0.248
88.298,-0.464,3.007,2.790,0.037,1.531,-0.033,94.020,5.823,-6.346,0.014,2.771,506.385,-0.210
88.550,-0.475,3.003,2.826,0.041,1.532,-0.023,94.004,5.982,-6.040,0.020,2.808,506.622,-0.174
88.803,-0.487,3.008,2.861,0.050,1.531,-0.018,93.987,6.127,-5.726,0.023,2.843,506.817,-0.139
89.055,-0.495,3.018,2.893,0.053,1.532,-0.014,93.972,6.174,-5.395,0.027,2.877,506.975,-0.107
89.307,-0.500,3.028,2.923,0.066,1.532,-0.018,93.956,6.110,-5.282,0.034,2.908,507.095,-0.077
89.560,-0.498,3.035,2.953,0.064,1.535,-0.015,93.941,5.918,-5.279,-0.004,2.937,507.182,-0.047
89.812,-0.491,3.035,2.985,0.070,1.535,-0.016,93.925,5.678,-5.434,-0.014,2.969,507.234,-0.015
90.064,-0.478,3.028,3.012,0.071,1.538,-0.016,93.909,5.339,-5.746,-0.028,2.997,507.253,0.012
90.316,-0.462,3.016,3.033,0.059,1.535,-0.028,93.895,5.013,-6.128,-0.026,3.021,507.242,0.033
90.568,-0.449,3.002,3.049,0.050,1.535,-0.033,93.884,4.822,-6.399,-0.016,3.040,507.207,0.049
90.821,-0.440,2.992,3.066,0.043,1.533,-0.039,93.873,4.857,-6.459,-0.005,3.057,507.153,0.066
91.073,-0.438,2.987,3.079,0.052,1.533,-0.031,93.863,5.012,-6.345,0.013,3.072,507.080,0.079
91.325,-0.442,2.985,3.093,0.059,1.531,-0.027,93.854,5.229,-6.323,0.025,3.085,506.992,0.093
91.577,-0.447,2.983,3.108,0.055,1.528,-0.027,93.843,5.364,-6.312,0.048,3.100,506.888,0.108
91.830,-0.451,2.981,3.122,0.051,1.529,-0.016,93.833,5.398,-6.342,0.057,3.115,506.767,0.122
92.082,-0.454,2.980,3.135,0.053,1.527,-0.020,93.823,5.407,-6.309,0.068,3.128,506.631,0.135
92.334,-0.453,2.981,3.144,0.052,1.526,-0.019,93.814,5.318,-6.261,0.090,3.139,506.481,0.144
92.587,-0.449,2.983,3.156,0.054,1.524,-0.017,93.804,5.212,-6.194,0.101,3.149,506.319,0.156
92.839,-0.444,2.986,3.164,0.056,1.523,-0.021,93.796,5.110,-6.130,0.120,3.159,506.145,0.164
93.091,-0.438,2.988,3.171,0.054,1.523,-0.023,93.788,4.940,-6.118,0.137,3.167,505.962,0.171
93.343,-0.433,2.988,3.175,0.063,1.522,-0.026,93.780,4.938,-6.158,0.135,3.173,505.758,0.175
93.596,-0.432,2.986,3.174,0.057,1.522,-0.030,93.776,5.026,-6.245,0.125,3.174,505.562,0.174
93.848,-0.436,2.983,3.173,0.055,1.524,-0.035,93.772,5.200,-6.317,0.123,3.174,505.366,0.173
94.100,-0.446,2.978,3.165,0.056,1.521,-0.032,93.771,5.567,-6.378,0.129,3.169,505.173,0.165
94.352,-0.460,2.974,3.155,0.050,1.522,-0.026,93.772,5.814,-6.420,0.137,3.161,504.987,0.155
94.604,-0.474,2.972,3.138,0.049,1.523,-0.016,93.776,6.079,-6.410,0.133,3.147,504.814,0.138
94.857,-0.484,2.974,3.117,0.049,1.523,-0.014,93.785,6.104,-6.296,0.137,3.127,504.659,0.117
95.109,-0.490,2.978,3.093,0.053,1.523,-0.014,93.795,6.085,-6.133,0.135,3.105,504.528,0.093
95.361,-0.489,2.982,3.069,0.062,1.522,-0.014,93.806,5.927,-6.093,0.137,3.082,504.423,0.069
95.613,-0.481,2.983,3.042,0.063,1.523,-0.008,93.818,5.595,-6.187,0.133,3.057,504.345,0.042
95.865,-0.466,2.981,3.013,0.055,1.523,-0.011,93.833,5.191,-6.293,0.121,3.028,504.297,0.013
96.118,-0.446,2.976,2.982,0.060,1.525,-0.019,93.850,4.800,-6.464,0.113,2.999,504.282,-0.018
96.370,-0.425,2.972,2.947,0.051,1.524,-0.029,93.869,4.496,-6.525,0.115,2.966,504.301,-0.053
96.622,-0.407,2.968,2.908,0.052,1.527,-0.029,93.891,4.178,-6.661,0.099,2.929,504.360,-0.092
96.874,-0.395,2.964,2.864,0.050,1.527,-0.036,93.916,4.080,-6.682,0.093,2.888,504.462,-0.136
97.126,-0.392,2.962,2.822,0.049,1.527,-0.044,93.944,4.261,-6.750,0.085,2.844,504.612,-0.178
97.378,-0.399,2.956,2.767,0.060,1.528,-0.036,93.976,4.752,-6.873,0.073,2.795,504.815,-0.233
97.631,-0.412,2.949,2.714,0.057,1.531,-0.022,94.011,5.002,-6.969,0.067,2.742,505.075,-0.286
97.883,-0.427,2.938,2.663,0.059,1.529,-0.016,94.046,5.395,-7.275,0.061,2.691,505.393,-0.337
98.135,-0.440,2.927,2.612,0.042,1.530,-0.016,94.082,5.500,-7.376,0.059,2.639,505.769,-0.388
98.387,-0.450,2.919,2.563,0.042,1.531,-0.016,94.119,5.570,-7.444,0.050,2.590,506.202,-0.437
98.640,-0.457,2.920,2.515,0.038,1.530,-0.017,94.155,5.572,-7.245,0.050,2.543,506.689,-0.485
98.892,-0.459,2.929,2.471,0.043,1.532,-0.015,94.192,5.513,-6.899,0.031,2.497,507.229,-0.529
99.144,-0.457,2.944,2.430,0.053,1.529,-0.021,94.230,5.332,-6.549,0.034,2.451,507.859,-0.570
99.396,-0.451,2.963,2.391,0.047,1.532,-0.016,94.265,5.100,-6.107,0.035,2.411,508.499,-0.609
99.649,-0.442,2.983,2.355,0.056,1.530,-0.024,94.299,4.944,-5.812,0.034,2.374,509.182,-0.645
99.900,-0.433,3.003,2.319,0.055,1.525,-0.035,94.334,4.789,-5.409,0.066,2.337,509.905,-0.681
100.153,-0.425,3.021,2.281,0.060,1.530,-0.027,94.370,4.636,-5.244,0.054,2.300,510.670,-0.719
100.405,-0.418,3.036,2.242,0.060,1.527,-0.033,94.408,4.535,-5.015,0.053,2.262,511.478,-0.758
100.657,-0.413,3.046,2.206,0.069,1.529,-0.030,94.445,4.545,-5.022,0.053,2.224,512.328,-0.794
100.909,-0.410,3.048,2.168,0.066,1.526,-0.034,94.484,4.538,-5.164,0.053,2.187,513.220,-0.832
101.162,-0.408,3.042,2.133,0.068,1.527,-0.027,94.522,4.547,-5.491,0.043,2.151,514.154,-0.867
101.414,-0.408,3.032,2.104,0.062,1.529,-0.023,94.559,4.559,-5.802,0.061,2.120,515.125,-0.896
101.666,-0.406,3.017,2.079,0.055,1.526,-0.027,94.594,4.551,-6.069,0.077,2.092,516.129,-0.921
101.918,-0.403,3.002,2.057,0.054,1.528,-0.020,94.627,4.489,-6.355,0.089,2.069,517.162,-0.943
102.170,-0.400,2.989,2.038,0.049,1.523,-0.027,94.660,4.413,-6.501,0.096,2.048,518.220,-0.962
102.424,-0.396,2.980,2.022,0.045,1.524,-0.028,94.691,4.370,-6.561,0.110,2.031,519.298,-0.978
102.677,-0.393,2.976,2.009,0.044,1.523,-0.028,94.721,4.370,-6.455,0.118,2.016,520.395,-0.991
102.929,-0.394,2.977,2.000,0.050,1.522,-0.035,94.748,4.473,-6.327,0.123,2.005,521.506,-1.000
103.181,-0.399,2.982,1.996,0.052,1.521,-0.031,94.774,4.629,-6.180,0.122,1.998,522.628,-1.004
103.433,-0.406,2.988,1.995,0.055,1.521,-0.032,94.798,4.786,-6.025,0.140,1.995,523.755,-1.005
103.685,-0.412,2.993,2.000,0.058,1.523,-0.024,94.819,4.841,-5.969,0.127,1.997,524.882,-1.000
103.937,-0.415,2.997,2.008,0.051,1.525,-0.016,94.837,4.837,-5.924,0.125,2.003,526.005,-0.992
104.190,-0.416,3.001,2.017,0.056,1.526,-0.015,94.854,4.760,-5.925,0.122,2.013,527.194,-0.983
104.442,-0.414,3.005,2.031,0.046,1.524,-0.023,94.871,4.696,-5.793,0.112,2.024,528.297,-0.969
104.694,-0.412,3.012,2.048,0.049,1.523,-0.030,94.883,4.678,-5.598,0.125,2.040,529.385,-0.952
104.946,-0.413,3.021,2.067,0.050,1.520,-0.027,94.893,4.731,-5.324,0.150,2.058,530.453,-0.933
105.198,-0.418,3.033,2.090,0.058,1.518,-0.029,94.902,4.917,-5.078,0.172,2.078,531.500,-0.910
105.452,-0.424,3.043,2.112,0.067,1.516,-0.027,94.909,5.027,-5.039,0.194,2.101,532.523,-0.888
105.706,-0.430,3.049,2.139,0.063,1.517,-0.021,94.915,5.113,-5.036,0.196,2.125,533.520,-0.861
105.960,-0.432,3.050,2.170,0.063,1.518,-0.011,94.918,5.069,-5.146,0.195,2.154,534.487,-0.830
106.214,-0.430,3.048,2.210,0.054,1.515,-0.017,94.916,4.943,-5.244,0.202,2.189,535.418,-0.790
106.466,-0.423,3.047,2.256,0.051,1.515,-0.023,94.910,4.754,-5.204,0.202,2.231,536.306,-0.744
106.720,-0.413,3.049,2.311,0.052,1.518,-0.017,94.898,4.452,-5.166,0.199,2.281,537.142,-0.689
106.974,-0.406,3.054,2.370,0.058,1.511,-0.036,94.881,4.441,-5.028,0.225,2.340,537.969,-0.630
107.228,-0.403,3.057,2.434,0.064,1.512,-0.033,94.860,4.558,-4.958,0.240,2.402,538.676,-0.566
107.483,-0.408,3.057,2.505,0.063,1.514,-0.031,94.833,4.775,-5.080,0.249,2.470,539.311,-0.495
107.735,-0.417,3.050,2.577,0.064,1.512,-0.028,94.804,5.047,-5.252,0.246,2.541,539.867,-0.423
107.987,-0.430,3.042,2.654,0.054,1.512,-0.022,94.772,5.336,-5.491,0.248,2.614,540.342,-0.346
108.239,-0.441,3.033,2.725,0.050,1.511,-0.017,94.738,5.504,-5.580,0.248,2.687,540.735,-0.275
108.492,-0.448,3.028,2.795,0.044,1.513,-0.008,94.705,5.498,-5.529,0.261,2.757,541.047,-0.205
108.744,-0.450,3.029,2.859,0.048,1.512,-0.012,94.670,5.390,-5.427,0.255,2.827,541.280,-0.141
108.996,-0.446,3.035,2.929,0.047,1.507,-0.018,94.635,5.151,-5.094,0.265,2.893,541.437,-0.071
109.249,-0.439,3.045,2.993,0.055,1.509,-0.020,94.600,5.013,-4.985,0.292,2.959,541.520,-0.007
109.501,-0.432,3.058,3.053,0.051,1.508,-0.026,94.565,4.809,-4.578,0.299,3.020,541.532,0.053
109.753,-0.427,3.071,3.107,0.057,1.507,-0.029,94.531,4.785,-4.456,0.302,3.078,541.476,0.107
110.005,-0.423,3.086,3.162,0.061,1.505,-0.029,94.498,4.781,-4.245,0.313,3.133,541.358,0.162
110.257,-0.420,3.098,3.212,0.061,1.505,-0.026,94.465,4.746,-4.031,0.321,3.185,541.179,0.212
110.510,-0.418,3.104,3.263,0.067,1.505,-0.029,94.433,4.744,-4.125,0.324,3.235,540.944,0.263
110.762,-0.417,3.105,3.310,0.067,1.507,-0.027,94.400,4.743,-4.253,0.311,3.282,540.653,0.310
111.014,-0.416,3.098,3.355,0.068,1.507,-0.029,94.367,4.750,-4.527,0.308,3.329,540.310,0.355
111.266,-0.416,3.088,3.397,0.060,1.508,-0.029,94.332,4.765,-4.794,0.295,3.375,539.887,0.397
111.519,-0.416,3.075,3.438,0.063,1.511,-0.030,94.300,4.817,-5.056,0.261,3.417,539.442,0.438
111.771,-0.416,3.062,3.476,0.051,1.515,-0.027,94.268,4.806,-5.301,0.227,3.456,538.951,0.476
112.023,-0.417,3.049,3.512,0.059,1.520,-0.025,94.237,4.797,-5.554,0.181,3.494,538.417,0.512
112.276,-0.419,3.038,3.545,0.057,1.521,-0.032,94.206,4.865,-5.619,0.148,3.529,537.843,0.545
112.528,-0.422,3.027,3.570,0.055,1.526,-0.030,94.177,4.915,-5.802,0.098,3.558,537.232,0.570
112.780,-0.427,3.017,3.589,0.058,1.530,-0.025,94.152,5.048,-5.924,0.073,3.580,536.593,0.589
113.033,-0.436,3.008,3.601,0.055,1.533,-0.030,94.131,5.204,-6.075,0.031,3.595,535.933,0.601
113.285,-0.443,2.999,3.609,0.059,1.537,-0.016,94.112,5.249,-6.228,-0.017,3.605,535.258,0.609
113.537,-0.448,2.992,3.609,0.054,1.541,-0.016,94.096,5.304,-6.324,-0.054,3.609,534.576,0.609
113.790,-0.450,2.988,3.605,0.042,1.542,-0.021,94.084,5.226,-6.328,-0.084,3.607,533.893,0.605
114.042,-0.447,2.988,3.596,0.054,1.549,-0.013,94.074,5.033,-6.279,-0.137,3.601,533.214,0.596
114.294,-0.440,2.993,3.580,0.049,1.551,-0.016,94.069,4.831,-6.108,-0.178,3.588,532.546,0.580
114.546,-0.429,3.001,3.557,0.054,1.555,-0.017,94.067,4.556,-5.945,-0.209,3.569,531.895,0.557
114.799,-0.417,3.011,3.525,0.060,1.556,-0.021,94.070,4.334,-5.786,-0.239,3.542,531.270,0.525
115.051,-0.407,3.018,3.486,0.065,1.558,-0.033,94.078,4.198,-5.714,-0.266,3.507,530.681,0.486
115.303,-0.400,3.019,3.440,0.068,1.562,-0.030,94.091,4.137,-5.846,-0.292,3.465,530.135,0.440
115.555,-0.400,3.013,3.389,0.066,1.564,-0.030,94.109,4.253,-6.071,-0.325,3.416,529.640,0.389
115.808,-0.403,3.001,3.331,0.065,1.566,-0.026,94.131,4.390,-6.388,-0.352,3.362,529.202,0.331
116.060,-0.409,2.987,3.269,0.046,1.567,-0.024,94.157,4.508,-6.652,-0.368,3.303,528.828,0.269
116.312,-0.417,2.976,3.206,0.052,1.567,-0.021,94.186,4.681,-6.797,-0.380,3.242,528.522,0.206
116.565,-0.426,2.968,3.142,0.050,1.569,-0.025,94.219,4.872,-6.826,-0.381,3.174,528.272,0.142
116.817,-0.432,2.963,3.079,0.055,1.571,-0.012,94.252,4.844,-6.890,-0.410,3.110,528.112,0.079
117.069,-0.436,2.961,3.008,0.045,1.572,-0.012,94.289,4.843,-6.834,-0.430,3.043,528.026,0.008
117.321,-0.433,2.962,2.943,0.051,1.572,-0.014,94.326,4.677,-6.796,-0.448,2.976,528.016,-0.057
117.574,-0.428,2.964,2.877,0.057,1.574,-0.019,94.365,4.548,-6.728,-0.451,2.911,528.079,-0.123
117.826,-0.421,2.965,2.814,0.059,1.573,-0.020,94.404,4.382,-6.785,-0.448,2.845,528.216,-0.186
118.078,-0.416,2.962,2.753,0.057,1.570,-0.031,94.443,4.394,-6.858,-0.435,2.784,528.425,-0.247
118.331,-0.415,2.958,2.693,0.055,1.569,-0.031,94.483,4.484,-6.950,-0.416,2.723,528.702,-0.307
118.582,-0.421,2.952,2.635,0.051,1.567,-0.033,94.523,4.726,-7.092,-0.399,2.664,529.046,-0.365
118.835,-0.434,2.947,2.576,0.048,1.564,-0.033,94.563,5.068,-7.092,-0.378,2.607,529.455,-0.424
119.087,-0.450,2.945,2.519,0.054,1.568,-0.020,94.605,5.402,-7.121,-0.372,2.549,529.929,-0.481
119.339,-0.467,2.945,2.459,0.053,1.566,-0.018,94.648,5.756,-7.025,-0.374,2.491,530.467,-0.541
119.592,-0.481,2.946,2.397,0.051,1.567,-0.008,94.695,5.892,-7.021,-0.380,2.429,531.073,-0.603
119.844,-0.487,2.946,2.330,0.057,1.568,-0.005,94.745,5.762,-7.013,-0.387,2.365,531.750,-0.670
120.096,-0.485,2.950,2.265,0.043,1.566,-0.012,94.796,5.531,-6.849,-0.394,2.300,532.500,-0.735
120.348,-0.476,2.955,2.198,0.045,1.569,-0.013,94.850,5.230,-6.739,-0.387,2.234,533.322,-0.802
120.600,-0.463,2.963,2.129,0.052,1.569,-0.018,94.906,4.875,-6.571,-0.403,2.166,534.220,-0.871
120.853,-0.448,2.970,2.064,0.057,1.573,-0.022,94.963,4.582,-6.521,-0.422,2.099,535.194,-0.936
121.105,-0.436,2.974,1.999,0.057,1.572,-0.030,95.020,4.477,-6.509,-0.425,2.034,536.242,-1.001
121.357,-0.429,2.976,1.936,0.054,1.570,-0.038,95.078,4.480,-6.564,-0.428,1.970,537.363,-1.064
121.609,-0.428,2.974,1.876,0.058,1.573,-0.028,95.136,4.636,-6.645,-0.433,1.908,538.555,-1.124
121.861,-0.432,2.973,1.818,0.040,1.571,-0.028,95.195,4.834,-6.665,-0.440,1.849,539.815,-1.182
122.114,-0.442,2.971,1.762,0.055,1.573,-0.025,95.252,5.074,-6.699,-0.440,1.793,541.139,-1.238
122.366,-0.453,2.972,1.711,0.043,1.571,-0.025,95.313,5.348,-6.590,-0.425,1.737,542.619,-1.289
122.619,-0.463,2.975,1.668,0.047,1.567,-0.022,95.367,5.541,-6.493,-0.415,1.690,544.065,-1.332
122.871,-0.473,2.981,1.631,0.053,1.567,-0.019,95.419,5.645,-6.342,-0.395,1.650,545.558,-1.369
123.123,-0.481,2.988,1.600,0.054,1.564,-0.023,95.468,5.746,-6.186,-0.364,1.616,547.094,-1.400
123.375,-0.486,2.993,1.569,0.057,1.561,-0.013,95.517,5.763,-6.117,-0.346,1.584,548.666,-1.431
123.627,-0.488,2.998,1.544,0.049,1.558,-0.017,95.564,5.710,-6.066,-0.314,1.557,550.272,-1.456
123.880,-0.486,3.002,1.524,0.051,1.559,-0.014,95.609,5.570,-6.001,-0.299,1.534,551.906,-1.476
124.132,-0.481,3.011,1.506,0.040,1.558,-0.021,95.652,5.498,-5.771,-0.290,1.515,553.563,-1.494
124.384,-0.477,3.018,1.494,0.069,1.557,-0.025,95.693,5.410,-5.685,-0.282,1.500,555.240,-1.506
124.636,-0.475,3.023,1.486,0.061,1.554,-0.024,95.732,5.447,-5.592,-0.250,1.490,556.930,-1.514
124.888,-0.475,3.021,1.487,0.066,1.555,-0.017,95.767,5.533,-5.815,-0.225,1.487,558.629,-1.513
125.140,-0.475,3.013,1.495,0.061,1.550,-0.021,95.797,5.542,-6.079,-0.202,1.491,560.326,-1.505
125.393,-0.475,3.002,1.513,0.050,1.549,-0.023,95.823,5.555,-6.380,-0.171,1.503,562.015,-1.487
125.645,-0.475,2.988,1.538,0.055,1.545,-0.025,95.844,5.598,-6.575,-0.140,1.524,563.685,-1.462
125.897,-0.477,2.977,1.571,0.042,1.542,-0.025,95.860,5.634,-6.674,-0.101,1.553,565.327,-1.429
126.149,-0.478,2.968,1.610,0.047,1.541,-0.017,95.871,5.702,-6.758,-0.082,1.590,566.932,-1.390
126.401,-0.480,2.965,1.662,0.038,1.535,-0.026,95.875,5.788,-6.607,-0.048,1.635,568.491,-1.338
126.654,-0.481,2.968,1.722,0.041,1.534,-0.023,95.874,5.768,-6.399,-0.016,1.690,569.994,-1.278
126.906,-0.483,2.976,1.790,0.046,1.528,-0.030,95.866,5.870,-6.147,0.015,1.753,571.430,-1.210
127.158,-0.488,2.986,1.865,0.050,1.530,-0.025,95.852,5.952,-5.963,0.043,1.825,572.791,-1.135
127.410,-0.495,2.996,1.949,0.058,1.527,-0.025,95.832,6.105,-5.832,0.064,1.904,574.068,-1.051
127.662,-0.506,3.004,2.043,0.054,1.524,-0.030,95.807,6.358,-5.714,0.092,1.990,575.251,-0.957
127.915,-0.517,3.006,2.140,0.064,1.525,-0.015,95.772,6.643,-5.743,0.099,2.091,576.401,-0.860
128.167,-0.528,3.003,2.238,0.061,1.519,-0.019,95.736,6.820,-5.893,0.141,2.188,577.368,-0.762
128.419,-0.537,2.992,2.340,0.066,1.519,-0.014,95.696,6.910,-6.248,0.173,2.288,578.223,-0.660
128.672,-0.542,2.977,2.445,0.054,1.516,-0.013,95.652,6.972,-6.554,0.201,2.391,578.965,-0.555
128.924,-0.545,2.960,2.559,0.044,1.513,-0.016,95.602,6.975,-6.813,0.235,2.502,579.587,-0.441
129.176,-0.547,2.947,2.675,0.041,1.511,-0.018,95.547,7.010,-6.888,0.248,2.617,580.083,-0.325
129.428,-0.547,2.941,2.792,0.034,1.509,-0.014,95.488,6.979,-6.861,0.281,2.733,580.448,-0.208
129.680,-0.545,2.944,2.909,0.034,1.510,-0.011,95.426,6.886,-6.601,0.291,2.850,580.682,-0.091
129.933,-0.542,2.957,3.028,0.037,1.505,-0.021,95.362,6.851,-6.115,0.308,2.968,580.784,0.028
130.185,-0.538,2.977,3.145,0.049,1.503,-0.018,95.294,6.691,-5.687,0.333,3.086,580.754,0.145
130.437,-0.535,3.000,3.265,0.058,1.502,-0.022,95.225,6.667,-5.287,0.348,3.202,580.592,0.265
130.689,-0.533,3.018,3.382,0.060,1.500,-0.029,95.154,6.657,-5.040,0.369,3.319,580.299,0.382
130.941,-0.534,3.031,3.496,0.061,1.499,-0.024,95.081,6.776,-4.933,0.395,3.433,579.876,0.496
131.193,-0.541,3.037,3.609,0.063,1.495,-0.029,95.005,7.021,-4.902,0.410,3.547,579.325,0.609
131.446,-0.551,3.039,3.717,0.062,1.496,-0.019,94.929,7.233,-5.061,0.442,3.658,578.647,0.717
131.698,-0.562,3.037,3.822,0.054,1.495,-0.018,94.853,7.438,-5.132,0.472,3.765,577.848,0.822
131.950,-0.571,3.033,3.920,0.057,1.491,-0.013,94.778,7.576,-5.159,0.490,3.867,576.931,0.920
132.202,-0.576,3.031,4.013,0.047,1.488,-0.014,94.704,7.560,-5.179,0.508,3.963,575.903,1.013
132.454,-0.576,3.031,4.102,0.047,1.489,-0.007,94.630,7.431,-5.135,0.517,4.054,574.770,1.102
132.707,-0.570,3.034,4.189,0.051,1.486,-0.012,94.556,7.215,-5.004,0.530,4.142,573.536,1.189
132.959,-0.561,3.042,4.271,0.053,1.488,-0.014,94.482,6.988,-4.789,0.526,4.227,572.205,1.271
133.211,-0.551,3.051,4.349,0.048,1.485,-0.030,94.409,6.773,-4.661,0.535,4.307,570.782,1.349
133.463,-0.541,3.062,4.427,0.054,1.488,-0.025,94.336,6.705,-4.424,0.535,4.384,569.271,1.427
133.716,-0.534,3.071,4.496,0.060,1.489,-0.026,94.259,6.589,-4.350,0.521,4.461,567.567,1.496
133.968,-0.534,3.078,4.562,0.055,1.488,-0.038,94.188,6.692,-4.269,0.518,4.529,565.888,1.562
134.220,-0.538,3.080,4.625,0.070,1.491,-0.026,94.117,6.855,-4.361,0.517,4.593,564.134,1.625
134.473,-0.548,3.077,4.685,0.069,1.490,-0.025,94.047,7.168,-4.515,0.513,4.655,562.311,1.685
134.725,-0.560,3.066,4.741,0.067,1.490,-0.018,93.977,7.417,-4.845,0.501,4.713,560.419,1.741
134.977,-0.571,3.050,4.792,0.059,1.487,-0.016,93.909,7.622,-5.124,0.521,4.766,558.465,1.792
135.229,-0.578,3.034,4.836,0.053,1.488,-0.016,93.842,7.748,-5.349,0.528,4.814,556.455,1.836
135.481,-0.580,3.021,4.874,0.037,1.476,-0.041,93.779,7.395,-5.738,0.544,4.854,554.395,1.874
135.733,-0.576,3.011,4.901,0.032,1.478,-0.048,93.720,7.423,-5.661,0.616,4.887,552.293,1.901
135.986,-0.573,3.009,4.906,0.041,1.487,-0.026,93.669,7.184,-5.644,0.547,4.903,550.163,1.906
136.239,-0.562,3.006,4.924,0.022,1.487,-0.057,93.620,6.842,-5.685,0.539,4.916,548.021,1.924
136.493,-0.562,3.006,4.924,0.022,1.487,-0.057,93.574,6.763,-5.686,0.540,4.922,545.865,1.924
136.746,-0.562,3.006,4.924,0.022,1.487,-0.057,93.531,6.756,-5.686,0.540,4.923,543.705,1.924
137.000,-0.562,3.006,4.924,0.022,1.487,-0.057,93.489,6.756,-5.686,0.540,4.924,541.545,1.924
137.252,-0.490,3.021,4.859,0.038,1.497,-0.061,93.460,5.374,-5.567,-0.131,4.900,539.388,1.859
137.505,-0.477,3.022,4.820,0.058,1.499,-0.073,93.451,5.563,-5.435,0.340,4.844,537.289,1.820
137.757,-0.471,3.016,4.771,0.070,1.513,-0.041,93.437,5.469,-5.800,0.279,4.798,535.244,1.771
138.010,-0.478,3.006,4.716,0.051,1.517,-0.057,93.427,5.960,-6.050,0.181,4.746,533.253,1.716
138.261,-0.492,2.993,4.647,0.055,1.523,-0.025,93.425,6.296,-6.300,0.138,4.684,531.326,1.647
138.514,-0.511,2.981,4.568,0.049,1.525,-0.023,93.430,6.680,-6.441,0.113,4.611,529.474,1.568
138.766,-0.530,2.972,4.475,0.056,1.530,-0.009,93.444,6.929,-6.577,0.083,4.526,527.712,1.475
139.018,-0.547,2.970,4.368,0.037,1.533,-0.012,93.467,7.125,-6.456,0.043,4.428,526.052,1.368
139.271,-0.556,2.974,4.258,0.046,1.535,-0.005,93.499,7.065,-6.288,-0.005,4.314,524.409,1.258
139.523,-0.556,2.984,4.144,0.052,1.538,-0.001,93.534,6.839,-5.997,-0.044,4.203,522.995,1.144
139.775,-0.547,2.994,4.028,0.059,1.541,-0.012,93.575,6.481,-5.862,-0.075,4.087,521.709,1.028
140.027,-0.531,3.000,3.909,0.065,1.543,-0.019,93.618,6.112,-5.923,-0.096,3.970,520.554,0.909
140.279,-0.511,2.997,3.792,0.078,1.548,-0.015,93.665,5.687,-6.216,-0.137,3.853,519.530,0.792
140.532,-0.493,2.985,3.669,0.068,1.551,-0.027,93.716,5.420,-6.595,-0.176,3.731,518.640,0.669
140.784,-0.478,2.962,3.537,0.072,1.556,-0.027,93.773,5.253,-7.217,-0.232,3.605,517.888,0.537
141.036,-0.468,2.929,3.397,0.060,1.560,-0.029,93.838,5.205,-7.934,-0.282,3.469,517.284,0.397
141.288,-0.464,2.895,3.252,0.041,1.566,-0.030,93.909,5.214,-8.566,-0.338,3.327,516.836,0.252
141.540,-0.463,2.864,3.106,0.043,1.570,-0.023,93.985,5.194,-8.993,-0.395,3.183,516.550,0.106
141.792,-0.465,2.844,2.956,0.027,1.575,-0.024,94.067,5.278,-9.098,-0.444,3.034,516.428,-0.044
142.045,-0.464,2.835,2.806,0.034,1.578,-0.013,94.151,5.162,-9.017,-0.500,2.887,516.473,-0.194
142.297,-0.463,2.839,2.664,0.037,1.580,-0.017,94.236,5.084,-8.659,-0.508,2.744,516.680,-0.336
142.549,-0.459,2.852,2.523,0.042,1.580,-0.024,94.323,4.991,-8.313,-0.521,2.603,517.048,-0.477
142.801,-0.454,2.869,2.384,0.053,1.580,-0.018,94.413,4.939,-7.908,-0.527,2.462,517.573,-0.616
143.054,-0.451,2.887,2.244,0.055,1.581,-0.028,94.506,4.895,-7.615,-0.514,2.322,518.255,-0.756
143.306,-0.450,2.901,2.104,0.061,1.580,-0.031,94.601,4.924,-7.371,-0.523,2.183,519.094,-0.896
143.558,-0.451,2.909,1.960,0.068,1.581,-0.026,94.700,5.011,-7.468,-0.536,2.042,520.091,-1.040
143.810,-0.456,2.907,1.808,0.069,1.582,-0.025,94.806,5.110,-7.727,-0.533,1.895,521.250,-1.192
144.062,-0.463,2.896,1.644,0.064,1.581,-0.027,94.921,5.298,-8.156,-0.538,1.737,522.578,-1.356
144.314,-0.472,2.883,1.473,0.043,1.579,-0.025,95.045,5.559,-8.437,-0.533,1.571,524.089,-1.527
144.566,-0.480,2.870,1.296,0.043,1.580,-0.012,95.176,5.607,-8.583,-0.533,1.397,525.791,-1.704
144.819,-0.482,2.867,1.119,0.033,1.584,-0.004,95.314,5.456,-8.416,-0.549,1.219,527.692,-1.881
145.071,-0.477,2.875,0.948,0.042,1.581,-0.006,95.461,5.226,-8.054,-0.535,1.037,529.936,-2.052
145.324,-0.466,2.895,0.801,0.025,1.584,-0.011,95.595,4.930,-7.491,-0.503,0.879,532.230,-2.199
145.576,-0.450,2.922,0.684,0.059,1.578,-0.024,95.718,4.647,-6.875,-0.508,0.746,534.689,-2.316
145.828,-0.436,2.949,0.605,0.072,1.578,-0.032,95.825,4.450,-6.431,-0.475,0.647,537.280,-2.395
146.080,-0.426,2.965,0.573,0.071,1.568,-0.041,95.909,4.395,-6.349,-0.429,0.590,539.959,-2.427
146.332,-0.423,2.966,0.581,0.075,1.563,-0.039,95.970,4.592,-6.637,-0.372,0.577,542.676,-2.419
146.584,-0.430,2.956,0.623,0.062,1.559,-0.040,96.009,4.935,-7.071,-0.311,0.601,545.387,-2.377
146.837,-0.445,2.938,0.693,0.058,1.552,-0.035,96.030,5.386,-7.496,-0.252,0.656,548.053,-2.307
147.089,-0.463,2.917,0.785,0.045,1.556,-0.003,96.036,5.705,-7.877,-0.225,0.735,550.644,-2.215
147.341,-0.479,2.903,0.896,0.031,1.549,-0.007,96.027,5.961,-7.867,-0.165,0.837,553.132,-2.104
147.593,-0.483,2.899,1.021,0.027,1.547,0.000,96.007,5.844,-7.694,-0.161,0.955,555.496,-1.979
147.846,-0.478,2.911,1.158,0.033,1.547,-0.008,95.977,5.516,-7.244,-0.156,1.083,557.722,-1.842
148.098,-0.466,2.934,1.291,0.042,1.542,-0.018,95.943,5.193,-6.614,-0.113,1.215,559.800,-1.709
148.350,-0.454,2.966,1.424,0.037,1.530,-0.038,95.906,5.042,-5.831,-0.051,1.348,561.730,-1.576
148.603,-0.444,2.999,1.559,0.067,1.526,-0.042,95.865,4.953,-5.297,0.019,1.482,563.510,-1.441
148.855,-0.439,3.027,1.693,0.065,1.528,-0.025,95.821,4.919,-4.973,0.052,1.617,565.139,-1.307
149.107,-0.438,3.042,1.820,0.078,1.525,-0.031,95.774,5.078,-4.932,0.076,1.749,566.618,-1.180
149.359,-0.440,3.044,1.949,0.071,1.521,-0.029,95.728,5.164,-5.218,0.105,1.878,567.950,-1.051
149.611,-0.444,3.033,2.071,0.063,1.517,-0.022,95.681,5.334,-5.613,0.158,2.001,569.141,-0.929
149.864,-0.449,3.016,2.187,0.056,1.515,-0.021,95.634,5.434,-6.017,0.203,2.121,570.195,-0.813
150.116,-0.452,2.998,2.299,0.044,1.514,-0.021,95.587,5.485,-6.333,0.231,2.235,571.118,-0.701
150.368,-0.455,2.982,2.406,0.046,1.507,-0.022,95.541,5.656,-6.519,0.265,2.345,571.916,-0.594
150.620,-0.458,2.972,2.510,0.040,1.503,-0.024,95.491,5.676,-6.519,0.325,2.458,572.633,-0.490
150.873,-0.460,2.967,2.615,0.049,1.501,-0.023,95.444,5.689,-6.446,0.361,2.561,573.184,-0.385
151.125,-0.465,2.968,2.711,0.046,1.500,-0.026,95.397,5.802,-6.290,0.380,2.658,573.622,-0.289
151.377,-0.470,2.973,2.806,0.047,1.502,-0.021,95.349,5.869,-6.121,0.373,2.754,573.951,-0.194
151.629,-0.476,2.980,2.895,0.060,1.504,-0.017,95.301,5.968,-5.978,0.350,2.847,574.175,-0.105
151.881,-0.478,2.987,2.979,0.057,1.508,-0.013,95.254,5.916,-5.865,0.316,2.934,574.298,-0.021
152.133,-0.477,2.993,3.052,0.058,1.509,-0.012,95.210,5.756,-5.813,0.284,3.013,574.327,0.052
152.386,-0.471,2.997,3.122,0.056,1.511,-0.018,95.168,5.605,-5.821,0.261,3.085,574.271,0.122
152.638,-0.462,2.999,3.182,0.058,1.513,-0.020,95.129,5.365,-5.873,0.247,3.150,574.138,0.182
152.891,-0.453,2.998,3.235,0.057,1.515,-0.022,95.093,5.150,-6.006,0.228,3.206,573.938,0.235
153.143,-0.449,2.995,3.285,0.054,1.516,-0.030,95.059,5.238,-6.059,0.213,3.258,573.677,0.285
153.395,-0.448,2.990,3.329,0.055,1.518,-0.029,95.026,5.282,-6.224,0.184,3.305,573.360,0.329
153.647,-0.453,2.984,3.373,0.055,1.523,-0.024,94.994,5.461,-6.313,0.148,3.348,572.993,0.373
153.899,-0.462,2.982,3.411,0.036,1.525,-0.025,94.963,5.691,-6.280,0.109,3.389,572.579,0.411
154.151,-0.472,2.983,3.447,0.048,1.528,-0.015,94.933,5.867,-6.185,0.077,3.427,572.121,0.447
154.404,-0.479,2.992,3.476,0.049,1.528,-0.010,94.905,5.872,-5.914,0.048,3.459,571.623,0.476
154.656,-0.481,3.004,3.501,0.049,1.532,-0.008,94.879,5.772,-5.669,0.035,3.487,571.091,0.501
154.908,-0.477,3.016,3.522,0.065,1.533,-0.011,94.855,5.576,-5.481,0.024,3.510,570.531,0.522
155.160,-0.469,3.026,3.538,0.064,1.533,-0.017,94.833,5.344,-5.401,0.019,3.528,569.948,0.538
155.412,-0.461,3.028,3.550,0.068,1.532,-0.024,94.813,5.230,-5.505,0.011,3.543,569.346,0.550
155.664,-0.456,3.023,3.559,0.066,1.532,-0.029,94.795,5.214,-5.722,0.018,3.554,568.729,0.559
155.917,-0.456,3.011,3.565,0.061,1.533,-0.030,94.778,5.332,-6.088,0.013,3.562,568.102,0.565
156.169,-0.463,2.995,3.565,0.050,1.532,-0.031,94.763,5.651,-6.424,0.010,3.565,567.427,0.565
156.421,-0.477,2.978,3.561,0.048,1.532,-0.022,94.752,5.978,-6.683,0.018,3.563,566.794,0.561
156.674,-0.493,2.963,3.551,0.050,1.532,-0.016,94.743,6.292,-6.867,0.019,3.556,566.165,0.551
156.926,-0.508,2.953,3.536,0.047,1.530,-0.010,94.738,6.533,-6.916,0.035,3.543,565.547,0.536
157.178,-0.519,2.946,3.518,0.043,1.527,-0.008,94.736,6.641,-6.861,0.068,3.528,564.946,0.518
157.430,-0.521,2.946,3.496,0.050,1.524,-0.003,94.735,6.492,-6.757,0.097,3.508,564.363,0.496
157.683,-0.516,2.951,3.475,0.047,1.521,-0.008,94.737,6.247,-6.516,0.138,3.487,563.805,0.475
157.935,-0.503,2.960,3.450,0.051,1.518,-0.010,94.739,5.896,-6.315,0.168,3.463,563.271,0.450
158.188,-0.489,2.971,3.426,0.055,1.516,-0.023,94.743,5.630,-6.125,0.202,3.439,562.764,0.426
158.440,-0.474,2.980,3.402,0.062,1.515,-0.028,94.747,5.369,-6.015,0.212,3.415,562.284,0.402
158.692,-0.466,2.987,3.380,0.056,1.512,-0.033,94.752,5.431,-5.910,0.236,3.392,561.831,0.380
158.944,-0.465,2.990,3.360,0.061,1.512,-0.032,94.755,5.589,-5.969,0.254,3.371,561.403,0.360
159.197,-0.471,2.989,3.339,0.061,1.512,-0.032,94.759,5.878,-6.057,0.254,3.350,560.998,0.339
159.448,-0.484,2.985,3.319,0.055,1.512,-0.030,94.763,6.217,-6.164,0.244,3.331,560.616,0.319
159.701,-0.499,2.981,3.300,0.050,1.513,-0.025,94.767,6.498,-6.235,0.232,3.310,560.256,0.300
159.953,-0.515,2.979,3.282,0.049,1.514,-0.020,94.770,6.760,-6.226,0.219,3.292,559.918,0.282
160.205,-0.528,2.979,3.262,0.051,1.517,-0.012,94.775,6.869,-6.167,0.202,3.273,559.600,0.262
160.457,-0.536,2.982,3.242,0.052,1.518,-0.014,94.781,6.907,-6.048,0.181,3.253,559.304,0.242
160.709,-0.538,2.986,3.217,0.058,1.521,-0.011,94.788,6.743,-6.037,0.158,3.231,559.033,0.217
160.961,-0.534,2.988,3.194,0.053,1.522,-0.016,94.797,6.544,-6.021,0.139,3.207,558.787,0.194
161.214,-0.528,2.991,3.174,0.053,1.526,-0.021,94.804,6.388,-6.008,0.114,3.186,558.567,0.174
161.466,-0.521,2.993,3.151,0.054,1.528,-0.024,94.813,6.207,-6.000,0.087,3.165,558.370,0.151
161.718,-0.517,2.994,3.125,0.058,1.530,-0.023,94.823,6.217,-6.009,0.069,3.138,558.188,0.125
161.971,-0.514,2.993,3.093,0.056,1.533,-0.022,94.838,6.200,-6.093,0.038,3.109,558.048,0.093
162.223,-0.511,2.988,3.053,0.054,1.535,-0.023,94.856,6.167,-6.240,0.002,3.073,557.945,0.053
162.475,-0.510,2.983,3.011,0.055,1.540,-0.024,94.874,6.161,-6.347,-0.041,3.039,557.883,0.011
162.727,-0.510,2.978,2.970,0.055,1.543,-0.021,94.900,6.150,-6.405,-0.091,2.993,557.864,-0.030
