Time, X, Y, Z, Pitch, Yaw, Roll, errorHeight, errorRoll, errorPitch, errorYaw, HLeadOut, HIntegralOut, HeightError
------------------------[Parameters]------------------------
HOVER_VALUE, ctrl_x->ref, ctrl_y->ref, ctrl_yaw->ref, ctrl_h->ref, ctrl_h->kp, ctrl_h->tau_i, ctrl_h->tau_d, ctrl_h->alpha, ctrl_vel_x->tau_i, ctrl_vel_x->tau_d, ctrl_vel_x->alpha
430.000, 0.049, 1.413, -3.118, 4.000, 16.411, 0.000, 0.000, 0.000, 0.000, 0.347, 0.300, 
------------------------[Parameters]------------------------
0.252,0.049,1.413,0.423,0.012,-3.123,-0.020,452.452,-0.002,-0.004,0.019,0.423,0.000,-3.577
0.505,0.045,1.413,0.423,0.024,-3.126,-0.020,452.214,-0.006,-0.192,0.038,0.423,0.000,-3.577
0.757,0.045,1.408,0.439,0.036,-3.118,0.004,450.516,-0.156,-0.137,0.028,0.438,0.000,-3.561
1.008,0.027,1.397,0.525,0.068,-3.122,0.018,443.409,-0.699,-0.949,0.046,0.516,0.000,-3.475
1.260,-0.009,1.375,0.668,0.034,-3.123,0.009,443.455,-1.120,-1.662,0.085,0.657,0.000,-3.332
1.512,-0.059,1.344,0.854,0.016,-3.126,-0.011,437.503,-2.054,-3.086,0.077,0.841,0.000,-3.146
1.764,-0.107,1.313,1.049,0.005,-3.125,-0.025,439.557,-2.353,-3.600,0.067,1.036,0.000,-2.951
2.016,-0.145,1.291,1.235,0.002,-3.125,-0.036,441.687,-2.449,-3.881,0.072,1.224,0.000,-2.765
2.268,-0.170,1.283,1.405,-0.000,-3.125,-0.041,442.465,-2.328,-3.985,0.090,1.395,0.000,-2.595
2.522,-0.181,1.291,1.564,-0.010,-3.126,-0.038,442.960,-1.776,-3.793,0.095,1.564,0.000,-2.436
2.774,-0.178,1.314,1.716,0.005,-3.124,-0.021,442.956,-1.065,-3.462,0.091,1.716,0.000,-2.284
3.025,-0.162,1.345,1.860,0.006,-3.129,-0.018,436.986,-0.032,-2.734,0.120,1.860,0.000,-2.140
3.277,-0.140,1.380,2.004,0.019,-3.132,-0.009,443.535,0.285,-2.472,0.140,1.999,0.000,-1.996
3.529,-0.118,1.411,2.135,0.031,-3.131,-0.000,444.496,0.658,-2.116,0.134,2.130,0.000,-1.865
3.781,-0.102,1.433,2.266,0.030,-3.132,0.003,442.717,0.923,-1.896,0.162,2.262,0.000,-1.734
4.033,-0.093,1.446,2.393,0.036,-3.131,-0.000,444.352,0.801,-2.002,0.154,2.389,0.000,-1.607
4.285,-0.093,1.452,2.517,0.036,-3.132,-0.001,442.083,0.679,-2.233,0.161,2.512,0.000,-1.483
4.536,-0.102,1.453,2.638,0.034,-3.131,-0.010,444.695,0.711,-2.536,0.152,2.634,0.000,-1.362
4.789,-0.118,1.451,2.749,0.032,-3.131,-0.004,444.257,0.554,-3.042,0.158,2.749,0.000,-1.251
5.040,-0.140,1.449,2.875,0.018,-3.128,-0.014,445.028,0.502,-3.497,0.145,2.871,0.000,-1.125
5.293,-0.162,1.450,2.992,0.014,-3.128,-0.019,445.405,0.558,-3.770,0.120,2.988,0.000,-1.008
5.544,-0.179,1.455,3.113,0.013,-3.134,-0.031,444.842,0.883,-3.937,0.125,3.109,0.000,-0.887
5.797,-0.193,1.465,3.232,0.017,-3.125,-0.004,445.386,0.967,-4.074,0.103,3.229,0.000,-0.768
6.048,-0.200,1.479,3.355,0.013,-3.125,-0.010,445.257,1.257,-4.100,0.091,3.348,0.000,-0.645
6.300,-0.201,1.492,3.472,0.010,-3.122,-0.013,445.553,1.434,-4.018,0.072,3.464,0.000,-0.528
6.552,-0.197,1.506,3.589,0.010,-3.120,-0.011,445.728,1.639,-3.834,0.052,3.581,0.000,-0.411
6.804,-0.190,1.519,3.708,0.023,-3.126,-0.020,445.361,1.871,-3.679,0.078,3.700,0.000,-0.292
7.056,-0.183,1.533,3.824,0.021,-3.128,-0.017,445.605,2.078,-3.524,0.092,3.816,0.000,-0.176
7.308,-0.178,1.546,3.940,0.029,-3.131,-0.024,445.534,2.310,-3.487,0.115,3.932,0.000,-0.060
7.560,-0.175,1.560,4.051,0.025,-3.127,-0.016,400.906,2.494,-3.506,0.117,4.044,0.000,0.051
7.812,-0.175,1.572,4.122,0.027,-3.122,-0.011,404.305,2.711,-3.519,0.088,4.119,0.000,0.122
8.064,-0.178,1.582,4.114,0.026,-3.120,-0.009,408.990,2.750,-3.628,0.050,4.114,0.000,0.114
8.316,-0.182,1.589,4.036,0.028,-3.117,-0.014,413.079,2.858,-3.755,0.028,4.036,0.000,0.036
8.568,-0.188,1.594,3.902,0.019,-3.113,-0.011,460.514,2.820,-3.931,-0.028,3.902,0.000,-0.098
8.820,-0.196,1.597,3.772,0.023,-3.104,-0.010,459.751,2.767,-4.158,-0.098,3.776,0.000,-0.228
9.072,-0.205,1.599,3.682,0.021,-3.102,-0.012,457.421,2.818,-4.293,-0.173,3.685,0.000,-0.318
9.324,-0.217,1.602,3.624,0.026,-3.099,-0.008,455.283,2.848,-4.541,-0.205,3.625,0.000,-0.376
9.575,-0.230,1.604,3.594,0.011,-3.100,-0.020,453.500,2.892,-4.718,-0.226,3.595,0.000,-0.406
9.828,-0.244,1.608,3.592,0.025,-3.101,-0.022,452.278,2.897,-5.043,-0.234,3.592,0.000,-0.408
10.080,-0.256,1.611,3.606,0.015,-3.094,-0.007,451.353,2.957,-5.199,-0.266,3.605,0.000,-0.394
10.332,-0.266,1.614,3.637,0.007,-3.094,-0.011,450.347,2.965,-5.301,-0.274,3.635,0.000,-0.363
10.584,-0.270,1.617,3.682,0.012,-3.091,-0.010,449.734,2.969,-5.308,-0.269,3.680,0.000,-0.318
10.884,-0.269,1.621,3.755,0.015,-3.100,-0.018,448.688,3.080,-5.164,-0.237,3.753,0.000,-0.245
11.136,-0.264,1.624,3.827,0.015,-3.103,-0.021,448.051,3.232,-4.936,-0.199,3.825,0.000,-0.173
11.388,-0.257,1.629,3.909,0.015,-3.101,-0.029,447.629,3.273,-4.811,-0.188,3.906,0.000,-0.091
11.640,-0.251,1.635,4.001,0.025,-3.106,-0.026,428.277,3.404,-4.760,-0.164,3.995,0.000,0.001
11.892,-0.246,1.644,4.079,0.023,-3.103,-0.023,403.546,3.590,-4.664,-0.142,4.075,0.000,0.079
12.144,-0.243,1.654,4.092,0.023,-3.108,-0.023,407.729,3.821,-4.682,-0.131,4.093,0.000,0.092
12.396,-0.242,1.663,4.036,0.021,-3.109,-0.017,411.629,3.980,-4.709,-0.123,4.042,0.000,0.036
12.648,-0.240,1.673,3.921,0.015,-3.104,-0.011,460.105,4.100,-4.634,-0.129,3.930,0.000,-0.079
12.900,-0.240,1.681,3.803,0.025,-3.107,-0.014,458.944,4.295,-4.653,-0.144,3.810,0.000,-0.197
13.152,-0.241,1.686,3.719,0.024,-3.097,-0.004,456.906,4.195,-4.774,-0.182,3.723,0.000,-0.281
13.403,-0.247,1.687,3.665,0.030,-3.102,-0.011,455.282,4.115,-4.941,-0.220,3.668,0.000,-0.335
13.655,-0.255,1.686,3.640,0.020,-3.095,-0.008,453.442,4.018,-5.149,-0.253,3.640,0.000,-0.360
13.907,-0.268,1.683,3.639,0.025,-3.095,-0.014,452.081,3.934,-5.441,-0.262,3.639,0.000,-0.361
14.159,-0.282,1.682,3.658,0.018,-3.096,-0.020,450.834,3.939,-5.658,-0.237,3.658,0.000,-0.342
14.411,-0.296,1.684,3.691,0.012,-3.097,-0.023,450.183,4.097,-5.877,-0.223,3.689,0.000,-0.309
14.663,-0.309,1.692,3.732,0.022,-3.105,-0.028,449.825,4.295,-6.073,-0.196,3.730,0.000,-0.268
14.915,-0.316,1.703,3.785,0.010,-3.107,-0.026,449.187,4.597,-6.092,-0.151,3.783,0.000,-0.215
15.167,-0.322,1.718,3.842,0.017,-3.108,-0.021,449.248,4.797,-6.192,-0.130,3.840,0.000,-0.158
15.419,-0.321,1.734,3.903,0.001,-3.108,-0.021,448.338,5.255,-5.907,-0.141,3.902,0.000,-0.097
15.671,-0.314,1.747,3.969,0.012,-3.108,-0.012,448.578,5.346,-5.710,-0.103,3.967,0.000,-0.031
15.923,-0.301,1.757,4.028,0.019,-3.111,-0.015,407.603,5.529,-5.407,-0.102,4.026,0.000,0.028
16.175,-0.287,1.763,4.043,0.021,-3.112,-0.008,407.709,5.459,-5.140,-0.087,4.044,0.000,0.043
16.427,-0.274,1.765,3.976,0.020,-3.109,-0.012,449.991,5.388,-4.985,-0.096,3.980,0.000,-0.024
16.679,-0.264,1.763,3.866,0.024,-3.106,-0.011,459.489,5.281,-4.905,-0.117,3.869,0.000,-0.134
16.930,-0.257,1.759,3.765,0.026,-3.104,-0.014,458.113,5.129,-4.841,-0.140,3.769,0.000,-0.235
17.183,-0.254,1.751,3.687,0.025,-3.096,-0.007,456.040,4.861,-4.916,-0.218,3.691,0.000,-0.313
17.436,-0.258,1.742,3.634,0.030,-3.096,-0.016,455.907,4.749,-5.094,-0.281,3.638,0.000,-0.366
17.688,-0.268,1.733,3.599,0.023,-3.087,-0.018,454.151,4.546,-5.436,-0.319,3.600,0.000,-0.401
17.941,-0.282,1.726,3.579,0.016,-3.092,-0.030,453.453,4.506,-5.702,-0.351,3.580,0.000,-0.421
18.193,-0.295,1.727,3.567,0.017,-3.084,-0.025,453.022,4.609,-5.959,-0.374,3.568,0.000,-0.433
18.445,-0.306,1.734,3.562,0.011,-3.084,-0.024,452.548,4.846,-6.092,-0.394,3.562,0.000,-0.438
18.697,-0.312,1.747,3.564,0.008,-3.082,-0.019,452.103,5.175,-6.144,-0.410,3.564,0.000,-0.436
18.950,-0.315,1.762,3.569,0.011,-3.081,-0.013,452.047,5.487,-6.098,-0.430,3.569,0.000,-0.431
19.202,-0.312,1.778,3.578,0.008,-3.078,-0.009,452.059,5.681,-6.008,-0.447,3.578,0.000,-0.422
19.454,-0.307,1.790,3.588,0.008,-3.079,-0.002,451.186,5.988,-5.730,-0.446,3.588,0.000,-0.412
19.706,-0.296,1.796,3.601,0.010,-3.078,-0.004,451.650,5.805,-5.593,-0.458,3.601,0.000,-0.399
19.958,-0.283,1.796,3.613,0.015,-3.077,-0.003,451.478,5.696,-5.244,-0.467,3.613,0.000,-0.387
20.211,-0.270,1.792,3.628,0.023,-3.075,-0.004,451.604,5.489,-5.100,-0.469,3.628,0.000,-0.372
20.463,-0.261,1.787,3.641,0.030,-3.077,-0.014,451.624,5.424,-5.023,-0.469,3.641,0.000,-0.359
20.715,-0.259,1.782,3.655,0.031,-3.076,-0.017,451.438,5.377,-5.142,-0.471,3.655,0.000,-0.345
20.968,-0.265,1.781,3.669,0.029,-3.077,-0.020,451.602,5.418,-5.443,-0.478,3.669,0.000,-0.331
21.220,-0.278,1.783,3.683,0.019,-3.075,-0.015,451.500,5.464,-5.783,-0.474,3.682,0.000,-0.317
21.472,-0.295,1.786,3.698,0.022,-3.072,-0.006,451.451,5.515,-6.166,-0.501,3.698,0.000,-0.302
21.725,-0.313,1.789,3.713,0.015,-3.075,-0.010,451.245,5.585,-6.493,-0.494,3.712,0.000,-0.287
21.977,-0.330,1.792,3.729,0.010,-3.075,-0.016,451.244,5.588,-6.817,-0.459,3.729,0.000,-0.271
22.228,-0.346,1.795,3.749,0.013,-3.074,-0.008,450.594,5.662,-7.010,-0.476,3.748,0.000,-0.251
22.481,-0.357,1.797,3.771,0.010,-3.077,-0.010,450.779,5.711,-6.970,-0.493,3.770,0.000,-0.229
22.733,-0.365,1.797,3.794,0.010,-3.073,-0.008,450.992,5.611,-7.041,-0.497,3.792,0.000,-0.206
22.985,-0.367,1.794,3.816,0.009,-3.075,-0.011,451.014,5.473,-6.999,-0.498,3.815,0.000,-0.184
23.237,-0.368,1.789,3.840,0.020,-3.075,-0.015,450.570,5.328,-6.962,-0.490,3.839,0.000,-0.160
23.489,-0.368,1.783,3.863,0.019,-3.074,-0.020,450.299,5.204,-6.876,-0.499,3.861,0.000,-0.137
23.741,-0.369,1.775,3.886,0.021,-3.072,-0.008,450.799,5.054,-6.937,-0.509,3.885,0.000,-0.114
23.993,-0.371,1.769,3.910,0.024,-3.070,-0.014,450.883,4.937,-7.058,-0.505,3.909,0.000,-0.090
24.246,-0.376,1.762,3.933,0.017,-3.076,-0.023,450.858,4.920,-7.084,-0.511,3.933,0.000,-0.067
24.497,-0.382,1.758,3.953,0.020,-3.075,-0.023,451.103,4.895,-7.276,-0.493,3.953,0.000,-0.047
24.749,-0.390,1.757,3.972,0.023,-3.077,-0.022,449.316,4.897,-7.407,-0.485,3.972,0.000,-0.028
25.002,-0.399,1.758,3.989,0.016,-3.073,-0.019,436.597,4.925,-7.642,-0.491,3.989,0.000,-0.011
25.254,-0.408,1.761,3.992,0.009,-3.074,-0.021,435.323,4.991,-7.725,-0.501,3.993,0.000,-0.008
25.506,-0.414,1.763,3.967,0.012,-3.075,-0.017,454.376,5.051,-7.778,-0.490,3.968,0.000,-0.033
25.758,-0.415,1.765,3.929,0.008,-3.077,-0.021,454.469,5.087,-7.705,-0.489,3.930,0.000,-0.071
26.010,-0.414,1.766,3.901,0.014,-3.076,-0.009,453.859,5.118,-7.617,-0.481,3.902,0.000,-0.099
26.262,-0.409,1.769,3.882,0.009,-3.074,-0.007,453.622,5.105,-7.477,-0.473,3.882,0.000,-0.118
26.514,-0.401,1.769,3.871,0.005,-3.081,-0.016,452.949,5.130,-7.214,-0.449,3.871,0.000,-0.129
26.765,-0.388,1.768,3.869,0.013,-3.085,-0.016,452.410,5.161,-6.890,-0.403,3.869,0.000,-0.131
27.017,-0.374,1.765,3.871,0.022,-3.088,-0.016,452.198,5.119,-6.574,-0.358,3.871,0.000,-0.129
27.270,-0.361,1.762,3.878,0.023,-3.086,-0.016,451.774,5.039,-6.429,-0.322,3.877,0.000,-0.122
27.522,-0.353,1.760,3.890,0.028,-3.092,-0.016,451.524,5.100,-6.413,-0.300,3.890,0.000,-0.110
27.774,-0.350,1.760,3.908,0.020,-3.096,-0.022,451.047,5.141,-6.445,-0.248,3.908,0.000,-0.092
28.027,-0.350,1.762,3.927,0.021,-3.099,-0.019,451.243,5.277,-6.505,-0.216,3.926,0.000,-0.073
28.278,-0.350,1.768,3.943,0.013,-3.102,-0.018,451.436,5.428,-6.514,-0.199,3.942,0.000,-0.057
28.530,-0.348,1.775,3.963,0.013,-3.102,-0.009,451.042,5.562,-6.440,-0.181,3.962,0.000,-0.037
28.825,-0.341,1.780,3.989,0.008,-3.106,-0.005,437.661,5.603,-6.204,-0.147,3.988,0.000,-0.011
29.077,-0.331,1.780,4.002,0.017,-3.111,-0.008,428.015,5.565,-5.963,-0.110,4.002,0.000,0.002
29.329,-0.319,1.779,3.984,0.024,-3.109,-0.011,441.014,5.573,-5.734,-0.091,3.987,0.000,-0.016
29.581,-0.311,1.778,3.945,0.028,-3.111,-0.011,454.856,5.538,-5.670,-0.090,3.948,0.000,-0.055
29.834,-0.309,1.780,3.910,0.029,-3.110,-0.017,454.320,5.575,-5.770,-0.088,3.912,0.000,-0.090
30.086,-0.313,1.782,3.889,0.025,-3.109,-0.013,453.434,5.627,-5.996,-0.098,3.889,0.000,-0.111
30.338,-0.322,1.787,3.879,0.024,-3.108,-0.015,452.734,5.703,-6.234,-0.097,3.879,0.000,-0.121
30.590,-0.332,1.795,3.879,0.019,-3.106,-0.017,452.250,5.950,-6.423,-0.120,3.879,0.000,-0.121
30.842,-0.344,1.805,3.885,0.016,-3.101,-0.009,451.989,6.142,-6.667,-0.145,3.885,0.000,-0.115
31.095,-0.352,1.816,3.894,0.003,-3.105,-0.011,451.727,6.334,-6.718,-0.147,3.894,0.000,-0.106
31.347,-0.355,1.828,3.906,0.010,-3.107,-0.010,451.383,6.494,-6.648,-0.147,3.906,0.000,-0.094
31.598,-0.352,1.837,3.918,0.012,-3.107,-0.010,451.672,6.630,-6.474,-0.130,3.917,0.000,-0.082
31.850,-0.343,1.844,3.929,0.006,-3.107,-0.008,451.378,6.746,-6.177,-0.130,3.929,0.000,-0.071
32.102,-0.333,1.850,3.941,0.022,-3.108,-0.010,451.737,6.821,-5.992,-0.121,3.940,0.000,-0.059
32.354,-0.322,1.854,3.947,0.023,-3.106,-0.011,452.053,6.826,-5.811,-0.120,3.947,0.000,-0.053
32.607,-0.316,1.853,3.950,0.032,-3.109,-0.000,452.146,6.710,-5.836,-0.118,3.950,0.000,-0.050
32.859,-0.316,1.849,3.951,0.024,-3.103,0.006,452.324,6.555,-5.984,-0.113,3.951,0.000,-0.049
33.112,-0.322,1.840,3.952,0.025,-3.109,-0.002,452.237,6.314,-6.149,-0.104,3.952,0.000,-0.048
33.364,-0.331,1.827,3.951,0.025,-3.109,-0.012,452.360,6.045,-6.334,-0.088,3.951,0.000,-0.049
33.616,-0.343,1.813,3.950,0.022,-3.111,-0.015,452.386,5.797,-6.611,-0.081,3.950,0.000,-0.050
33.868,-0.356,1.803,3.949,0.016,-3.112,-0.025,452.400,5.753,-6.778,-0.080,3.949,0.000,-0.051
34.159,-0.366,1.798,3.950,0.003,-3.111,-0.017,452.201,5.772,-6.867,-0.070,3.950,0.000,-0.050
34.412,-0.368,1.802,3.950,0.006,-3.112,-0.024,452.534,6.015,-6.729,-0.077,3.950,0.000,-0.050
34.664,-0.364,1.810,3.945,0.014,-3.112,-0.017,452.715,6.240,-6.581,-0.071,3.946,0.000,-0.055
34.916,-0.357,1.821,3.936,0.015,-3.112,-0.010,452.945,6.454,-6.428,-0.058,3.937,0.000,-0.064
35.169,-0.349,1.831,3.922,0.013,-3.117,-0.009,453.140,6.604,-6.271,-0.033,3.923,0.000,-0.078
35.421,-0.340,1.841,3.906,0.020,-3.116,-0.007,453.129,6.755,-6.093,-0.016,3.906,0.000,-0.094
35.673,-0.334,1.848,3.890,0.028,-3.116,-0.002,453.218,6.839,-6.065,-0.026,3.890,0.000,-0.110
35.925,-0.333,1.851,3.875,0.021,-3.119,-0.003,453.078,6.796,-6.154,-0.008,3.875,0.000,-0.125
36.178,-0.335,1.851,3.865,0.019,-3.117,-0.005,452.913,6.750,-6.221,0.001,3.865,0.000,-0.135
36.430,-0.339,1.848,3.856,0.017,-3.112,0.003,452.853,6.540,-6.389,-0.019,3.856,0.000,-0.144
36.682,-0.344,1.845,3.854,0.018,-3.114,-0.013,452.450,6.519,-6.487,-0.021,3.854,0.000,-0.146
36.935,-0.351,1.843,3.861,0.020,-3.116,-0.014,451.986,6.516,-6.630,-0.025,3.861,0.000,-0.139
37.187,-0.360,1.846,3.873,0.018,-3.113,-0.017,451.520,6.681,-6.823,-0.053,3.873,0.000,-0.127
37.439,-0.370,1.851,3.884,0.013,-3.108,-0.006,451.612,6.734,-7.017,-0.084,3.884,0.000,-0.116
37.692,-0.377,1.858,3.895,0.005,-3.108,-0.006,451.637,6.856,-7.084,-0.107,3.895,0.000,-0.105
37.944,-0.380,1.866,3.910,0.010,-3.107,-0.005,451.731,6.983,-7.101,-0.121,3.909,0.000,-0.090
38.197,-0.377,1.871,3.922,0.008,-3.108,-0.007,451.445,7.129,-6.888,-0.134,3.922,0.000,-0.078
38.449,-0.372,1.873,3.937,0.015,-3.105,-0.003,451.325,6.998,-6.774,-0.157,3.936,0.000,-0.063
38.701,-0.364,1.873,3.948,0.013,-3.106,-0.012,451.873,6.964,-6.582,-0.165,3.948,0.000,-0.052
38.953,-0.356,1.870,3.955,0.019,-3.105,-0.006,451.933,6.881,-6.454,-0.138,3.955,0.000,-0.045
39.205,-0.349,1.865,3.957,0.020,-3.106,-0.000,452.369,6.774,-6.331,-0.129,3.957,0.000,-0.043
39.458,-0.343,1.858,3.952,0.017,-3.112,-0.012,452.640,6.649,-6.244,-0.108,3.952,0.000,-0.048
39.710,-0.340,1.849,3.943,0.025,-3.112,-0.013,452.913,6.481,-6.266,-0.074,3.944,0.000,-0.057
39.962,-0.340,1.843,3.930,0.022,-3.112,-0.017,453.062,6.435,-6.277,-0.070,3.930,0.000,-0.070
40.214,-0.342,1.839,3.925,0.020,-3.113,-0.020,452.562,6.414,-6.391,-0.074,3.925,0.000,-0.075
40.467,-0.347,1.839,3.922,0.021,-3.111,-0.017,452.571,6.496,-6.517,-0.072,3.922,0.000,-0.078
40.719,-0.354,1.844,3.916,0.021,-3.111,-0.014,452.644,6.645,-6.693,-0.072,3.916,0.000,-0.084
40.971,-0.365,1.850,3.905,0.023,-3.105,-0.003,453.058,6.768,-7.019,-0.102,3.905,0.000,-0.095
41.223,-0.379,1.856,3.890,0.020,-3.109,-0.009,453.122,6.848,-7.256,-0.112,3.890,0.000,-0.110
41.476,-0.395,1.862,3.878,0.016,-3.106,-0.011,452.909,6.956,-7.546,-0.143,3.878,0.000,-0.122
41.728,-0.411,1.865,3.866,0.015,-3.106,-0.006,453.058,6.869,-7.825,-0.150,3.866,0.000,-0.134
41.980,-0.424,1.863,3.856,0.010,-3.105,-0.001,452.737,6.687,-8.019,-0.155,3.856,0.000,-0.144
42.232,-0.430,1.858,3.846,0.001,-3.103,-0.009,452.832,6.504,-7.950,-0.162,3.847,0.000,-0.154
42.484,-0.431,1.850,3.840,0.011,-3.101,-0.012,452.673,6.395,-7.827,-0.165,3.841,0.000,-0.160
42.737,-0.428,1.844,3.832,0.013,-3.105,-0.019,452.998,6.333,-7.670,-0.184,3.833,0.000,-0.168
42.989,-0.421,1.842,3.826,0.010,-3.103,-0.015,452.658,6.382,-7.490,-0.160,3.826,0.000,-0.174
43.241,-0.411,1.842,3.819,0.015,-3.098,-0.005,452.683,6.483,-7.280,-0.164,3.819,0.000,-0.181
43.493,-0.401,1.842,3.809,0.017,-3.104,-0.009,453.111,6.472,-7.118,-0.186,3.809,0.000,-0.191
43.746,-0.393,1.843,3.798,0.021,-3.105,-0.015,453.316,6.434,-7.077,-0.174,3.798,0.000,-0.202
43.998,-0.389,1.844,3.786,0.025,-3.105,-0.012,453.175,6.514,-7.019,-0.151,3.786,0.000,-0.214
44.250,-0.388,1.844,3.775,0.022,-3.108,-0.012,452.833,6.593,-7.067,-0.135,3.776,0.000,-0.225
44.503,-0.392,1.843,3.766,0.018,-3.103,-0.001,452.813,6.442,-7.282,-0.132,3.766,0.000,-0.234
44.755,-0.397,1.841,3.758,0.013,-3.101,-0.005,452.788,6.327,-7.400,-0.147,3.758,0.000,-0.242
45.007,-0.404,1.836,3.754,0.023,-3.101,-0.003,452.446,6.263,-7.522,-0.131,3.754,0.000,-0.246
45.259,-0.412,1.831,3.751,0.016,-3.101,-0.004,452.550,6.150,-7.648,-0.149,3.751,0.000,-0.249
45.512,-0.421,1.825,3.751,0.014,-3.100,-0.003,452.278,6.052,-7.810,-0.162,3.751,0.000,-0.249
45.764,-0.428,1.820,3.750,0.013,-3.096,0.002,452.313,5.918,-7.898,-0.172,3.751,0.000,-0.250
46.016,-0.429,1.815,3.752,0.003,-3.102,-0.016,452.217,5.914,-7.811,-0.199,3.751,0.000,-0.248
46.268,-0.426,1.813,3.755,0.011,-3.094,-0.007,452.287,5.836,-7.706,-0.211,3.754,0.000,-0.245
46.521,-0.413,1.813,3.758,-0.002,-3.099,-0.021,452.144,5.879,-7.279,-0.226,3.758,0.000,-0.242
46.773,-0.397,1.815,3.765,0.016,-3.097,-0.017,451.866,5.982,-6.934,-0.237,3.765,0.000,-0.235
47.025,-0.378,1.815,3.771,0.021,-3.095,-0.004,451.804,6.080,-6.559,-0.262,3.771,0.000,-0.229
47.278,-0.361,1.813,3.782,0.027,-3.096,-0.007,451.610,5.959,-6.370,-0.267,3.782,0.000,-0.218
47.530,-0.350,1.809,3.792,0.024,-3.095,-0.014,451.836,5.794,-6.351,-0.265,3.792,0.000,-0.208
47.782,-0.346,1.802,3.803,0.029,-3.090,-0.004,451.667,5.638,-6.418,-0.274,3.803,0.000,-0.197
48.035,-0.346,1.795,3.817,0.025,-3.093,-0.015,451.315,5.559,-6.456,-0.285,3.816,0.000,-0.183
48.287,-0.351,1.787,3.828,0.026,-3.092,-0.013,451.690,5.415,-6.671,-0.293,3.827,0.000,-0.172
48.539,-0.360,1.779,3.838,0.024,-3.092,-0.013,451.767,5.229,-6.911,-0.291,3.837,0.000,-0.162
48.791,-0.374,1.772,3.842,0.028,-3.089,-0.012,452.127,5.064,-7.234,-0.321,3.842,0.000,-0.158
49.043,-0.391,1.768,3.844,0.024,-3.087,-0.029,452.235,5.117,-7.611,-0.330,3.844,0.000,-0.156
49.295,-0.412,1.769,3.842,0.019,-3.088,-0.022,452.506,5.154,-8.002,-0.355,3.842,0.000,-0.158
49.548,-0.432,1.774,3.840,0.008,-3.085,-0.024,452.504,5.271,-8.310,-0.375,3.840,0.000,-0.160
49.800,-0.449,1.783,3.837,0.008,-3.080,-0.013,452.497,5.432,-8.552,-0.385,3.837,0.000,-0.163
50.052,-0.459,1.794,3.838,0.000,-3.082,-0.020,452.201,5.729,-8.611,-0.400,3.838,0.000,-0.162
50.305,-0.461,1.806,3.839,0.005,-3.085,-0.020,452.372,6.055,-8.442,-0.385,3.839,0.000,-0.161
50.557,-0.457,1.820,3.834,0.008,-3.086,-0.017,452.864,6.268,-8.228,-0.383,3.834,0.000,-0.166
50.809,-0.449,1.833,3.824,0.008,-3.090,-0.010,452.970,6.482,-8.012,-0.353,3.825,0.000,-0.176
51.061,-0.435,1.845,3.814,0.005,-3.089,-0.009,452.842,6.654,-7.679,-0.320,3.815,0.000,-0.186
51.314,-0.418,1.854,3.811,0.018,-3.090,-0.002,452.561,6.753,-7.354,-0.316,3.811,0.000,-0.189
51.566,-0.401,1.860,3.807,0.019,-3.092,-0.007,452.536,6.819,-7.045,-0.298,3.807,0.000,-0.193
51.818,-0.386,1.863,3.806,0.016,-3.094,-0.003,452.283,6.830,-6.818,-0.276,3.806,0.000,-0.194
52.070,-0.376,1.862,3.806,0.029,-3.097,-0.009,452.375,6.765,-6.706,-0.249,3.806,0.000,-0.194
52.323,-0.372,1.859,3.803,0.034,-3.099,-0.014,452.899,6.602,-6.891,-0.235,3.803,0.000,-0.197
52.575,-0.378,1.855,3.799,0.035,-3.098,-0.011,452.568,6.510,-7.162,-0.232,3.799,0.000,-0.201
52.828,-0.391,1.852,3.788,0.015,-3.099,-0.014,453.196,6.517,-7.481,-0.226,3.788,0.000,-0.212
53.080,-0.407,1.850,3.773,0.011,-3.099,-0.014,453.279,6.466,-7.803,-0.234,3.773,0.000,-0.227
53.332,-0.420,1.850,3.755,0.012,-3.098,-0.014,453.491,6.519,-7.962,-0.238,3.755,0.000,-0.245
53.584,-0.429,1.850,3.734,0.004,-3.097,-0.013,453.687,6.551,-8.014,-0.265,3.734,0.000,-0.266
53.836,-0.434,1.851,3.712,0.011,-3.092,0.002,453.195,6.578,-8.002,-0.260,3.713,0.000,-0.288
54.089,-0.432,1.852,3.688,-0.000,-3.099,-0.014,453.839,6.648,-7.766,-0.225,3.689,0.000,-0.312
54.341,-0.424,1.852,3.662,0.006,-3.098,-0.011,453.897,6.624,-7.500,-0.234,3.663,0.000,-0.338
54.593,-0.410,1.851,3.635,0.010,-3.092,-0.004,453.789,6.567,-7.249,-0.252,3.636,0.000,-0.365
54.845,-0.393,1.849,3.605,0.010,-3.093,-0.005,454.102,6.453,-6.940,-0.269,3.606,0.000,-0.395
55.098,-0.377,1.846,3.574,0.018,-3.095,-0.005,454.550,6.391,-6.620,-0.252,3.575,0.000,-0.426
55.349,-0.361,1.845,3.539,0.018,-3.095,-0.011,454.404,6.463,-6.420,-0.251,3.540,0.000,-0.461
55.602,-0.350,1.844,3.503,0.020,-3.093,-0.001,454.307,6.441,-6.325,-0.266,3.504,0.000,-0.497
55.854,-0.345,1.844,3.463,0.030,-3.092,-0.005,454.737,6.465,-6.409,-0.298,3.464,0.000,-0.537
56.106,-0.347,1.845,3.420,0.023,-3.088,-0.011,454.970,6.502,-6.622,-0.330,3.421,0.000,-0.580
56.359,-0.354,1.849,3.374,0.018,-3.087,-0.006,454.933,6.561,-6.866,-0.354,3.376,0.000,-0.626
56.611,-0.364,1.856,3.325,0.010,-3.085,-0.008,455.044,6.681,-7.077,-0.365,3.328,0.000,-0.675
56.863,-0.370,1.861,3.276,0.007,-3.087,0.002,455.275,6.850,-7.126,-0.369,3.280,0.000,-0.724
57.115,-0.373,1.866,3.229,0.008,-3.089,-0.004,455.183,6.905,-7.058,-0.360,3.232,0.000,-0.771
57.367,-0.372,1.868,3.182,0.015,-3.086,0.005,455.160,6.796,-6.981,-0.360,3.185,0.000,-0.818
57.620,-0.368,1.867,3.132,0.011,-3.086,0.002,455.541,6.748,-6.838,-0.353,3.136,0.000,-0.868
57.872,-0.364,1.863,3.083,0.025,-3.088,-0.000,455.178,6.622,-6.806,-0.345,3.083,0.000,-0.917
58.124,-0.365,1.855,3.032,0.028,-3.087,0.004,456.093,6.355,-6.868,-0.342,3.032,0.000,-0.968
58.375,-0.370,1.848,2.978,0.023,-3.091,-0.010,455.670,6.339,-7.038,-0.322,2.978,0.000,-1.022
58.628,-0.380,1.842,2.920,0.018,-3.093,-0.009,456.527,6.249,-7.337,-0.291,2.920,0.000,-1.080
58.880,-0.390,1.840,2.858,0.010,-3.097,-0.012,456.355,6.340,-7.400,-0.264,2.858,0.000,-1.142
59.132,-0.398,1.841,2.795,0.013,-3.096,-0.009,457.031,6.410,-7.547,-0.258,2.795,0.000,-1.205
59.384,-0.403,1.846,2.724,0.015,-3.093,-0.009,457.024,6.564,-7.548,-0.254,2.727,0.000,-1.276
59.637,-0.408,1.853,2.656,0.018,-3.092,-0.006,456.639,6.621,-7.636,-0.284,2.658,0.000,-1.344
59.888,-0.412,1.861,2.583,0.022,-3.096,-0.013,458.340,6.949,-7.684,-0.268,2.586,0.000,-1.417
60.141,-0.412,1.869,2.517,0.003,-3.098,-0.009,458.514,7.168,-7.541,-0.267,2.517,0.000,-1.483
60.393,-0.407,1.878,2.450,0.012,-3.098,0.003,457.799,7.279,-7.341,-0.247,2.452,0.000,-1.550
60.645,-0.394,1.884,2.391,0.009,-3.100,0.006,456.476,7.299,-6.961,-0.218,2.393,0.000,-1.609
60.897,-0.379,1.886,2.333,0.018,-3.101,-0.002,456.335,7.200,-6.620,-0.191,2.335,0.000,-1.667
61.149,-0.363,1.885,2.273,0.021,-3.105,0.001,456.428,7.187,-6.339,-0.166,2.275,0.000,-1.727
61.401,-0.348,1.884,2.214,0.020,-3.104,-0.000,456.698,7.151,-6.215,-0.161,2.216,0.000,-1.786
61.654,-0.336,1.882,2.155,0.023,-3.106,0.001,456.419,7.117,-5.970,-0.144,2.157,0.000,-1.845
61.906,-0.327,1.878,2.098,0.025,-3.105,0.008,456.522,6.970,-5.939,-0.150,2.100,0.000,-1.902
62.158,-0.324,1.873,2.041,0.029,-3.103,0.003,457.137,6.877,-6.000,-0.153,2.043,0.000,-1.959
62.410,-0.326,1.868,1.981,0.024,-3.105,0.000,460.340,6.702,-6.221,-0.153,1.981,0.000,-2.019
62.662,-0.333,1.865,1.915,0.022,-3.102,-0.001,460.418,6.762,-6.529,-0.164,1.921,0.000,-2.085
62.914,-0.354,1.881,1.823,0.091,-3.102,-0.082,459.987,7.523,-7.206,-0.174,1.832,0.000,-2.177
63.166,-0.399,1.927,1.613,0.134,-3.100,-0.126,475.825,9.288,-8.939,-0.161,1.622,0.000,-2.387
63.419,-0.511,2.029,1.259,0.252,-3.117,-0.114,473.304,11.703,-11.871,-0.137,1.259,0.000,-2.741
63.671,-0.765,2.213,1.038,0.286,-3.125,-0.118,464.550,17.711,-21.015,0.059,1.038,0.000,-2.962
63.923,-1.230,2.477,1.054,0.288,-3.136,-0.092,450.079,22.753,-27.355,0.138,1.054,0.000,-2.946
64.175,-1.788,2.772,0.961,0.270,-3.136,-0.092,468.343,28.903,-40.211,0.196,0.961,0.000,-3.039
64.427,-2.443,3.099,0.571,0.208,-3.132,-0.058,479.792,24.272,-32.641,0.192,0.571,0.000,-3.429
64.680,-3.065,3.356,0.446,1.122,2.846,-0.387,449.946,30.341,-22.398,-30.974,0.446,0.000,-3.554
64.931,-3.462,3.494,0.238,0.925,0.514,-2.672,490.077,-2.643,40.007,-25.742,0.238,0.000,-3.762
65.228,-3.462,3.494,0.238,0.925,0.514,-2.672,489.691,-1.087,38.907,-30.062,0.238,0.000,-3.762
65.481,-3.462,3.494,0.238,0.925,0.514,-2.672,489.690,-1.004,38.848,-30.346,0.238,0.000,-3.762
65.735,-3.462,3.494,0.238,0.925,0.514,-2.672,489.690,-0.997,38.