Med video! Time, X, Y, Z, Pitch, Yaw, Roll, errorHeight, errorRoll, errorPitch, errorYaw, HLeadOut, HIntegralOut, HeightError
------------------------[Parameters]------------------------
HOVER_VALUE, ctrl_x->ref, ctrl_y->ref, ctrl_yaw->ref, ctrl_h->ref, ctrl_h->kp, ctrl_h->tau_i, ctrl_h->tau_d, ctrl_h->alpha, ctrl_vel_x->tau_i, ctrl_vel_x->tau_d, ctrl_vel_x->alpha
86.000, 0.522, 1.781, 1.600, 3.000, 21.964, 6.447, 1.802, 0.090, 0.000, 0.347, 0.300, 
------------------------[Parameters]------------------------
0.299,0.522,1.781,0.431,0.018,1.598,-0.028,87.680,0.004,-0.014,0.010
0.599,0.522,1.783,0.433,0.016,1.599,-0.025,87.731,-0.020,0.034,0.015
0.897,0.547,1.782,0.455,0.056,1.595,0.028,87.779,-0.576,0.038,0.022
1.196,0.604,1.790,0.498,0.045,1.589,0.005,87.816,-2.718,0.381,0.136
1.495,0.682,1.803,0.555,0.041,1.576,-0.045,87.844,-4.288,0.674,0.235
1.794,0.750,1.827,0.606,0.046,1.570,-0.078,87.870,-4.746,1.136,0.299
2.093,0.779,1.858,0.623,0.048,1.568,-0.089,87.903,-4.609,1.817,0.366
2.392,0.764,1.891,0.603,0.058,1.563,-0.089,87.950,-3.377,2.555,0.399
2.691,0.711,1.919,0.558,0.066,1.562,-0.063,88.010,-1.680,2.845,0.440
2.990,0.635,1.936,0.496,0.072,1.557,-0.042,88.081,-0.170,2.791,0.459
3.289,0.562,1.943,0.433,0.060,1.557,-0.014,88.159,0.771,2.664,0.484
3.588,0.521,1.975,0.475,0.061,1.555,-0.004,88.214,0.615,3.578,0.509
3.887,0.503,2.002,0.522,0.090,1.550,-0.007,88.250,0.525,3.948,0.537
4.186,0.506,2.010,0.551,0.068,1.549,-0.013,88.283,0.106,3.693,0.572
4.485,0.521,2.002,0.555,0.057,1.548,-0.037,88.325,-0.359,3.277,0.589
4.783,0.534,1.989,0.542,0.067,1.547,-0.047,88.376,-0.526,2.950,0.602
5.082,0.537,1.971,0.513,0.051,1.548,-0.057,88.433,-0.315,2.602,0.591
5.381,0.525,1.957,0.485,0.043,1.550,-0.059,88.495,0.172,2.483,0.559
5.680,0.499,1.949,0.462,0.046,1.553,-0.047,88.556,0.873,2.507,0.546
5.979,0.469,1.950,0.446,0.046,1.554,-0.035,88.615,1.347,2.674,0.525
6.278,0.440,1.957,0.444,0.048,1.558,-0.017,88.670,1.839,2.965,0.515
6.577,0.418,1.963,0.452,0.071,1.555,-0.021,88.720,1.981,3.010,0.518
6.875,0.410,1.961,0.467,0.075,1.557,-0.009,88.766,1.843,2.791,0.500
7.174,0.414,1.948,0.481,0.059,1.557,-0.026,88.810,1.599,2.398,0.490
7.474,0.424,1.924,0.490,0.063,1.555,-0.031,88.856,1.237,1.680,0.480
7.773,0.436,1.896,0.498,0.061,1.555,-0.037,88.903,1.067,1.131,0.497
8.072,0.447,1.865,0.504,0.051,1.556,-0.038,88.949,0.897,0.628,0.493
8.371,0.452,1.841,0.509,0.038,1.558,-0.043,88.997,1.010,0.388,0.484
8.670,0.447,1.829,0.514,0.028,1.559,-0.039,89.044,1.227,0.505,0.469
8.969,0.435,1.832,0.519,0.052,1.561,-0.029,89.092,1.545,0.876,0.436
9.268,0.425,1.845,0.525,0.048,1.564,-0.024,89.139,1.744,1.303,0.436
9.567,0.421,1.858,0.529,0.059,1.565,-0.026,89.189,1.702,1.558,0.411
9.866,0.422,1.868,0.530,0.061,1.565,-0.026,89.237,1.493,1.605,0.403
10.166,0.429,1.873,0.523,0.054,1.566,-0.031,89.288,1.279,1.569,0.390
10.465,0.435,1.871,0.508,0.066,1.567,-0.040,89.342,1.262,1.366,0.390
10.764,0.432,1.857,0.488,0.077,1.569,-0.041,89.399,1.494,0.931,0.366
11.063,0.419,1.841,0.470,0.037,1.573,-0.038,89.457,1.864,0.646,0.327
11.362,0.397,1.825,0.467,0.058,1.571,-0.029,89.512,2.353,0.419,0.328
11.661,0.374,1.815,0.481,0.041,1.572,-0.018,89.561,2.702,0.359,0.316
11.960,0.358,1.813,0.504,0.040,1.572,-0.018,89.603,2.911,0.459,0.315
12.259,0.350,1.820,0.521,0.044,1.571,-0.024,89.645,2.850,0.782,0.323
12.558,0.349,1.832,0.535,0.058,1.569,-0.021,89.687,2.742,1.045,0.329
12.857,0.352,1.844,0.540,0.056,1.568,-0.026,89.732,2.547,1.262,0.341
13.156,0.360,1.850,0.540,0.066,1.568,-0.024,89.780,2.381,1.207,0.349
13.455,0.371,1.848,0.527,0.068,1.568,-0.024,89.832,2.142,0.992,0.375
13.755,0.385,1.834,0.512,0.062,1.567,-0.027,89.887,1.790,0.483,0.381
14.054,0.398,1.812,0.503,0.065,1.566,-0.038,89.942,1.668,-0.009,0.379
14.353,0.403,1.787,0.501,0.060,1.570,-0.041,89.994,1.733,-0.489,0.362
14.652,0.398,1.761,0.509,0.042,1.571,-0.043,90.043,2.052,-0.916,0.353
14.951,0.383,1.743,0.520,0.043,1.570,-0.034,90.089,2.547,-1.009,0.327
15.251,0.361,1.739,0.536,0.039,1.571,-0.023,90.135,3.143,-0.763,0.336
15.550,0.336,1.743,0.551,0.054,1.567,-0.026,90.178,3.401,-0.517,0.353
15.848,0.317,1.747,0.564,0.067,1.567,-0.020,90.221,3.587,-0.440,0.376
16.148,0.303,1.744,0.571,0.061,1.567,-0.022,90.265,3.702,-0.635,0.372
16.447,0.298,1.737,0.572,0.053,1.567,-0.017,90.312,3.621,-0.810,0.365
16.735,0.299,1.731,0.574,0.053,1.567,-0.020,90.360,3.457,-0.904,0.377
17.034,0.304,1.724,0.571,0.060,1.567,-0.028,90.408,3.347,-1.024,0.392
17.333,0.306,1.716,0.563,0.057,1.567,-0.039,90.459,3.353,-1.157,0.380
17.632,0.304,1.707,0.554,0.053,1.569,-0.030,90.511,3.454,-1.380,0.367
17.931,0.298,1.697,0.549,0.054,1.567,-0.029,90.563,3.698,-1.538,0.374
18.230,0.292,1.685,0.553,0.054,1.564,-0.024,90.612,3.747,-1.741,0.397
18.529,0.291,1.676,0.561,0.051,1.562,-0.018,90.659,3.663,-1.830,0.420
18.828,0.292,1.669,0.575,0.047,1.558,-0.027,90.703,3.608,-1.821,0.457
19.127,0.296,1.668,0.592,0.044,1.553,-0.030,90.745,3.515,-1.712,0.509
19.426,0.299,1.671,0.612,0.060,1.551,-0.033,90.785,3.477,-1.627,0.549
19.725,0.303,1.670,0.625,0.059,1.547,-0.028,90.826,3.379,-1.672,0.590
20.025,0.309,1.663,0.635,0.060,1.548,-0.020,90.868,3.262,-1.969,0.603
20.324,0.319,1.653,0.639,0.050,1.546,-0.022,90.912,3.058,-2.109,0.629
20.623,0.335,1.647,0.644,0.050,1.544,-0.026,90.960,2.544,-2.198,0.637
20.922,0.356,1.645,0.646,0.045,1.544,-0.029,91.005,2.226,-2.056,0.644
21.221,0.377,1.651,0.640,0.052,1.542,-0.036,91.053,1.813,-1.867,0.665
21.520,0.392,1.658,0.629,0.054,1.539,-0.048,91.104,1.798,-1.665,0.686
21.819,0.397,1.663,0.609,0.067,1.541,-0.040,91.158,1.948,-1.742,0.677
22.118,0.392,1.662,0.587,0.060,1.539,-0.040,91.214,2.226,-1.844,0.684
22.417,0.380,1.655,0.571,0.054,1.541,-0.032,91.270,2.505,-2.010,0.683
22.715,0.369,1.644,0.564,0.053,1.540,-0.025,91.324,2.664,-2.263,0.689
23.014,0.364,1.634,0.569,0.057,1.543,-0.020,91.373,2.611,-2.431,0.658
23.313,0.368,1.632,0.583,0.039,1.542,-0.021,91.418,2.357,-2.312,0.648
23.612,0.379,1.636,0.604,0.052,1.545,-0.029,91.459,2.085,-2.170,0.633
23.911,0.391,1.646,0.628,0.051,1.548,-0.040,91.497,1.789,-1.812,0.604
24.210,0.397,1.654,0.650,0.065,1.551,-0.040,91.535,1.914,-1.789,0.575
24.509,0.395,1.657,0.667,0.067,1.555,-0.035,91.573,2.035,-1.874,0.525
24.808,0.388,1.651,0.678,0.062,1.558,-0.031,91.614,2.280,-2.120,0.502
25.106,0.378,1.639,0.687,0.056,1.559,-0.035,91.656,2.485,-2.409,0.480
25.405,0.366,1.627,0.692,0.054,1.559,-0.033,91.699,2.690,-2.622,0.458
25.704,0.356,1.622,0.698,0.035,1.563,-0.024,91.742,2.824,-2.569,0.439
26.003,0.347,1.624,0.705,0.053,1.561,-0.029,91.786,2.944,-2.378,0.421
26.302,0.340,1.635,0.710,0.055,1.560,-0.025,91.831,3.012,-2.069,0.456
26.601,0.339,1.639,0.712,0.079,1.559,-0.015,91.876,2.892,-2.138,0.458
26.900,0.346,1.634,0.708,0.067,1.560,-0.022,91.921,2.621,-2.441,0.451
27.199,0.358,1.615,0.700,0.056,1.565,-0.032,91.970,2.380,-2.920,0.423
27.497,0.371,1.596,0.693,0.045,1.569,-0.028,92.019,2.130,-3.257,0.370
27.793,0.380,1.581,0.687,0.061,1.566,-0.048,92.068,2.088,-3.405,0.364
28.092,0.381,1.568,0.686,0.056,1.568,-0.035,92.115,2.214,-3.581,0.390
28.387,0.375,1.553,0.691,0.051,1.565,-0.032,92.161,2.440,-3.841,0.386
28.685,0.370,1.544,0.691,0.040,1.564,-0.020,92.206,2.488,-3.866,0.398
28.984,0.371,1.544,0.691,0.046,1.563,-0.021,92.252,2.381,-3.670,0.422
29.283,0.377,1.549,0.687,0.055,1.562,-0.023,92.299,2.200,-3.549,0.454
29.582,0.385,1.553,0.682,0.060,1.559,-0.032,92.347,2.028,-3.508,0.462
29.880,0.394,1.555,0.680,0.051,1.557,-0.031,92.395,1.894,-3.498,0.477
30.179,0.400,1.558,0.687,0.059,1.562,-0.039,92.440,1.866,-3.451,0.455
30.478,0.401,1.560,0.702,0.054,1.562,-0.040,92.481,1.936,-3.409,0.427
30.777,0.397,1.561,0.717,0.050,1.564,-0.035,92.521,2.072,-3.439,0.412
31.077,0.389,1.557,0.736,0.065,1.566,-0.029,92.560,2.251,-3.575,0.394
31.328,0.382,1.554,0.750,0.048,1.565,-0.030,92.591,2.348,-3.631,0.402
31.579,0.376,1.548,0.760,0.059,1.568,-0.021,92.623,2.435,-3.748,0.378
31.831,0.374,1.543,0.768,0.053,1.564,-0.022,92.656,2.398,-3.875,0.404
32.082,0.375,1.537,0.770,0.050,1.564,-0.029,92.693,2.299,-3.969,0.407
32.334,0.380,1.530,0.767,0.052,1.562,-0.032,92.730,2.172,-4.074,0.419
32.585,0.386,1.523,0.760,0.053,1.562,-0.028,92.769,2.014,-4.201,0.440
32.837,0.392,1.517,0.750,0.051,1.558,-0.030,92.810,1.989,-4.287,0.457
33.088,0.397,1.512,0.742,0.045,1.556,-0.033,92.851,1.883,-4.292,0.485
33.339,0.403,1.510,0.737,0.054,1.552,-0.035,92.892,1.855,-4.284,0.512
33.591,0.407,1.511,0.737,0.054,1.554,-0.033,92.931,1.777,-4.219,0.530
33.844,0.410,1.512,0.742,0.051,1.552,-0.036,92.967,1.768,-4.191,0.531
34.095,0.410,1.514,0.748,0.048,1.551,-0.033,93.003,1.843,-4.125,0.554
34.347,0.407,1.519,0.754,0.048,1.552,-0.036,93.038,1.944,-3.991,0.545
34.599,0.399,1.527,0.760,0.060,1.550,-0.039,93.073,2.167,-3.792,0.567
34.851,0.388,1.533,0.764,0.059,1.549,-0.034,93.108,2.432,-3.695,0.581
35.103,0.374,1.537,0.765,0.060,1.550,-0.026,93.144,2.700,-3.704,0.575
35.354,0.361,1.539,0.767,0.058,1.550,-0.027,93.180,2.874,-3.714,0.574
35.606,0.351,1.540,0.770,0.054,1.550,-0.021,93.216,2.970,-3.702,0.568
35.858,0.346,1.541,0.779,0.056,1.549,-0.026,93.251,2.960,-3.710,0.580
36.110,0.345,1.543,0.792,0.048,1.550,-0.019,93.284,2.847,-3.637,0.572
36.362,0.348,1.550,0.807,0.043,1.550,-0.019,93.315,2.752,-3.434,0.575
36.613,0.354,1.561,0.827,0.052,1.545,-0.026,93.344,2.603,-3.151,0.606
36.866,0.363,1.574,0.847,0.058,1.544,-0.028,93.372,2.385,-2.913,0.629
37.117,0.371,1.587,0.866,0.060,1.541,-0.037,93.400,2.275,-2.716,0.657
37.369,0.375,1.600,0.883,0.054,1.540,-0.041,93.429,2.306,-2.493,0.674
37.622,0.374,1.611,0.897,0.065,1.539,-0.040,93.457,2.423,-2.370,0.677
37.874,0.369,1.618,0.906,0.070,1.545,-0.030,93.487,2.607,-2.341,0.650
38.126,0.359,1.618,0.911,0.067,1.546,-0.032,93.519,2.815,-2.482,0.621
38.377,0.348,1.613,0.912,0.065,1.549,-0.028,93.552,3.047,-2.688,0.601
38.629,0.336,1.604,0.908,0.065,1.554,-0.027,93.587,3.239,-2.953,0.563
38.882,0.326,1.592,0.900,0.056,1.555,-0.025,93.624,3.345,-3.201,0.531
39.133,0.318,1.580,0.888,0.054,1.559,-0.024,93.663,3.421,-3.341,0.477
39.385,0.313,1.576,0.875,0.034,1.562,-0.025,93.704,3.393,-3.304,0.437
39.637,0.312,1.579,0.861,0.043,1.565,-0.025,93.745,3.347,-3.057,0.401
39.891,0.314,1.591,0.845,0.052,1.569,-0.027,93.786,3.251,-2.730,0.364
40.142,0.316,1.604,0.826,0.061,1.573,-0.030,93.830,3.174,-2.509,0.330
40.394,0.318,1.614,0.805,0.072,1.575,-0.029,93.874,3.140,-2.462,0.302
40.647,0.318,1.614,0.786,0.071,1.577,-0.038,93.919,3.189,-2.646,0.273
40.900,0.316,1.602,0.771,0.075,1.577,-0.032,93.963,3.249,-3.096,0.261
41.152,0.312,1.582,0.761,0.058,1.577,-0.031,94.006,3.367,-3.525,0.252
41.405,0.307,1.556,0.758,0.058,1.579,-0.027,94.046,3.444,-4.117,0.240
41.657,0.301,1.532,0.759,0.044,1.575,-0.035,94.084,3.572,-4.470,0.261
41.910,0.295,1.511,0.762,0.038,1.576,-0.028,94.124,3.681,-4.721,0.274
42.163,0.291,1.497,0.771,0.046,1.574,-0.016,94.158,3.704,-4.783,0.286
42.415,0.291,1.488,0.782,0.053,1.569,-0.021,94.192,3.644,-4.796,0.328
42.668,0.296,1.484,0.799,0.042,1.570,-0.019,94.223,3.430,-4.786,0.360
42.920,0.305,1.483,0.819,0.046,1.565,-0.024,94.252,3.260,-4.667,0.388
43.172,0.315,1.486,0.844,0.048,1.559,-0.031,94.279,3.091,-4.508,0.421
43.424,0.323,1.494,0.872,0.046,1.561,-0.035,94.304,2.969,-4.334,0.445
43.677,0.328,1.501,0.900,0.063,1.558,-0.039,94.327,2.995,-4.219,0.468
43.929,0.327,1.506,0.926,0.065,1.558,-0.041,94.351,3.147,-4.210,0.470
44.181,0.320,1.505,0.951,0.067,1.560,-0.036,94.374,3.384,-4.321,0.469
44.434,0.308,1.499,0.976,0.056,1.559,-0.032,94.398,3.636,-4.545,0.465
44.686,0.296,1.489,0.998,0.054,1.561,-0.026,94.421,3.905,-4.739,0.452
44.938,0.284,1.480,1.016,0.052,1.560,-0.022,94.446,4.015,-4.894,0.446
45.191,0.277,1.472,1.030,0.050,1.562,-0.015,94.472,4.043,-4.991,0.445
45.443,0.276,1.466,1.041,0.049,1.560,-0.017,94.499,3.955,-5.044,0.459
45.697,0.278,1.463,1.050,0.047,1.559,-0.022,94.527,3.814,-5.002,0.458
45.949,0.284,1.466,1.057,0.044,1.557,-0.025,94.556,3.684,-4.857,0.473
46.201,0.290,1.475,1.063,0.041,1.559,-0.031,94.585,3.584,-4.600,0.482
46.453,0.293,1.488,1.070,0.052,1.557,-0.033,94.615,3.580,-4.299,0.477
46.706,0.293,1.503,1.076,0.060,1.557,-0.032,94.646,3.684,-4.003,0.486
46.958,0.288,1.514,1.082,0.062,1.559,-0.029,94.675,3.836,-3.917,0.490
47.210,0.279,1.518,1.085,0.067,1.559,-0.028,94.705,4.037,-3.997,0.481
47.463,0.267,1.516,1.087,0.061,1.558,-0.031,94.736,4.320,-4.144,0.478
47.715,0.255,1.510,1.087,0.060,1.559,-0.026,94.767,4.529,-4.393,0.470
47.967,0.243,1.500,1.086,0.056,1.558,-0.021,94.799,4.699,-4.575,0.472
48.220,0.235,1.490,1.083,0.052,1.557,-0.018,94.832,4.784,-4.749,0.471
48.472,0.230,1.483,1.079,0.046,1.554,-0.028,94.865,4.774,-4.759,0.501
48.724,0.228,1.481,1.081,0.048,1.553,-0.026,94.898,4.755,-4.682,0.503
48.976,0.225,1.486,1.087,0.051,1.545,-0.037,94.928,4.854,-4.406,0.573
49.229,0.218,1.495,1.101,0.059,1.543,-0.035,94.956,5.001,-4.183,0.613
49.525,0.209,1.506,1.122,0.062,1.543,-0.023,94.987,5.178,-4.010,0.649
49.777,0.202,1.513,1.142,0.061,1.542,-0.024,95.010,5.287,-3.922,0.669
50.030,0.198,1.518,1.167,0.062,1.540,-0.022,95.032,5.296,-3.898,0.678
50.282,0.196,1.521,1.197,0.061,1.538,-0.028,95.051,5.307,-3.853,0.687
50.534,0.195,1.521,1.230,0.068,1.538,-0.027,95.068,5.300,-3.907,0.708
50.787,0.193,1.518,1.264,0.065,1.536,-0.032,95.083,5.326,-4.015,0.716
51.038,0.192,1.508,1.298,0.069,1.539,-0.026,95.097,5.361,-4.327,0.707
51.291,0.191,1.494,1.326,0.065,1.545,-0.017,95.112,5.348,-4.703,0.663
51.543,0.193,1.474,1.351,0.060,1.549,-0.017,95.129,5.241,-5.158,0.614
51.795,0.197,1.454,1.370,0.047,1.553,-0.023,95.147,5.105,-5.548,0.541
52.048,0.201,1.439,1.393,0.043,1.562,-0.028,95.165,4.989,-5.666,0.476
52.300,0.203,1.432,1.417,0.041,1.566,-0.026,95.181,4.976,-5.640,0.409
52.552,0.202,1.432,1.444,0.048,1.572,-0.026,95.198,5.046,-5.492,0.345
52.805,0.196,1.437,1.472,0.056,1.577,-0.029,95.212,5.208,-5.351,0.294
53.057,0.185,1.442,1.500,0.057,1.581,-0.026,95.226,5.526,-5.261,0.238
53.309,0.170,1.445,1.529,0.061,1.582,-0.027,95.239,5.818,-5.269,0.213
53.562,0.154,1.447,1.555,0.053,1.582,-0.021,95.251,6.080,-5.254,0.215
53.814,0.139,1.449,1.577,0.059,1.582,-0.016,95.265,6.276,-5.243,0.201
54.066,0.129,1.450,1.593,0.065,1.582,-0.008,95.281,6.349,-5.253,0.201
54.318,0.126,1.450,1.605,0.054,1.577,-0.014,95.298,6.282,-5.224,0.218
54.570,0.128,1.450,1.615,0.058,1.580,-0.015,95.316,6.076,-5.287,0.224
54.823,0.133,1.452,1.627,0.050,1.578,-0.020,95.334,5.952,-5.167,0.234
55.075,0.140,1.456,1.640,0.055,1.579,-0.019,95.352,5.839,-5.086,0.238
55.327,0.145,1.462,1.651,0.054,1.574,-0.026,95.369,5.782,-4.907,0.268
55.579,0.150,1.468,1.663,0.060,1.574,-0.026,95.387,5.728,-4.814,0.287
55.832,0.151,1.473,1.674,0.062,1.571,-0.030,95.404,5.801,-4.715,0.293
56.084,0.148,1.476,1.689,0.060,1.573,-0.032,95.421,5.919,-4.740,0.297
56.336,0.142,1.474,1.707,0.067,1.574,-0.024,95.436,6.093,-4.920,0.298
56.632,0.133,1.465,1.733,0.061,1.571,-0.024,95.452,6.284,-5.131,0.308
56.884,0.125,1.454,1.758,0.059,1.573,-0.019,95.463,6.397,-5.401,0.309
57.136,0.116,1.441,1.788,0.051,1.574,-0.022,95.472,6.550,-5.631,0.302
57.388,0.106,1.430,1.819,0.048,1.577,-0.021,95.480,6.732,-5.814,0.280
57.639,0.094,1.423,1.850,0.048,1.577,-0.020,95.487,6.928,-5.829,0.271
57.891,0.082,1.420,1.879,0.052,1.579,-0.012,95.493,7.106,-5.804,0.248
58.143,0.072,1.422,1.906,0.044,1.579,-0.015,95.500,7.272,-5.683,0.241
58.394,0.064,1.425,1.933,0.053,1.577,-0.013,95.507,7.305,-5.564,0.242
58.647,0.059,1.432,1.957,0.054,1.573,-0.021,95.513,7.362,-5.360,0.281
58.937,0.059,1.439,1.986,0.063,1.575,-0.008,95.522,7.247,-5.306,0.282
59.230,0.063,1.441,2.012,0.064,1.573,-0.016,95.530,7.092,-5.324,0.307
59.524,0.069,1.439,2.037,0.059,1.570,-0.026,95.539,7.005,-5.430,0.344
59.776,0.072,1.433,2.052,0.061,1.568,-0.022,95.547,7.008,-5.605,0.349
60.026,0.071,1.426,2.066,0.050,1.567,-0.028,95.557,7.117,-5.666,0.362
60.278,0.067,1.425,2.081,0.038,1.569,-0.026,95.566,7.242,-5.624,0.359
60.529,0.059,1.430,2.100,0.046,1.568,-0.023,95.574,7.450,-5.373,0.355
60.780,0.050,1.440,2.121,0.058,1.569,-0.016,95.581,7.659,-5.067,0.353
61.031,0.042,1.449,2.142,0.066,1.569,-0.015,95.587,7.696,-5.015,0.352
61.282,0.037,1.454,2.161,0.066,1.571,-0.017,95.592,7.717,-5.031,0.341
61.533,0.035,1.454,2.176,0.059,1.574,-0.017,95.599,7.667,-5.166,0.315
61.784,0.033,1.451,2.190,0.060,1.575,-0.023,95.606,7.710,-5.276,0.291
62.036,0.030,1.446,2.201,0.060,1.575,-0.019,95.614,7.774,-5.415,0.299
62.287,0.028,1.439,2.211,0.054,1.573,-0.018,95.623,7.818,-5.525,0.293
62.538,0.028,1.432,2.221,0.058,1.573,-0.015,95.632,7.729,-5.671,0.298
62.789,0.032,1.424,2.229,0.058,1.572,-0.013,95.641,7.588,-5.836,0.311
63.041,0.040,1.414,2.238,0.059,1.571,-0.018,95.650,7.395,-5.977,0.320
63.292,0.047,1.407,2.245,0.047,1.571,-0.022,95.659,7.299,-6.059,0.329
63.543,0.052,1.403,2.258,0.046,1.572,-0.022,95.668,7.253,-6.036,0.332
63.795,0.054,1.407,2.272,0.044,1.572,-0.021,95.675,7.285,-5.789,0.323
64.046,0.054,1.417,2.291,0.053,1.573,-0.020,95.680,7.323,-5.512,0.305
64.298,0.055,1.428,2.312,0.064,1.572,-0.017,95.684,7.285,-5.144,0.316
64.550,0.056,1.435,2.334,0.077,1.573,-0.014,95.686,7.290,-5.292,0.312
64.801,0.059,1.437,2.355,0.062,1.573,-0.017,95.688,7.203,-5.386,0.312
65.053,0.062,1.433,2.377,0.058,1.577,-0.017,95.690,7.100,-5.594,0.293
65.304,0.066,1.429,2.399,0.058,1.578,-0.018,95.691,7.035,-5.713,0.261
65.556,0.069,1.425,2.421,0.048,1.581,-0.018,95.691,6.975,-5.721,0.225
65.807,0.073,1.424,2.443,0.053,1.584,-0.017,95.691,6.887,-5.750,0.198
66.059,0.077,1.423,2.464,0.061,1.586,-0.015,95.692,6.786,-5.768,0.168
66.311,0.080,1.422,2.489,0.056,1.586,-0.018,95.691,6.726,-5.780,0.168
66.562,0.082,1.419,2.514,0.060,1.587,-0.019,95.689,6.750,-5.896,0.154
66.814,0.084,1.418,2.542,0.044,1.589,-0.014,95.686,6.715,-5.847,0.137
67.066,0.087,1.422,2.573,0.042,1.589,-0.012,95.681,6.671,-5.687,0.120
67.317,0.092,1.432,2.607,0.046,1.588,-0.015,95.675,6.579,-5.341,0.126
67.569,0.098,1.448,2.648,0.056,1.584,-0.025,95.666,6.456,-4.940,0.145
67.821,0.102,1.465,2.690,0.066,1.585,-0.024,95.654,6.423,-4.682,0.161
68.073,0.103,1.480,2.735,0.062,1.583,-0.028,95.641,6.521,-4.497,0.175
68.324,0.100,1.490,2.775,0.067,1.583,-0.019,95.627,6.631,-4.401,0.188
68.576,0.096,1.496,2.813,0.067,1.583,-0.020,95.614,6.731,-4.421,0.191
68.827,0.091,1.499,2.845,0.060,1.583,-0.017,95.602,6.806,-4.451,0.192
69.079,0.088,1.501,2.873,0.055,1.584,-0.016,95.592,6.856,-4.459,0.182
69.331,0.085,1.503,2.895,0.055,1.587,-0.016,95.583,6.862,-4.420,0.155
69.583,0.082,1.509,2.911,0.053,1.589,-0.021,95.575,6.903,-4.271,0.126
69.835,0.079,1.515,2.923,0.065,1.591,-0.017,95.571,6.956,-4.215,0.107
70.086,0.076,1.519,2.935,0.066,1.591,-0.019,95.567,6.998,-4.175,0.084
70.338,0.072,1.520,2.948,0.063,1.593,-0.019,95.563,7.043,-4.266,0.078
70.590,0.070,1.516,2.959,0.064,1.595,-0.013,95.558,7.048,-4.424,0.068
70.841,0.067,1.508,2.968,0.054,1.597,-0.021,95.555,7.097,-4.629,0.047
71.093,0.064,1.500,2.973,0.057,1.600,-0.017,95.552,7.127,-4.829,0.015
71.345,0.061,1.490,2.976,0.059,1.600,-0.015,95.551,7.197,-5.006,0.003
71.596,0.057,1.479,2.977,0.066,1.601,-0.012,95.550,7.215,-5.247,-0.015
71.849,0.056,1.467,2.977,0.052,1.601,-0.012,95.550,7.181,-5.394,-0.008
72.101,0.057,1.458,2.983,0.050,1.600,-0.018,95.549,7.140,-5.506,-0.010
72.354,0.058,1.451,2.990,0.054,1.601,-0.013,95.547,7.071,-5.532,-0.011
72.606,0.061,1.450,3.002,0.045,1.599,-0.016,95.543,7.023,-5.419,-0.003
72.859,0.066,1.453,3.014,0.056,1.597,-0.013,95.538,6.933,-5.285,0.007
73.111,0.070,1.460,3.022,0.054,1.595,-0.022,95.534,6.915,-5.053,0.045
73.363,0.073,1.468,3.029,0.056,1.593,-0.024,95.530,6.877,-4.888,0.061
73.616,0.072,1.478,3.036,0.056,1.594,-0.020,95.527,6.953,-4.714,0.074
73.868,0.070,1.487,3.047,0.060,1.592,-0.019,95.522,7.056,-4.562,0.085
74.121,0.067,1.496,3.058,0.059,1.593,-0.018,95.517,7.116,-4.458,0.090
74.373,0.066,1.503,3.072,0.065,1.596,-0.006,95.511,7.075,-4.431,0.069
74.626,0.069,1.505,3.087,0.066,1.596,-0.008,95.503,6.923,-4.451,0.048
74.878,0.077,1.502,3.104,0.064,1.598,-0.017,95.495,6.682,-4.644,0.023
75.130,0.085,1.493,3.118,0.066,1.600,-0.027,95.487,6.544,-4.906,-0.001
75.383,0.090,1.477,3.127,0.064,1.603,-0.035,95.480,6.515,-5.326,-0.043
75.635,0.088,1.458,3.128,0.056,1.607,-0.034,95.475,6.647,-5.781,-0.081
75.888,0.080,1.435,3.126,0.052,1.607,-0.028,95.473,6.891,-6.170,-0.099
76.140,0.067,1.414,3.117,0.048,1.610,-0.019,95.473,7.184,-6.532,-0.116
76.392,0.055,1.398,3.102,0.039,1.608,-0.011,95.476,7.367,-6.676,-0.112
76.645,0.045,1.388,3.087,0.043,1.610,-0.008,95.480,7.425,-6.714,-0.114
76.898,0.042,1.383,3.070,0.049,1.607,-0.004,95.485,7.365,-6.634,-0.096
77.150,0.045,1.383,3.055,0.044,1.607,-0.006,95.491,7.194,-6.519,-0.075
77.403,0.055,1.384,3.041,0.054,1.602,-0.014,95.496,6.930,-6.423,-0.050
77.656,0.067,1.388,3.025,0.048,1.603,-0.013,95.502,6.685,-6.317,-0.036
77.908,0.081,1.394,3.005,0.047,1.600,-0.021,95.509,6.475,-6.157,-0.021
78.160,0.092,1.400,2.981,0.062,1.599,-0.028,95.518,6.342,-6.051,0.008
78.413,0.099,1.406,2.953,0.055,1.597,-0.029,95.529,6.351,-5.934,0.037
78.665,0.099,1.408,2.922,0.058,1.592,-0.033,95.542,6.532,-5.920,0.056
78.918,0.091,1.410,2.891,0.057,1.590,-0.032,95.556,6.803,-5.946,0.094
79.171,0.081,1.410,2.858,0.054,1.589,-0.017,95.572,7.029,-5.958,0.109
79.423,0.071,1.409,2.826,0.059,1.588,-0.014,95.588,7.204,-5.975,0.127
79.675,0.065,1.405,2.793,0.063,1.588,-0.007,95.605,7.208,-6.121,0.137
79.928,0.064,1.399,2.757,0.054,1.584,-0.012,95.623,7.112,-6.236,0.150
80.181,0.069,1.389,2.718,0.064,1.585,-0.010,95.643,6.889,-6.473,0.168
80.433,0.078,1.381,2.677,0.052,1.585,-0.016,95.665,6.691,-6.588,0.167
80.686,0.088,1.373,2.638,0.046,1.585,-0.026,95.687,6.516,-6.664,0.171
80.938,0.095,1.371,2.600,0.037,1.583,-0.023,95.710,6.457,-6.541,0.183
81.190,0.099,1.378,2.569,0.040,1.579,-0.032,95.731,6.504,-6.238,0.208
81.442,0.099,1.393,2.540,0.051,1.577,-0.028,95.751,6.634,-5.809,0.229
81.695,0.095,1.411,2.514,0.051,1.577,-0.021,95.771,6.717,-5.459,0.245
81.946,0.093,1.429,2.490,0.063,1.577,-0.015,95.790,6.748,-5.171,0.249
82.198,0.094,1.442,2.468,0.068,1.577,-0.017,95.808,6.687,-4.958,0.256
82.451,0.096,1.447,2.449,0.071,1.577,-0.022,95.826,6.575,-5.142,0.251
82.703,0.099,1.444,2.433,0.063,1.579,-0.025,95.843,6.549,-5.439,0.251
82.956,0.101,1.434,2.417,0.056,1.578,-0.023,95.859,6.535,-5.714,0.257
83.208,0.101,1.421,2.399,0.062,1.576,-0.025,95.876,6.571,-5.997,0.264
83.461,0.101,1.409,2.383,0.045,1.575,-0.024,95.893,6.586,-6.144,0.278
83.713,0.101,1.399,2.368,0.046,1.576,-0.018,95.910,6.601,-6.244,0.266
83.965,0.102,1.396,2.354,0.043,1.573,-0.021,95.927,6.595,-6.146,0.284
84.218,0.103,1.400,2.344,0.045,1.574,-0.020,95.944,6.504,-5.918,0.291
84.470,0.106,1.411,2.334,0.045,1.574,-0.021,95.959,6.480,-5.565,0.293
84.722,0.108,1.423,2.331,0.060,1.577,-0.022,95.973,6.403,-5.313,0.264
84.975,0.111,1.434,2.325,0.063,1.576,-0.020,95.986,6.335,-5.233,0.257
85.228,0.116,1.441,2.320,0.066,1.578,-0.016,96.000,6.246,-5.227,0.247
85.480,0.122,1.443,2.310,0.061,1.579,-0.021,96.014,6.085,-5.312,0.249
85.732,0.130,1.441,2.293,0.060,1.579,-0.022,96.031,5.944,-5.458,0.243
85.985,0.136,1.436,2.271,0.056,1.578,-0.028,96.051,5.900,-5.567,0.251
86.237,0.140,1.432,2.247,0.054,1.575,-0.030,96.073,5.892,-5.625,0.261
86.490,0.140,1.430,2.223,0.054,1.576,-0.032,96.095,5.990,-5.603,0.267
86.742,0.137,1.429,2.201,0.056,1.576,-0.029,96.118,6.075,-5.601,0.271
86.995,0.132,1.427,2.185,0.063,1.576,-0.024,96.139,6.207,-5.649,0.270
87.247,0.126,1.422,2.171,0.066,1.578,-0.022,96.160,6.307,-5.812,0.264
87.501,0.118,1.414,2.161,0.061,1.580,-0.023,96.179,6.430,-6.008,0.232
87.754,0.110,1.403,2.155,0.060,1.579,-0.027,96.196,6.601,-6.216,0.218
88.006,0.099,1.396,2.152,0.048,1.583,-0.029,96.213,6.787,-6.301,0.217
88.259,0.086,1.394,2.151,0.043,1.582,-0.022,96.228,7.074,-6.189,0.204
88.511,0.072,1.402,2.152,0.044,1.580,-0.021,96.242,7.306,-5.882,0.211
88.763,0.060,1.416,2.158,0.052,1.579,-0.016,96.256,7.483,-5.464,0.230
89.016,0.050,1.435,2.166,0.059,1.578,-0.017,96.267,7.572,-5.061,0.243
89.268,0.044,1.452,2.173,0.068,1.577,-0.016,96.278,7.611,-4.841,0.260
89.521,0.040,1.464,2.179,0.069,1.574,-0.019,96.289,7.662,-4.744,0.287
89.773,0.039,1.469,2.188,0.066,1.573,-0.020,96.299,7.611,-4.811,0.297
90.025,0.039,1.470,2.198,0.059,1.573,-0.022,96.309,7.562,-4.877,0.300
90.278,0.039,1.469,2.214,0.058,1.575,-0.018,96.317,7.573,-4.942,0.300
90.530,0.040,1.467,2.232,0.056,1.573,-0.019,96.323,7.541,-4.984,0.309
90.783,0.042,1.464,2.252,0.059,1.574,-0.018,96.328,7.473,-5.060,0.311
91.077,0.045,1.459,2.281,0.059,1.574,-0.026,96.331,7.432,-5.164,0.303
91.330,0.047,1.454,2.306,0.052,1.573,-0.026,96.333,7.405,-5.244,0.286
91.582,0.045,1.452,2.333,0.056,1.574,-0.026,96.334,7.495,-5.287,0.282
91.834,0.041,1.453,2.358,0.045,1.576,-0.027,96.334,7.606,-5.190,0.268
92.087,0.033,1.456,2.389,0.054,1.577,-0.030,96.333,7.830,-5.072,0.260
92.340,0.023,1.463,2.419,0.055,1.576,-0.025,96.330,8.024,-4.903,0.267
92.593,0.013,1.469,2.451,0.062,1.579,-0.021,96.327,8.202,-4.830,0.245
92.845,0.005,1.472,2.484,0.067,1.579,-0.014,96.322,8.293,-4.847,0.234
93.097,-0.002,1.471,2.515,0.060,1.581,-0.016,96.317,8.295,-4.982,0.221
93.350,-0.003,1.466,2.550,0.065,1.585,-0.014,96.311,8.242,-5.171,0.185
93.602,-0.001,1.460,2.579,0.056,1.587,-0.015,96.305,8.084,-5.328,0.154
93.854,0.004,1.454,2.610,0.056,1.592,-0.017,96.299,7.906,-5.478,0.110
94.107,0.011,1.452,2.640,0.050,1.595,-0.018,96.292,7.717,-5.416,0.059
94.359,0.018,1.455,2.671,0.045,1.597,-0.023,96.286,7.623,-5.248,0.048
94.612,0.025,1.463,2.706,0.050,1.598,-0.018,96.277,7.511,-5.004,0.024
94.864,0.034,1.475,2.743,0.057,1.602,-0.014,96.267,7.348,-4.771,-0.001
95.116,0.043,1.486,2.782,0.071,1.601,-0.015,96.255,7.148,-4.617,-0.017
95.369,0.051,1.491,2.821,0.067,1.600,-0.029,96.242,7.078,-4.627,-0.017
95.622,0.055,1.490,2.865,0.066,1.599,-0.028,96.227,7.110,-4.802,-0.011
95.874,0.053,1.484,2.905,0.059,1.596,-0.023,96.212,7.245,-4.975,0.016
96.127,0.049,1.475,2.942,0.059,1.593,-0.020,96.197,7.417,-5.176,0.055
96.379,0.043,1.466,2.979,0.055,1.588,-0.016,96.182,7.552,-5.285,0.111
96.631,0.038,1.459,3.019,0.053,1.581,-0.016,96.166,7.663,-5.291,0.178
96.884,0.036,1.452,3.057,0.057,1.576,-0.013,96.149,7.619,-5.339,0.239
97.137,0.038,1.448,3.094,0.047,1.571,-0.012,96.132,7.570,-5.303,0.302
97.389,0.043,1.446,3.133,0.056,1.569,-0.012,96.115,7.402,-5.303,0.344
97.642,0.053,1.447,3.168,0.057,1.566,-0.016,96.097,7.137,-5.205,0.367
97.894,0.065,1.447,3.199,0.061,1.569,-0.023,96.081,7.129,-5.221,0.387
98.146,0.075,1.445,3.224,0.064,1.571,-0.019,96.065,6.931,-5.287,0.338
98.399,0.085,1.442,3.252,0.058,1.574,-0.028,96.048,6.787,-5.365,0.286
98.651,0.093,1.434,3.284,0.060,1.578,-0.023,96.031,6.646,-5.533,0.263
98.904,0.094,1.429,3.316,0.045,1.579,-0.034,96.013,6.693,-5.695,0.246
99.156,0.089,1.427,3.342,0.053,1.582,-0.028,95.995,6.865,-5.675,0.229
99.408,0.078,1.429,3.364,0.049,1.581,-0.023,95.979,7.144,-5.525,0.213
99.660,0.065,1.434,3.382,0.058,1.582,-0.017,95.965,7.396,-5.438,0.195
99.913,0.052,1.440,3.396,0.055,1.583,-0.016,95.951,7.602,-5.320,0.188
100.165,0.042,1.445,3.407,0.060,1.586,-0.007,95.939,7.699,-5.271,0.170
100.418,0.036,1.448,3.414,0.062,1.587,-0.010,95.928,7.677,-5.304,0.157
100.670,0.036,1.447,3.418,0.063,1.589,-0.012,95.919,7.567,-5.406,0.134
100.923,0.039,1.441,3.419,0.064,1.589,-0.014,95.910,7.406,-5.600,0.121
101.175,0.045,1.434,3.419,0.056,1.590,-0.011,95.903,7.245,-5.764,0.126
101.427,0.053,1.424,3.418,0.062,1.589,-0.016,95.896,7.100,-5.966,0.121
101.680,0.062,1.414,3.419,0.050,1.590,-0.017,95.889,6.932,-6.114,0.137
101.932,0.068,1.404,3.424,0.054,1.589,-0.021,95.881,6.880,-6.263,0.122
102.185,0.073,1.397,3.429,0.055,1.587,-0.022,95.872,6.824,-6.311,0.135
102.437,0.075,1.392,3.440,0.049,1.589,-0.026,95.862,6.881,-6.372,0.120
102.690,0.074,1.390,3.453,0.050,1.589,-0.020,95.850,6.903,-6.332,0.118
102.943,0.070,1.392,3.471,0.045,1.589,-0.024,95.836,7.076,-6.189,0.121
103.195,0.064,1.399,3.491,0.052,1.589,-0.017,95.819,7.236,-6.008,0.129
103.448,0.056,1.411,3.514,0.044,1.589,-0.022,95.802,7.414,-5.674,0.119
103.700,0.048,1.425,3.539,0.065,1.590,-0.018,95.784,7.533,-5.459,0.117
103.952,0.040,1.439,3.564,0.055,1.588,-0.015,95.764,7.672,-5.201,0.122
104.204,0.032,1.449,3.589,0.059,1.589,-0.015,95.744,7.770,-5.124,0.121
104.457,0.027,1.454,3.612,0.069,1.590,-0.010,95.724,7.798,-5.162,0.119
104.709,0.026,1.452,3.634,0.070,1.588,-0.014,95.704,7.760,-5.341,0.121
104.962,0.027,1.445,3.655,0.061,1.587,-0.016,95.685,7.625,-5.599,0.135
105.215,0.028,1.436,3.678,0.051,1.587,-0.022,95.664,7.667,-5.732,0.144
105.467,0.029,1.428,3.704,0.054,1.587,-0.016,95.643,7.602,-5.888,0.149
105.720,0.030,1.424,3.729,0.047,1.585,-0.017,95.621,7.612,-5.811,0.163
105.972,0.032,1.425,3.753,0.048,1.584,-0.016,95.598,7.599,-5.660,0.173
106.225,0.034,1.430,3.776,0.053,1.582,-0.017,95.575,7.515,-5.502,0.179
106.477,0.036,1.436,3.797,0.061,1.583,-0.021,95.553,7.520,-5.379,0.185
106.730,0.038,1.441,3.813,0.060,1.583,-0.021,95.532,7.475,-5.330,0.190
106.982,0.040,1.442,3.830,0.063,1.582,-0.022,95.511,7.478,-5.393,0.195
107.235,0.039,1.440,3.845,0.060,1.582,-0.022,95.490,7.506,-5.486,0.202
107.487,0.037,1.436,3.860,0.052,1.581,-0.024,95.470,7.603,-5.566,0.216
107.740,0.035,1.431,3.875,0.060,1.580,-0.016,95.449,7.637,-5.673,0.222
107.993,0.032,1.425,3.889,0.060,1.580,-0.019,95.427,7.676,-5.817,0.226
108.245,0.032,1.414,3.898,0.066,1.580,-0.016,95.407,7.627,-6.076,0.216
108.497,0.033,1.402,3.904,0.046,1.581,-0.018,95.389,7.593,-6.358,0.209
108.749,0.035,1.393,3.911,0.043,1.582,-0.024,95.371,7.535,-6.416,0.201
109.002,0.038,1.391,3.915,0.047,1.581,-0.018,95.353,7.502,-6.280,0.211
109.254,0.039,1.394,3.917,0.048,1.581,-0.027,95.337,7.476,-6.053,0.219
109.507,0.041,1.401,3.915,0.058,1.581,-0.021,95.321,7.486,-5.906,0.218
109.759,0.041,1.408,3.907,0.054,1.583,-0.023,95.308,7.476,-5.805,0.199
110.011,0.042,1.412,3.894,0.061,1.585,-0.018,95.297,7.455,-5.792,0.172
110.264,0.042,1.418,3.873,0.052,1.587,-0.019,95.289,7.442,-5.715,0.143
110.517,0.042,1.423,3.848,0.053,1.589,-0.019,95.283,7.417,-5.660,0.122
110.769,0.042,1.430,3.817,0.056,1.590,-0.018,95.281,7.415,-5.526,0.110
111.022,0.044,1.435,3.781,0.070,1.592,-0.016,95.281,7.364,-5.478,0.091
111.274,0.047,1.436,3.737,0.067,1.591,-0.020,95.284,7.318,-5.561,0.095
111.526,0.048,1.431,3.686,0.058,1.593,-0.023,95.291,7.270,-5.774,0.092
111.779,0.048,1.421,3.632,0.065,1.592,-0.017,95.302,7.309,-6.020,0.091
112.031,0.046,1.413,3.575,0.050,1.589,-0.019,95.315,7.383,-6.113,0.106
112.284,0.043,1.405,3.516,0.055,1.588,-0.022,95.329,7.494,-6.214,0.125
112.537,0.040,1.400,3.453,0.049,1.588,-0.020,95.347,7.557,-6.238,0.135
112.790,0.037,1.395,3.383,0.061,1.588,-0.014,95.368,7.599,-6.285,0.132
113.042,0.034,1.391,3.311,0.059,1.587,-0.017,95.391,7.618,-6.348,0.137
113.294,0.033,1.385,3.236,0.057,1.587,-0.020,95.417,7.597,-6.507,0.139
113.546,0.032,1.380,3.158,0.048,1.590,-0.020,95.445,7.573,-6.578,0.132
113.799,0.030,1.378,3.078,0.051,1.588,-0.019,95.476,7.672,-6.482,0.124
114.051,0.030,1.381,2.992,0.049,1.591,-0.008,95.510,7.590,-6.338,0.116
114.304,0.034,1.387,2.905,0.058,1.589,-0.008,95.547,7.500,-6.204,0.117
114.556,0.043,1.393,2.817,0.060,1.588,-0.012,95.586,7.235,-6.084,0.126
114.809,0.052,1.398,2.727,0.065,1.587,-0.026,95.627,7.075,-6.066,0.139
115.061,0.059,1.398,2.637,0.064,1.587,-0.032,95.669,7.043,-6.114,0.146
115.314,0.057,1.393,2.545,0.069,1.585,-0.035,95.713,7.273,-6.272,0.148
115.566,0.047,1.385,2.456,0.064,1.586,-0.029,95.759,7.546,-6.554,0.153
115.819,0.032,1.373,2.365,0.063,1.583,-0.025,95.806,7.942,-6.746,0.159
116.071,0.015,1.363,2.270,0.049,1.581,-0.018,95.856,8.278,-6.895,0.186
116.323,0.000,1.354,2.172,0.054,1.581,-0.012,95.909,8.484,-6.986,0.198
116.576,-0.009,1.351,2.076,0.044,1.579,-0.008,95.964,8.520,-6.869,0.223
116.828,-0.010,1.353,1.984,0.054,1.577,-0.007,96.019,8.342,-6.774,0.245
117.081,-0.004,1.360,1.896,0.047,1.575,-0.014,96.075,8.158,-6.467,0.278
117.333,0.007,1.371,1.817,0.053,1.573,-0.012,96.129,7.776,-6.206,0.301
117.585,0.022,1.385,1.740,0.062,1.571,-0.019,96.186,7.547,-5.939,0.327
117.838,0.035,1.397,1.664,0.067,1.568,-0.030,96.239,7.345,-5.722,0.360
118.091,0.044,1.402,1.596,0.080,1.570,-0.023,96.292,7.283,-5.847,0.350
118.343,0.048,1.398,1.533,0.072,1.567,-0.029,96.344,7.361,-6.078,0.353
118.595,0.048,1.386,1.473,0.064,1.568,-0.028,96.395,7.453,-6.457,0.360
118.848,0.045,1.370,1.416,0.058,1.566,-0.025,96.445,7.603,-6.764,0.379
119.100,0.040,1.356,1.364,0.047,1.566,-0.018,96.495,7.680,-6.987,0.382
119.352,0.035,1.349,1.318,0.041,1.565,-0.020,96.544,7.792,-6.913,0.381
119.605,0.030,1.351,1.275,0.042,1.563,-0.025,96.591,7.916,-6.654,0.406
119.858,0.023,1.360,1.233,0.050,1.565,-0.026,96.638,8.024,-6.373,0.396
120.110,0.016,1.376,1.192,0.047,1.564,-0.024,96.685,8.144,-6.002,0.393
120.363,0.010,1.395,1.154,0.066,1.568,-0.010,96.732,8.189,-5.688,0.382
120.615,0.008,1.413,1.119,0.057,1.567,-0.011,96.778,8.170,-5.343,0.390
120.868,0.012,1.426,1.090,0.067,1.568,-0.014,96.823,7.953,-5.288,0.369
121.120,0.020,1.435,1.071,0.066,1.567,-0.021,96.866,7.732,-5.202,0.369
121.373,0.031,1.439,1