Time,X,Y,Z,Pitch,Yaw,Roll,errorHeight,errorRoll,errorPitch,errorYaw,HLeadOut,HIntegralOut,HeightError
0.251,0.140,0.487,0.432,0.029,0.011,-0.020,87.003,-0.011,-0.089,0.037,0.432,0.000,"-2.568
"
0.502,0.141,0.487,0.436,0.035,0.012,-0.012,87.002,0.015,-0.079,0.016,0.434,0.000,"-2.564
"
0.752,0.143,0.513,0.459,0.064,0.008,0.044,86.996,-1.002,-0.145,0.051,0.450,0.000,"-2.541
"
1.003,0.149,0.567,0.526,0.056,0.000,0.032,86.974,-3.510,-0.421,0.115,0.507,0.000,"-2.474
"
1.254,0.162,0.652,0.644,0.048,-0.008,-0.026,86.935,-5.804,-0.981,0.215,0.608,0.000,"-2.356
"
1.505,0.174,0.720,0.769,0.036,-0.011,-0.068,86.880,-7.907,-1.377,0.281,0.748,0.000,"-2.231
"
1.755,0.184,0.783,0.956,0.026,-0.011,-0.103,86.813,-7.570,-1.254,0.311,0.918,0.000,"-2.044
"
2.006,0.184,0.797,1.116,0.037,-0.018,-0.102,86.751,-5.581,-0.878,0.346,1.077,0.000,"-1.884
"
2.257,0.179,0.773,1.253,0.049,-0.020,-0.066,86.699,-3.273,-0.457,0.380,1.212,0.000,"-1.747
"
2.550,0.173,0.718,1.392,0.046,-0.017,-0.035,86.641,-1.739,-0.421,0.385,1.358,0.000,"-1.608
"
2.802,0.171,0.672,1.486,0.048,-0.019,-0.015,86.601,-1.312,-0.522,0.396,1.463,0.000,"-1.514
"
3.053,0.169,0.636,1.562,0.043,-0.022,-0.014,86.567,-0.499,-0.429,0.416,1.548,0.000,"-1.438
"
3.304,0.169,0.608,1.631,0.049,-0.021,-0.007,86.539,-0.586,-0.487,0.408,1.619,0.000,"-1.369
"
3.556,0.169,0.592,1.687,0.046,-0.024,-0.026,86.518,-0.928,-0.520,0.446,1.673,0.000,"-1.313
"
3.807,0.171,0.585,1.721,0.047,-0.025,-0.035,86.503,-1.230,-0.658,0.474,1.712,0.000,"-1.279
"
4.058,0.175,0.578,1.738,0.050,-0.025,-0.042,86.494,-1.131,-0.747,0.476,1.735,0.000,"-1.262
"
4.309,0.180,0.566,1.740,0.050,-0.026,-0.040,86.492,-0.800,-0.854,0.499,1.741,0.000,"-1.260
"
4.561,0.185,0.549,1.728,0.046,-0.031,-0.041,86.496,-0.529,-0.899,0.510,1.731,0.000,"-1.272
"
4.812,0.190,0.527,1.708,0.045,-0.031,-0.036,86.503,-0.008,-0.986,0.528,1.713,0.000,"-1.292
"
5.064,0.195,0.504,1.677,0.050,-0.033,-0.039,86.514,0.348,-1.043,0.533,1.684,0.000,"-1.323
"
5.315,0.200,0.479,1.632,0.041,-0.033,-0.035,86.530,0.800,-1.063,0.545,1.643,0.000,"-1.368
"
5.567,0.206,0.457,1.578,0.043,-0.031,-0.033,86.550,1.013,-1.166,0.540,1.592,0.000,"-1.422
"
5.818,0.210,0.437,1.516,0.042,-0.032,-0.032,86.574,1.286,-1.207,0.543,1.531,0.000,"-1.484
"
6.069,0.212,0.419,1.444,0.037,-0.028,-0.029,86.600,1.607,-1.218,0.524,1.463,0.000,"-1.556
"
6.321,0.213,0.402,1.362,0.039,-0.028,-0.030,86.632,1.812,-1.169,0.520,1.383,0.000,"-1.638
"
6.572,0.213,0.388,1.275,0.045,-0.026,-0.026,86.666,2.365,-1.115,0.496,1.296,0.000,"-1.725
"
6.823,0.212,0.375,1.168,0.047,-0.029,-0.027,86.703,2.531,-1.084,0.504,1.200,0.000,"-1.832
"
7.074,0.213,0.367,1.068,0.044,-0.028,-0.027,86.746,2.360,-1.106,0.506,1.090,0.000,"-1.932
"
7.325,0.213,0.361,0.962,0.046,-0.028,-0.032,86.788,2.402,-1.098,0.487,0.983,0.000,"-2.038
"
7.576,0.213,0.355,0.834,0.048,-0.023,-0.032,86.833,2.413,-1.147,0.456,0.868,0.000,"-2.166
"
7.828,0.214,0.349,0.725,0.048,-0.022,-0.032,86.879,2.475,-1.177,0.446,0.749,0.000,"-2.275
"
8.079,0.215,0.342,0.611,0.044,-0.021,-0.034,86.923,2.625,-1.206,0.420,0.637,0.000,"-2.389
"
8.330,0.221,0.337,0.525,0.063,-0.022,-0.036,86.958,2.637,-1.464,0.419,0.548,0.000,"-2.475
"
8.582,0.230,0.335,0.472,0.045,-0.020,-0.026,86.983,2.467,-1.666,0.442,0.484,0.000,"-2.528
"
8.834,0.244,0.332,0.452,0.053,-0.019,-0.030,86.994,2.551,-1.948,0.424,0.454,0.000,"-2.548
"
9.085,0.257,0.330,0.464,0.038,-0.020,-0.018,86.993,2.578,-2.117,0.398,0.458,0.000,"-2.536
"
9.336,0.269,0.331,0.510,0.043,-0.026,-0.027,86.979,2.478,-2.302,0.415,0.495,0.000,"-2.490
"
9.588,0.275,0.338,0.577,0.036,-0.024,-0.026,86.954,2.285,-2.308,0.447,0.557,0.000,"-2.423
"
9.839,0.276,0.348,0.653,0.030,-0.019,-0.026,86.923,1.962,-2.141,0.407,0.637,0.000,"-2.347
"
10.090,0.271,0.364,0.729,0.041,-0.019,-0.018,86.893,1.652,-1.958,0.400,0.713,0.000,"-2.271
"
10.342,0.256,0.384,0.801,0.028,-0.022,-0.020,86.865,1.177,-1.486,0.425,0.786,0.000,"-2.199
"
10.593,0.231,0.405,0.866,0.025,-0.027,-0.043,86.839,0.820,-0.756,0.450,0.853,0.000,"-2.134
"
10.844,0.196,0.421,0.916,0.034,-0.027,-0.056,86.818,0.588,0.139,0.490,0.906,0.000,"-2.084
"
11.096,0.155,0.423,0.950,0.051,-0.037,-0.070,86.803,0.894,0.757,0.543,0.943,0.000,"-2.050
"
11.347,0.120,0.409,0.962,0.066,-0.039,-0.067,86.797,1.884,1.968,0.591,0.961,0.000,"-2.038
"
11.598,0.097,0.383,0.958,0.080,-0.040,-0.047,86.797,3.098,2.095,0.626,0.960,0.000,"-2.042
"
11.849,0.091,0.354,0.941,0.079,-0.044,-0.038,86.803,3.925,1.397,0.663,0.945,0.000,"-2.059
"
12.100,0.103,0.325,0.904,0.061,-0.039,-0.011,86.815,3.907,0.224,0.642,0.913,0.000,"-2.096
"
12.351,0.122,0.312,0.868,0.049,-0.040,-0.020,86.829,3.451,-0.508,0.635,0.877,0.000,"-2.132
"
12.603,0.144,0.310,0.814,0.041,-0.039,-0.022,86.849,2.959,-0.969,0.622,0.826,0.000,"-2.186
"
12.897,0.167,0.315,0.736,0.039,-0.037,-0.038,86.877,2.492,-1.367,0.612,0.754,0.000,"-2.264
"
13.148,0.182,0.321,0.650,0.032,-0.034,-0.044,86.909,2.319,-1.424,0.578,0.672,0.000,"-2.350
"
13.399,0.194,0.325,0.576,0.043,-0.031,-0.033,86.940,2.461,-1.312,0.525,0.594,0.000,"-2.424
"
13.651,0.206,0.325,0.517,0.052,-0.024,-0.035,86.964,2.653,-1.318,0.489,0.532,0.000,"-2.483
"
13.902,0.219,0.325,0.476,0.050,-0.025,-0.025,86.983,2.543,-1.632,0.456,0.485,0.000,"-2.524
"
14.153,0.234,0.328,0.461,0.041,-0.019,-0.022,86.991,2.465,-1.832,0.435,0.463,0.000,"-2.539
"
14.404,0.247,0.333,0.474,0.040,-0.020,-0.028,86.989,2.280,-2.044,0.415,0.469,0.000,"-2.526
"
14.656,0.259,0.339,0.508,0.045,-0.022,-0.032,86.978,2.293,-2.170,0.426,0.497,0.000,"-2.492
"
14.907,0.264,0.342,0.549,0.025,-0.019,-0.025,86.962,2.197,-2.110,0.432,0.537,0.000,"-2.451
"
15.158,0.261,0.344,0.601,0.028,-0.021,-0.031,86.943,2.213,-1.847,0.404,0.586,0.000,"-2.399
"
15.410,0.251,0.344,0.649,0.032,-0.019,-0.027,86.924,2.266,-1.435,0.409,0.636,0.000,"-2.351
"
15.661,0.232,0.340,0.693,0.040,-0.022,-0.036,86.905,2.464,-0.612,0.400,0.682,0.000,"-2.307
"
15.913,0.210,0.337,0.731,0.053,-0.018,-0.026,86.889,2.458,-0.498,0.409,0.724,0.000,"-2.269
"
16.164,0.193,0.334,0.757,0.061,-0.019,-0.024,86.878,2.495,-0.357,0.400,0.752,0.000,"-2.243
"
16.415,0.185,0.333,0.772,0.063,-0.020,-0.020,86.871,2.447,-0.444,0.409,0.770,0.000,"-2.228
"
16.666,0.184,0.337,0.776,0.056,-0.020,-0.019,86.869,2.298,-0.672,0.391,0.776,0.000,"-2.224
"
16.918,0.189,0.345,0.770,0.055,-0.020,-0.022,86.870,2.027,-0.936,0.403,0.772,0.000,"-2.230
"
17.169,0.196,0.355,0.753,0.044,-0.019,-0.031,86.876,1.758,-1.111,0.402,0.758,0.000,"-2.247
"
17.421,0.202,0.365,0.727,0.047,-0.020,-0.037,86.885,1.643,-1.199,0.383,0.734,0.000,"-2.273
"
17.672,0.208,0.374,0.694,0.045,-0.018,-0.028,86.897,1.506,-1.296,0.393,0.703,0.000,"-2.306
"
17.924,0.216,0.383,0.659,0.047,-0.019,-0.035,86.911,1.396,-1.382,0.407,0.668,0.000,"-2.341
"
18.176,0.221,0.391,0.621,0.040,-0.016,-0.027,86.925,1.315,-1.428,0.387,0.631,0.000,"-2.379
"
18.427,0.226,0.396,0.579,0.041,-0.016,-0.038,86.942,1.358,-1.456,0.378,0.589,0.000,"-2.421
"
18.679,0.231,0.399,0.541,0.053,-0.022,-0.040,86.957,1.406,-1.564,0.395,0.550,0.000,"-2.459
"
18.930,0.236,0.399,0.506,0.046,-0.022,-0.037,86.971,1.434,-1.717,0.410,0.514,0.000,"-2.494
"
19.182,0.246,0.396,0.488,0.063,-0.022,-0.039,86.980,1.574,-2.006,0.435,0.492,0.000,"-2.512
"
19.433,0.259,0.397,0.486,0.052,-0.020,-0.017,86.982,1.506,-2.292,0.424,0.485,0.000,"-2.514
"
19.685,0.281,0.399,0.509,0.061,-0.026,-0.034,86.976,1.422,-2.719,0.442,0.502,0.000,"-2.491
"
19.937,0.304,0.402,0.548,0.036,-0.022,-0.042,86.962,1.304,-3.274,0.455,0.538,0.000,"-2.452
"
20.188,0.324,0.404,0.596,0.026,-0.025,-0.041,86.945,1.403,-3.392,0.452,0.582,0.000,"-2.404
"
20.440,0.333,0.405,0.643,0.025,-0.019,-0.020,86.926,1.307,-3.307,0.439,0.630,0.000,"-2.357
"
20.691,0.330,0.408,0.691,0.027,-0.016,-0.024,86.907,1.162,-2.918,0.389,0.677,0.000,"-2.309
"
20.943,0.321,0.417,0.734,0.041,-0.014,-0.020,86.890,0.919,-2.645,0.360,0.722,0.000,"-2.266
"
21.194,0.311,0.432,0.766,0.046,-0.015,-0.028,86.876,0.391,-2.344,0.337,0.759,0.000,"-2.234
"
21.446,0.300,0.447,0.786,0.040,-0.013,-0.035,86.866,0.008,-2.036,0.320,0.783,0.000,"-2.214
"
21.697,0.288,0.462,0.795,0.045,-0.013,-0.039,86.862,-0.521,-1.660,0.318,0.0,0.0,0.0
