Time,X,Y,Z,Pitch,Yaw,Roll,errorHeight,errorRoll,errorPitch,errorYaw,HLeadOut,HIntegralOut,HeightError
0.251,-0.175,0.739,0.429,0.026,-0.047,-0.017,501.418,-0.004,-0.017,0.002,0.429,0.000,"-3.571
"
0.550,-0.175,0.740,0.433,0.027,-0.046,-0.017,501.382,-0.013,-0.006,0.007,0.431,0.000,"-3.567
"
0.848,-0.187,0.771,0.536,0.051,-0.060,0.047,500.380,-0.640,0.208,0.116,0.481,0.000,"-3.464
"
1.146,-0.206,0.865,0.828,0.046,-0.067,0.029,495.921,-2.103,0.359,0.246,0.704,0.000,"-3.172
"
1.398,-0.221,0.955,1.089,0.041,-0.077,0.004,489.580,-4.900,0.597,0.362,1.021,0.000,"-2.911
"
1.649,-0.255,1.116,1.611,0.041,-0.086,-0.069,482.045,-7.550,0.857,0.441,1.433,0.000,"-2.389
"
1.901,-0.280,1.203,1.985,0.044,-0.087,-0.105,471.774,-9.368,1.371,0.514,1.911,0.000,"-2.015
"
2.152,-0.303,1.254,2.345,0.049,-0.091,-0.137,463.883,-11.046,2.328,0.548,2.306,0.000,"-1.655
"
2.403,-0.325,1.253,2.877,0.068,-0.101,-0.168,455.134,-9.550,2.456,0.622,2.743,0.000,"-1.123
"
2.654,-0.327,1.203,3.173,0.075,-0.096,-0.155,447.305,-5.648,2.074,0.636,3.135,0.000,"-0.827
"
2.905,-0.308,1.062,3.612,0.067,-0.097,-0.095,439.795,-1.612,1.687,0.620,3.510,0.000,"-0.388
"
3.157,-0.279,0.927,3.906,0.058,-0.094,-0.027,432.628,0.936,0.984,0.610,3.869,0.000,"-0.094
"
3.408,-0.235,0.772,4.218,0.050,-0.096,0.028,427.156,1.777,0.503,0.620,4.142,0.000,"0.218
"
3.660,-0.207,0.702,4.367,0.044,-0.101,0.033,423.194,1.215,0.404,0.656,4.340,0.000,"0.367
"
3.911,-0.169,0.646,4.506,0.035,-0.103,0.034,420.587,2.022,-0.171,0.697,4.471,0.000,"0.506
"
4.163,-0.150,0.644,4.534,0.029,-0.104,0.038,419.406,1.657,-0.422,0.714,4.530,0.000,"0.534
"
4.415,-0.135,0.687,4.478,0.029,-0.107,0.028,419.827,1.054,-0.562,0.726,4.509,0.000,"0.478
"
4.667,-0.135,0.747,4.369,0.025,-0.107,0.012,422.039,-0.488,-0.723,0.748,4.398,0.000,"0.369
"
4.919,-0.142,0.819,4.214,0.026,-0.106,-0.012,425.298,-1.643,-0.633,0.750,4.235,0.000,"0.214
"
5.170,-0.164,0.933,3.899,0.032,-0.109,-0.050,430.385,-5.247,-0.297,0.760,3.981,0.000,"-0.101
"
5.421,-0.182,0.993,3.660,0.033,-0.109,-0.102,435.974,-7.058,0.154,0.771,3.701,0.000,"-0.340
"
5.673,-0.208,1.044,3.222,0.049,-0.108,-0.139,442.865,-7.311,0.698,0.764,3.357,0.000,"-0.778
"
5.924,-0.216,1.043,3.020,0.051,-0.108,-0.145,449.391,-5.065,1.174,0.761,3.030,0.000,"-0.980
"
6.175,-0.218,0.962,2.364,0.086,-0.110,-0.106,459.028,-3.046,0.564,0.785,2.549,0.000,"-1.636
"
6.426,-0.200,0.872,1.977,0.064,-0.106,-0.077,468.661,-0.214,0.081,0.767,2.067,0.000,"-2.023
"
6.722,-0.154,0.732,1.475,0.057,-0.101,-0.020,478.739,6.061,-1.630,0.708,1.563,0.000,"-2.525
"
6.973,-0.118,0.642,1.104,0.026,-0.095,0.065,486.443,3.661,-1.288,0.650,1.178,0.000,"-2.896
"
7.224,-0.095,0.594,0.845,0.033,-0.097,0.026,492.445,3.493,-1.424,0.647,0.878,0.000,"-3.155
"
7.476,-0.079,0.574,0.565,0.042,-0.097,-0.004,498.285,3.732,-1.784,0.639,0.586,0.000,"-3.435
"
7.727,-0.075,0.580,0.431,0.033,-0.096,-0.007,501.272,2.706,-1.421,0.616,0.436,0.000,"-3.569
"
7.978,-0.074,0.579,0.512,0.041,-0.092,-0.020,499.910,2.745,-1.385,0.595,0.505,0.000,"-3.488
"
8.230,-0.084,0.598,0.820,0.036,-0.092,-0.009,495.214,2.076,-1.112,0.573,0.739,0.000,"-3.180
"
8.481,-0.088,0.604,0.901,0.029,-0.092,-0.014,492.049,2.092,-1.098,0.578,0.898,0.000,"-3.099
"
8.732,-0.132,0.654,1.450,0.033,-0.094,-0.034,483.864,0.242,0.225,0.574,1.307,0.000,"-2.550
"
8.983,-0.148,0.666,1.622,0.046,-0.095,-0.050,477.948,0.743,0.079,0.598,1.603,0.000,"-2.378
"
9.234,-0.190,0.688,2.089,0.055,-0.097,-0.059,472.535,-0.323,1.536,0.628,1.873,0.000,"-1.911
"
9.486,-0.208,0.683,2.416,0.068,-0.100,-0.078,462.957,0.594,1.803,0.635,2.352,0.000,"-1.584
"
9.785,-0.213,0.653,2.857,0.065,-0.089,-0.051,454.397,2.176,0.933,0.607,2.780,0.000,"-1.143
"
10.037,-0.206,0.625,3.099,0.055,-0.089,-0.038,448.799,2.510,0.572,0.552,3.060,0.000,"-0.901
"
10.288,-0.185,0.582,3.423,0.050,-0.086,-0.020,442.987,2.712,0.286,0.536,3.351,0.000,"-0.577
"
10.540,-0.169,0.560,3.603,0.046,-0.088,-0.020,438.430,2.985,0.064,0.520,3.579,0.000,"-0.397
"
10.791,-0.145,0.544,3.797,0.043,-0.090,-0.013,435.204,3.180,-0.310,0.540,3.740,0.000,"-0.203
"
11.043,-0.130,0.545,3.883,0.032,-0.092,-0.014,432.627,3.147,-0.556,0.557,3.869,0.000,"-0.117
"
11.294,-0.117,0.561,3.936,0.032,-0.092,-0.020,431.487,2.882,-0.665,0.567,3.926,0.000,"-0.064
"
11.546,-0.112,0.582,3.920,0.034,-0.087,-0.021,431.473,2.327,-0.883,0.545,3.926,0.000,"-0.080
"
11.797,-0.114,0.599,3.883,0.023,-0.089,-0.027,432.290,2.100,-0.775,0.534,3.886,0.000,"-0.117
"
12.098,-0.122,0.644,3.713,0.037,-0.087,-0.029,435.504,0.963,-0.657,0.524,3.725,0.000,"-0.287
"
12.349,-0.139,0.678,3.483,0.029,-0.083,-0.042,439.449,0.496,-0.316,0.505,3.528,0.000,"-0.517
"
12.600,-0.151,0.694,3.304,0.040,-0.082,-0.050,443.558,0.535,-0.254,0.477,3.322,0.000,"-0.696
"
12.852,-0.172,0.704,2.960,0.046,-0.082,-0.061,449.058,0.375,0.304,0.460,3.047,0.000,"-1.040
"
13.103,-0.180,0.700,2.777,0.043,-0.081,-0.074,454.023,0.694,0.585,0.453,2.799,0.000,"-1.223
"
13.355,-0.186,0.662,2.300,0.070,-0.080,-0.064,461.259,1.952,0.579,0.463,2.437,0.000,"-1.700
"
13.606,-0.181,0.629,2.046,0.059,-0.077,-0.046,467.392,2.926,0.205,0.431,2.130,0.000,"-1.954
"
13.857,-0.161,0.570,1.668,0.053,-0.076,-0.034,472.333,3.527,-0.168,0.406,1.883,0.000,"-2.332
"
14.109,-0.144,0.533,1.444,0.050,-0.075,-0.026,480.469,4.614,-0.673,0.387,1.477,0.000,"-2.556
"
14.360,-0.123,0.484,1.112,0.032,-0.077,-0.017,483.794,5.826,-1.120,0.386,1.310,0.000,"-2.888
"
14.612,-0.112,0.457,0.851,0.029,-0.076,0.005,491.575,6.502,-1.306,0.387,0.921,0.000,"-3.149
"
14.863,-0.113,0.450,0.704,0.028,-0.080,0.006,495.481,5.059,-0.654,0.419,0.726,0.000,"-3.296
"
15.115,-0.130,0.459,0.546,0.047,-0.076,-0.023,498.579,4.365,-0.042,0.425,0.571,0.000,"-3.454
"
15.366,-0.143,0.472,0.532,0.062,-0.083,-0.041,499.345,3.801,0.257,0.454,0.533,0.000,"-3.468
"
15.617,-0.153,0.486,0.597,0.060,-0.081,-0.041,498.374,3.438,0.233,0.457,0.581,0.000,"-3.403
"
15.869,-0.152,0.497,0.763,0.060,-0.081,-0.047,495.525,3.293,-0.052,0.447,0.724,0.000,"-3.237
"
16.120,-0.145,0.497,1.000,0.045,-0.083,-0.050,491.476,3.728,-0.242,0.467,0.926,0.000,"-3.000
"
16.372,-0.140,0.491,1.171,0.047,-0.085,-0.050,487.094,4.226,-0.438,0.480,1.145,0.000,"-2.829
"
16.623,-0.133,0.471,1.540,0.040,-0.089,-0.036,480.590,4.696,-0.443,0.511,1.470,0.000,"-2.460
"
16.874,-0.131,0.455,1.830,0.039,-0.090,-0.023,474.311,5.270,-0.345,0.556,1.784,0.000,"-2.170
"
17.125,-0.134,0.446,2.088,0.039,-0.100,-0.026,468.883,5.193,-0.035,0.641,2.056,0.000,"-1.912
"
17.376,-0.144,0.440,2.414,0.040,-0.103,-0.026,462.678,4.871,0.361,0.689,2.366,0.000,"-1.586
"
17.627,-0.155,0.439,2.629,0.042,-0.106,-0.032,457.865,4.745,0.421,0.730,2.607,0.000,"-1.371
"
17.879,-0.175,0.445,2.948,0.054,-0.108,-0.034,452.364,4.355,1.200,0.768,2.882,0.000,"-1.052
"
18.130,-0.182,0.451,3.118,0.075,-0.108,-0.032,448.091,4.355,0.828,0.762,3.095,0.000,"-0.882
"
18.381,-0.186,0.459,3.316,0.055,-0.109,-0.042,444.861,4.199,0.742,0.758,3.257,0.000,"-0.684
"
18.632,-0.180,0.464,3.408,0.061,-0.105,-0.038,442.172,4.222,0.488,0.734,3.391,0.000,"-0.592
"
18.884,-0.168,0.470,3.471,0.063,-0.102,-0.030,440.684,4.177,0.221,0.705,3.466,0.000,"-0.529
"
19.135,-0.145,0.477,3.491,0.050,-0.104,-0.040,440.182,4.027,-0.509,0.692,3.491,0.000,"-0.509
"
19.387,-0.121,0.481,3.438,0.036,-0.101,-0.043,440.617,4.032,-1.025,0.662,3.469,0.000,"-0.562
"
19.638,-0.109,0.480,3.364,0.036,-0.099,-0.042,442.305,4.167,-0.892,0.661,3.385,0.000,"-0.636
"
19.889,-0.100,0.475,3.258,0.036,-0.099,-0.042,444.565,4.267,-0.877,0.667,3.272,0.000,"-0.742
"
20.141,-0.095,0.467,3.113,0.036,-0.101,-0.045,447.377,4.477,-0.841,0.687,3.131,0.000,"-0.887
"
20.392,-0.094,0.452,2.911,0.045,-0.105,-0.041,451.194,5.232,-0.803,0.699,2.940,0.000,"-1.089
"
20.644,-0.092,0.436,2.650,0.057,-0.101,-0.026,455.562,5.084,-0.826,0.701,2.722,0.000,"-1.350
"
20.895,-0.088,0.427,2.430,0.049,-0.108,-0.030,459.952,5.371,-0.953,0.718,2.502,0.000,"-1.570
"
21.147,-0.081,0.423,2.119,0.039,-0.111,-0.032,465.650,5.312,-1.133,0.790,2.218,0.000,"-1.881
"
21.398,-0.078,0.423,1.895,0.040,-0.111,-0.033,471.338,5.148,-1.101,0.804,1.933,0.000,"-2.105
"
21.650,-0.074,0.423,1.558,0.042,-0.118,-0.047,475.782,5.115,-1.111,0.847,1.711,0.000,"-2.442
"
21.902,-0.072,0.420,1.365,0.047,-0.119,-0.046,481.938,5.184,-1.051,0.883,1.403,0.000,"-2.635
"
22.153,-0.068,0.416,1.166,0.052,-0.124,-0.044,486.318,5.317,-1.108,0.922,1.184,0.000,"-2.834
"
22.404,-0.061,0.407,0.943,0.048,-0.120,-0.035,490.432,5.540,-1.268,0.905,0.978,0.000,"-3.057
"
22.656,-0.054,0.399,0.827,0.055,-0.120,-0.036,493.233,5.701,-1.424,0.893,0.838,0.000,"-3.173
"
22.907,-0.042,0.391,0.747,0.050,-0.116,-0.032,494.648,5.994,-1.816,0.886,0.768,0.000,"-3.253
"
23.159,-0.031,0.387,0.730,0.044,-0.114,-0.028,495.381,6.040,-2.113,0.837,0.731,0.000,"-3.270
"
23.410,-0.014,0.391,0.789,0.043,-0.107,-0.001,494.637,5.741,-2.333,0.780,0.768,0.000,"-3.211
"
23.661,-0.009,0.409,0.883,0.040,-0.108,-0.003,492.879,4.888,-2.374,0.755,0.856,0.000,"-3.117
"
23.913,-0.004,0.450,1.051,0.051,-0.109,-0.031,490.893,4.367,-2.332,0.735,0.955,0.000,"-2.949
"
24.164,-0.003,0.489,1.217,0.045,-0.102,-0.044,486.808,2.017,-2.595,0.726,1.160,0.000,"-2.783
"
24.415,-0.001,0.524,1.427,0.043,-0.100,-0.077,483.076,3.143,-2.445,0.707,1.346,0.000,"-2.573
"
24.667,-0.001,0.540,1.628,0.037,-0.095,-0.072,478.506,2.812,-2.510,0.643,1.575,0.000,"-2.372
"
24.919,-0.002,0.540,1.720,0.035,-0.092,-0.073,475.673,3.244,-2.382,0.586,1.716,0.000,"-2.280
"
25.170,-0.015,0.510,2.059,0.034,-0.083,-0.055,470.532,4.186,-1.978,0.526,1.973,0.000,"-1.941
"
25.422,-0.018,0.500,2.123,0.039,-0.083,-0.053,467.603,4.399,-1.923,0.479,2.120,0.000,"-1.877
"
25.673,-0.052,0.426,2.471,0.038,-0.078,-0.026,462.298,5.714,-1.211,0.450,2.385,0.000,"-1.529
"
25.924,-0.069,0.394,2.600,0.049,-0.077,-0.019,458.423,6.177,-0.876,0.413,2.579,0.000,"-1.400
"
26.176,-0.100,0.349,2.800,0.056,-0.077,-0.009,455.269,7.379,0.189,0.417,2.737,0.000,"-1.200
"
26.427,-0.114,0.337,2.895,0.073,-0.076,0.014,452.517,7.121,0.322,0.402,2.874,0.000,"-1.105
"
26.679,-0.123,0.343,2.999,0.073,-0.080,0.008,450.688,6.278,0.083,0.408,2.966,0.000,"-1.001
"
26.930,-0.118,0.366,3.039,0.074,-0.081,-0.004,449.397,5.420,-0.555,0.437,3.030,0.000,"-0.961
"
27.182,-0.106,0.398,3.052,0.066,-0.079,-0.012,448.994,4.241,-1.176,0.434,3.050,0.000,"-0.948
"
27.433,-0.079,0.453,3.029,0.048,-0.081,-0.040,449.244,3.145,-1.983,0.437,3.038,0.000,"-0.971
"
27.684,-0.064,0.482,2.994,0.042,-0.081,-0.046,450.067,3.225,-2.015,0.449,2.997,0.000,"-1.006
"
27.936,-0.043,0.518,2.898,0.027,-0.081,-0.055,451.693,2.119,-2.873,0.449,2.915,0.000,"-1.102
"
28.187,-0.033,0.529,2.785,0.027,-0.081,-0.064,454.056,2.878,-2.482,0.459,2.797,0.000,"-1.215
"
28.439,-0.033,0.527,2.666,0.021,-0.086,-0.058,456.530,3.627,-1.896,0.494,2.674,0.000,"-1.334
"
28.690,-0.042,0.510,2.514,0.035,-0.085,-0.043,458.727,4.241,-1.491,0.500,2.564,0.000,"-1.486
"
28.941,-0.063,0.471,2.244,0.061,-0.083,-0.029,463.482,4.904,-1.006,0.510,2.326,0.000,"-1.756
"
29.193,-0.065,0.466,2.212,0.064,-0.085,-0.031,465.719,5.063,-1.041,0.497,2.214,0.000,"-1.788
"
29.444,-0.072,0.416,1.851,0.057,-0.085,-0.043,470.054,6.368,-0.690,0.480,1.997,0.000,"-2.149
"
29.696,-0.067,0.400,1.709,0.066,-0.080,-0.017,475.241,6.236,-1.326,0.450,1.738,0.000,"-2.291
"
29.947,-0.053,0.380,1.513,0.057,-0.085,-0.022,479.279,6.336,-1.698,0.474,1.536,0.000,"-2.487
"
30.199,-0.036,0.371,1.307,0.045,-0.088,-0.020,482.721,6.416,-2.211,0.483,1.364,0.000,"-2.693
"
30.450,-0.026,0.367,1.167,0.034,-0.092,-0.029,486.106,6.304,-2.418,0.551,1.195,0.000,"-2.833
"
30.702,-0.025,0.364,1.012,0.028,-0.096,-0.035,487.931,6.258,-2.056,0.564,1.103,0.000,"-2.988
"
30.953,-0.033,0.357,0.944,0.033,-0.099,-0.044,490.769,6.379,-1.461,0.638,0.962,0.000,"-3.056
"
31.205,-0.049,0.341,0.892,0.048,-0.102,-0.041,491.972,7.106,-0.492,0.680,0.901,0.000,"-3.108
"
31.456,-0.063,0.320,0.892,0.056,-0.109,-0.038,492.184,7.423,-0.391,0.737,0.891,0.000,"-3.108
"
31.708,-0.073,0.290,0.948,0.062,-0.113,-0.031,491.629,7.934,-0.384,0.772,0.919,0.000,"-3.052
"
31.959,-0.072,0.274,0.999,0.069,-0.113,-0.028,490.143,8.029,-0.651,0.810,0.993,0.000,"-3.001
"
32.210,-0.061,0.250,1.121,0.072,-0.116,-0.027,487.777,8.313,-0.953,0.844,1.111,0.000,"-2.879
"
32.462,-0.035,0.233,1.269,0.078,-0.114,-0.015,484.931,8.491,-1.662,0.835,1.253,0.000,"-2.731
"
32.713,-0.008,0.226,1.397,0.056,-0.117,-0.022,482.199,8.594,-2.249,0.857,1.390,0.000,"-2.603
"
32.965,0.042,0.229,1.638,0.036,-0.109,-0.007,477.881,8.439,-3.525,0.814,1.606,0.000,"-2.362
"
33.216,0.064,0.240,1.797,0.014,-0.108,-0.009,474.533,7.838,-4.049,0.777,1.773,0.000,"-2.203
"
33.467,0.075,0.271,2.069,0.016,-0.106,-0.021,470.192,7.367,-3.521,0.804,1.990,0.000,"-1.931
"
33.719,0.068,0.291,2.204,0.022,-0.108,-0.024,466.351,6.063,-2.709,0.757,2.182,0.000,"-1.796
"
33.970,0.034,0.326,2.453,0.037,-0.111,-0.057,462.739,4.555,-1.034,0.767,2.363,0.000,"-1.547
"
34.222,0.017,0.336,2.557,0.061,-0.111,-0.064,459.292,6.209,-1.888,0.799,2.535,0.000,"-1.443
"
34.473,-0.018,0.344,2.739,0.049,-0.109,-0.043,456.244,5.902,-0.364,0.777,2.688,0.000,"-1.261
"
34.773,-0.033,0.342,2.838,0.072,-0.109,-0.043,453.503,6.395,-1.017,0.766,2.825,0.000,"-1.162
"
35.024,-0.040,0.341,2.905,0.072,-0.105,-0.024,452.053,6.405,-1.293,0.732,2.897,0.000,"-1.095
"
35.275,-0.034,0.345,2.940,0.072,-0.106,-0.020,451.261,6.300,-1.676,0.735,2.937,0.000,"-1.060
"
35.527,-0.010,0.361,2.930,0.056,-0.105,-0.027,451.221,6.098,-2.105,0.766,2.939,0.000,"-1.070
"
35.778,0.002,0.370,2.909,0.056,-0.104,-0.026,451.777,5.855,-2.469,0.729,2.911,0.000,"-1.091
"
36.030,0.036,0.399,2.806,0.041,-0.106,-0.031,453.524,5.016,-3.744,0.746,2.824,0.000,"-1.194
"
36.281,0.053,0.415,2.714,0.014,-0.109,-0.046,455.441,4.902,-3.732,0.757,2.728,0.000,"-1.286
"
36.533,0.064,0.432,2.521,0.019,-0.115,-0.055,458.386,4.815,-3.619,0.820,2.581,0.000,"-1.479
"
36.784,0.062,0.431,2.442,0.023,-0.117,-0.062,461.016,5.186,-3.145,0.854,2.449,0.000,"-1.558
"
37.035,0.054,0.420,2.235,0.045,-0.125,-0.062,463.690,5.527,-2.706,0.895,2.316,0.000,"-1.765
"
37.287,0.046,0.396,2.020,0.054,-0.119,-0.040,468.678,6.404,-2.403,0.887,2.066,0.000,"-1.980
"
37.538,0.046,0.382,1.910,0.064,-0.121,-0.033,471.532,6.619,-2.666,0.910,1.923,0.000,"-2.090
"
37.790,0.058,0.356,1.686,0.054,-0.117,-0.026,475.336,7.175,-3.122,0.860,1.733,0.000,"-2.314
"
38.041,0.073,0.347,1.570,0.054,-0.122,-0.020,478.235,7.120,-3.835,0.887,1.588,0.000,"-2.430
"
38.292,0.098,0.350,1.421,0.038,-0.116,-0.011,480.795,6.707,-4.497,0.847,1.460,0.000,"-2.579
"
38.544,0.107,0.360,1.350,0.024,-0.115,-0.010,482.572,6.047,-4.369,0.841,1.371,0.000,"-2.650
"
38.795,0.111,0.394,1.231,0.022,-0.113,-0.029,484.668,5.428,-4.111,0.814,1.267,0.000,"-2.769
"
39.047,0.104,0.417,1.180,0.036,-0.113,-0.042,486.166,4.548,-3.673,0.829,1.192,0.000,"-2.820
"
39.298,0.090,0.442,1.133,0.053,-0.110,-0.060,487.027,4.632,-3.504,0.826,1.149,0.000,"-2.867
"
39.550,0.086,0.449,1.123,0.055,-0.110,-0.055,487.489,4.610,-3.446,0.793,1.126,0.000,"-2.877
"
39.801,0.087,0.450,1.128,0.054,-0.107,-0.056,487.459,4.870,-3.609,0.754,1.127,0.000,"-2.872
"
40.052,0.094,0.444,1.150,0.051,-0.105,-0.053,487.022,5.430,-4.066,0.732,1.149,0.000,"-2.850
"
40.304,0.102,0.430,1.209,0.025,-0.098,-0.028,485.964,5.711,-4.108,0.671,1.202,0.000,"-2.791
"
40.555,0.095,0.418,1.277,0.011,-0.102,-0.037,484.897,5.842,-3.676,0.665,1.255,0.000,"-2.723
"
40.807,0.077,0.414,1.344,0.029,-0.102,-0.028,483.271,5.595,-3.042,0.682,1.336,0.000,"-2.656
"
41.059,0.039,0.412,1.463,0.055,-0.109,-0.042,481.352,5.425,-1.019,0.731,1.432,0.000,"-2.537
"
41.310,0.026,0.414,1.531,0.083,-0.112,-0.047,479.609,5.393,-2.215,0.783,1.520,0.000,"-2.469
"
41.602,0.023,0.422,1.669,0.067,-0.113,-0.044,477.002,5.088,-2.503,0.801,1.650,0.000,"-2.331
"
41.853,0.041,0.427,1.782,0.057,-0.117,-0.040,474.964,5.054,-3.572,0.834,1.752,0.000,"-2.218
"
42.145,0.065,0.430,1.901,0.034,-0.120,-0.045,472.213,5.274,-4.119,0.893,1.889,0.000,"-2.099
"
42.397,0.085,0.424,2.039,0.023,-0.118,-0.050,469.728,5.519,-4.032,0.883,2.014,0.000,"-1.961
"
42.648,0.090,0.420,2.095,0.026,-0.121,-0.040,468.157,5.660,-3.721,0.903,2.092,0.000,"-1.905
"
42.900,0.084,0.409,2.215,0.028,-0.125,-0.037,466.033,6.164,-3.101,0.908,2.198,0.000,"-1.785
"
43.151,0.070,0.407,2.290,0.039,-0.118,-0.024,464.557,5.743,-2.729,0.911,2.272,0.000,"-1.710
"
43.403,0.043,0.418,2.387,0.056,-0.115,-0.023,463.039,5.126,-2.156,0.859,2.348,0.000,"-1.613
"
43.654,0.027,0.431,2.441,0.062,-0.112,-0.040,461.413,4.760,-2.120,0.817,2.429,0.000,"-1.559
"
43.905,0.015,0.451,2.484,0.064,-0.107,-0.046,460.496,4.144,-2.102,0.773,2.475,0.000,"-1.516
"
44.157,0.014,0.461,2.495,0.068,-0.105,-0.048,460.129,4.152,-2.419,0.738,2.494,0.000,"-1.505
"
44.409,0.029,0.476,2.475,0.061,-0.101,-0.057,460.240,3.964,-2.994,0.700,2.488,0.000,"-1.525
"
44.660,0.044,0.475,2.441,0.044,-0.098,-0.062,460.981,4.378,-3.410,0.666,2.451,0.000,"-1.559
"
44.911,0.063,0.469,2.391,0.042,-0.097,-0.049,462.072,4.955,-4.283,0.646,2.396,0.000,"-1.609
"
45.163,0.086,0.453,2.296,0.030,-0.093,-0.031,463.746,5.297,-4.234,0.636,2.313,0.000,"-1.704
"
45.414,0.100,0.439,2.196,0.028,-0.098,-0.037,465.761,5.874,-4.468,0.617,2.212,0.000,"-1.804
"
45.666,0.104,0.425,2.086,0.025,-0.097,-0.040,467.784,6.279,-4.112,0.659,2.111,0.000,"-1.914
"
45.917,0.097,0.411,1.946,0.031,-0.099,-0.034,470.766,5.979,-3.659,0.650,1.962,0.000,"-2.054
"
46.169,0.079,0.400,1.799,0.035,-0.101,-0.027,473.194,6.148,-2.656,0.669,1.840,0.000,"-2.201
"
46.420,0.062,0.397,1.678,0.055,-0.108,-0.034,475.979,5.843,-2.626,0.730,1.701,0.000,"-2.322
"
46.671,0.044,0.395,1.549,0.053,-0.108,-0.041,477.874,5.748,-2.183,0.751,1.606,0.000,"-2.451
"
46.923,0.036,0.393,1.440,0.070,-0.110,-0.047,480.202,5.759,-1.818,0.768,1.490,0.000,"-2.560
"
47.175,0.039,0.389,1.350,0.072,-0.110,-0.039,482.721,6.132,-2.683,0.772,1.364,0.000,"-2.650
"
47.426,0.060,0.384,1.261,0.055,-0.112,-0.020,484.383,6.194,-3.785,0.806,1.281,0.000,"-2.739
"
47.677,0.077,0.384,1.218,0.030,-0.110,-0.028,485.528,6.051,-3.667,0.783,1.224,0.000,"-2.782
"
47.929,0.090,0.390,1.180,0.021,-0.110,-0.035,486.276,5.867,-3.686,0.768,1.186,0.000,"-2.820
"
48.180,0.088,0.394,1.169,0.027,-0.106,-0.041,486.596,5.646,-3.466,0.746,1.170,0.000,"-2.831
"
48.432,0.072,0.399,1.186,0.051,-0.099,-0.042,486.476,5.477,-2.987,0.696,1.176,0.000,"-2.814
"
48.683,0.063,0.398,1.224,0.057,-0.097,-0.045,485.712,5.624,-2.792,0.651,1.214,0.000,"-2.776
"
48.935,0.058,0.392,1.319,0.058,-0.096,-0.039,484.857,5.866,-2.782,0.651,1.257,0.000,"-2.681
"
49.186,0.060,0.385,1.393,0.058,-0.097,-0.046,482.627,6.092,-3.074,0.638,1.369,0.000,"-2.607
"
49.437,0.066,0.374,1.542,0.047,-0.093,-0.034,480.474,6.487,-3.397,0.647,1.476,0.000,"-2.458
"
49.689,0.071,0.367,1.670,0.043,-0.089,-0.019,477.378,6.448,-3.509,0.550,1.631,0.000,"-2.330
"
49.940,0.072,0.365,1.769,0.035,-0.089,-0.024,474.924,6.334,-3.391,0.564,1.754,0.000,"-2.231
"
50.192,0.066,0.367,1.948,0.033,-0.090,-0.023,472.092,6.091,-3.100,0.535,1.895,0.000,"-2.052
"
50.443,0.055,0.371,2.059,0.038,-0.086,-0.026,469.289,5.751,-2.468,0.517,2.036,0.000,"-1.941
"
50.695,0.035,0.380,2.208,0.051,-0.089,-0.037,467.182,5.560,-2.180,0.533,2.141,0.000,"-1.792
"
50.946,0.035,0.380,2.208,0.051,-0.089,-0.037,465.855,5.530,-2.093,0.540,2.207,0.000,"-1.792
"
51.198,0.013,0.383,2.357,0.058,-0.091,-0.048,462.961,5.759,-1.913,0.554,2.352,0.000,"-1.643
"
51.449,0.008,0.376,2.440,0.069,-0.091,-0.042,461.330,6.081,-2.102,0.566,2.433,0.000,"-1.560
"
51.701,0.019,0.362,2.517,0.057,-0.093,-0.026,460.033,6.784,-2.807,0.584,2.498,0.000,"-1.483
"
51.952,0.022,0.359,2.526,0.054,-0.089,-0.022,459.488,6.594,-3.045,0.553,2.526,0.000,"-1.474
"
52.204,0.041,0.358,2.544,0.048,-0.089,-0.017,459.137,6.449,-3.606,0.543,2.543,0.000,"-1.456
"
52.455,0.052,0.364,2.532,0.036,-0.088,-0.026,459.270,5.925,-3.674,0.531,2.536,0.000,"-1.468
"
52.706,0.054,0.371,2.493,0.025,-0.088,-0.038,459.956,5.618,-3.509,0.530,2.502,0.000,"-1.507
"
52.958,0.042,0.375,2.413,0.029,-0.089,-0.047,461.260,5.800,-2.688,0.536,2.437,0.000,"-1.587
"
53.257,0.023,0.371,2.315,0.047,-0.091,-0.045,463.297,6.095,-1.898,0.542,2.335,0.000,"-1.685
"
53.509,0.005,0.363,2.215,0.053,-0.092,-0.038,465.391,6.359,-1.447,0.575,2.230,0.000,"-1.785
"
53.760,-0.013,0.352,2.068,0.063,-0.096,-0.037,468.006,6.664,-1.191,0.592,2.100,0.000,"-1.932
"
54.012,-0.017,0.345,1.949,0.075,-0.096,-0.032,470.279,6.840,-1.466,0.615,1.986,0.000,"-2.051
"
54.263,-0.008,0.337,1.752,0.069,-0.097,-0.025,473.410,6.843,-1.930,0.610,1.829,0.000,"-2.248
"
54.514,0.009,0.338,1.607,0.066,-0.099,-0.027,477.198,6.688,-3.032,0.638,1.640,0.000,"-2.393
"
54.766,0.031,0.343,1.470,0.047,-0.101,-0.034,480.172,6.417,-3.558,0.664,1.491,0.000,"-2.530
"
55.018,0.062,0.355,1.278,0.036,-0.098,-0.032,483.515,6.252,-3.642,0.652,1.324,0.000,"-2.722
"
55.269,0.072,0.360,1.190,0.032,-0.100,-0.035,486.026,6.196,-3.564,0.659,1.199,0.000,"-2.810
"
55.521,0.082,0.368,1.018,0.027,-0.096,-0.038,488.969,6.054,-3.715,0.642,1.052,0.000,"-2.982
"
55.773,0.078,0.369,0.947,0.029,-0.096,-0.041,490.753,6.070,-3.273,0.621,0.962,0.000,"-3.053
"
56.025,0.060,0.362,0.869,0.041,-0.095,-0.043,492.248,6.359,-2.405,0.593,0.888,0.000,"-3.131
"
56.277,0.042,0.350,0.841,0.045,-0.093,-0.045,493.074,6.679,-2.150,0.581,0.846,0.000,"-3.159
"
56.528,0.022,0.330,0.848,0.065,-0.086,-0.031,493.188,6.956,-2.142,0.552,0.841,0.000,"-3.152
"
56.780,0.014,0.318,0.878,0.067,-0.086,-0.024,492.574,7.478,-1.835,0.523,0.871,0.000,"-3.122
"
57.032,0.015,0.310,0.966,0.072,-0.080,-0.009,491.140,7.555,-2.356,0.472,0.943,0.000,"-3.034
"
57.283,0.017,0.310,0.994,0.071,-0.080,-0.007,490.138,7.043,-2.538,0.441,0.993,0.000,"-3.006
"
57.535,0.042,0.331,1.163,0.067,-0.073,-0.002,486.870,6.412,-3.220,0.380,1.157,0.000,"-2.837
"
57.787,0.085,0.392,1.395,0.042,-0.070,-0.025,483.014,3.741,-5.332,0.328,1.349,0.000,"-2.605
"
58.039,0.102,0.428,1.517,0.006,-0.066,-0.057,480.007,4.279,-4.595,0.294,1.500,0.000,"-2.483
"
58.291,0.113,0.476,1.704,0.022,-0.062,-0.053,477.404,3.228,-4.698,0.253,1.630,0.000,"-2.296
"
58.542,0.107,0.488,1.785,0.013,-0.066,-0.067,474.659,3.240,-4.050,0.262,1.767,0.000,"-2.215
"
58.794,0.069,0.489,1.981,0.029,-0.061,-0.071,471.379,3.869,-3.197,0.264,1.931,0.000,"-2.019
"
59.046,0.034,0.468,2.083,0.041,-0.063,-0.062,468.827,5.262,-1.159,0.252,2.059,0.000,"-1.917
"
59.297,-0.010,0.425,2.208,0.090,-0.063,-0.031,467.195,5.337,-1.661,0.232,2.140,0.000,"-1.792
"
59.549,-0.030,0.395,2.270,0.083,-0.063,-0.028,464.946,6.247,-1.214,0.248,2.253,0.000,"-1.730
"
59.801,-0.036,0.370,2.323,0.078,-0.062,-0.014,463.688,6.844,-1.428,0.242,2.316,0.000,"-1.677
"
60.053,-0.025,0.350,2.375,0.072,-0.064,-0.001,462.733,7.193,-2.370,0.248,2.363,0.000,"-1.625
"
60.304,-0.013,0.348,2.393,0.060,-0.065,-0.004,462.187,6.643,-3.018,0.261,2.391,0.000,"-1.607
"
60.556,0.015,0.369,2.396,0.038,-0.073,-0.014,462.036,5.416,-3.752,0.308,2.398,0.000,"-1.604
"
60.808,0.026,0.389,2.377,0.029,-0.072,-0.021,462.403,5.146,-3.249,0.347,2.380,0.000,"-1.623
"
61.060,0.032,0.425,2.316,0.034,-0.077,-0.038,463.265,4.099,-3.170,0.381,2.337,0.000,"-1.684
"
61.312,0.029,0.438,2.267,0.030,-0.078,-0.055,464.494,4.423,-2.819,0.409,2.275,0.000,"-1.733
"
61.564,0.013,0.449,2.137,0.041,-0.079,-0.049,466.426,4.290,-2.241,0.417,2.179,0.000,"-1.863
"
61.815,-0.003,0.442,2.009,0.051,-0.080,-0.047,468.562,4.721,-2.274,0.421,2.072,0.000,"-1.991
"
62.067,-0.014,0.431,1.904,0.052,-0.079,-0.040,471.620,5.804,-1.315,0.439,1.919,0.000,"-2.096
"
62.319,-0.021,0.413,1.729,0.066,-0.082,-0.028,474.694,6.113,-1.544,0.447,1.765,0.000,"-2.271
"
62.571,-0.021,0.401,1.572,0.051,-0.087,-0.022,477.362,6.278,-1.768,0.452,1.632,0.000,"-2.428
"
62.822,-0.019,0.394,1.403,0.048,-0.090,-0.034,480.939,5.993,-2.073,0.502,1.453,0.000,"-2.597
"
63.074,-0.016,0.388,1.262,0.051,-0.087,-0.037,484.075,6.142,-2.146,0.520,1.296,0.000,"-2.738
"
63.326,-0.013,0.379,1.134,0.058,-0.090,-0.045,486.695,6.481,-2.165,0.543,1.165,0.000,"-2.866
"
63.577,-0.006,0.365,1.039,0.060,-0.089,-0.044,488.847,6.862,-2.424,0.532,1.058,0.000,"-2.961
"
63.829,0.004,0.345,0.971,0.052,-0.085,-0.036,490.260,7.756,-2.851,0.518,0.987,0.000,"-3.029
"
64.081,0.017,0.324,0.937,0.054,-0.080,-0.022,491.113,7.603,-2.892,0.467,0.944,0.000,"-3.063
"
64.333,0.037,0.299,0.943,0.052,-0.077,-0.031,491.349,7.053,-2.695,0.442,0.933,0.000,"-3.057
"
64.584,0.051,0.285,0.974,0.058,-0.077,-0.028,490.707,7.753,-3.289,0.413,0.965,0.000,"-3.026
"
64.836,0.067,0.272,1.029,0.053,-0.073,-0.014,489.546,8.357,-4.123,0.374,1.023,0.000,"-2.971
"
65.088,0.081,0.265,1.095,0.045,-0.071,-0.012,488.148,8.054,-3.976,0.344,1.093,0.000,"-2.905
"
65.340,0.094,0.262,1.222,0.029,-0.071,-0.010,485.724,7.878,-4.116,0.337,1.214,0.000,"-2.778
"
65.591,0.091,0.272,1.368,0.024,-0.067,-0.010,482.923,7.402,-3.718,0.314,1.354,0.000,"-2.632
"
65.843,0.072,0.292,1.529,0.033,-0.069,-0.018,479.755,6.861,-3.095,0.306,1.512,0.000,"-2.471
"
66.095,0.038,0.323,1.710,0.048,-0.066,-0.025,477.024,6.312,-2.518,0.323,1.649,0.000,"-2.290
"
66.345,0.018,0.343,1.813,0.057,-0.070,-0.028,474.104,5.875,-2.114,0.333,1.795,0.000,"-2.187
"
66.597,-0.008,0.373,1.980,0.065,-0.074,-0.044,471.490,5.341,-1.783,0.345,1.925,0.000,"-2.020
"
66.849,-0.016,0.388,2.069,0.066,-0.073,-0.046,468.989,4.906,-1.694,0.357,2.051,0.000,"-1.931
"
67.101,-0.017,0.401,2.178,0.065,-0.075,-0.056,466.880,4.610,-2.044,0.356,2.156,0.000,"-1.822
"
67.353,-0.007,0.404,2.276,0.057,-0.073,-0.055,464.888,5.253,-2.500,0.361,2.256,0.000,"-1.724
"
67.605,-0.001,0.402,2.307,0.054,-0.074,-0.048,463.886,5.489,-2.453,0.364,2.306,0.000,"-1.693
"
67.856,0.014,0.395,2.363,0.045,-0.074,-0.038,462.790,6.106,-3.361,0.366,2.360,0.000,"-1.637
"
68.108,0.033,0.382,2.411,0.032,-0.076,-0.030,461.844,6.401,-3.509,0.383,2.408,0.000,"-1.589
"
68.360,0.038,0.376,2.415,0.036,-0.079,-0.018,461.682,6.146,-3.048,0.420,2.416,0.000,"-1.585
"
68.611,0.034,0.378,2.403,0.046,-0.082,-0.024,461.876,5.918,-2.792,0.447,2.406,0.000,"-1.597
"
68.863,0.025,0.390,2.363,0.046,-0.081,-0.032,462.324,5.624,-2.606,0.466,2.384,0.000,"-1.637
"
69.115,0.020,0.398,2.335,0.052,-0.082,-0.038,463.154,5.231,-2.419,0.450,2.342,0.000,"-1.665
"
69.366,0.013,0.410,2.271,0.056,-0.076,-0.041,464.041,4.876,-2.270,0.441,2.298,0.000,"-1.729
"
69.618,0.010,0.417,2.196,0.046,-0.074,-0.043,465.559,4.765,-2.371,0.390,2.222,0.000,"-1.804
"
69.870,0.010,0.417,2.117,0.041,-0.072,-0.058,467.505,5.132,-2.509,0.351,2.125,0.000,"-1.883
"
70.122,0.010,0.410,2.022,0.048,-0.067,-0.049,469.326,5.470,-2.559,0.300,2.034,0.000,"-1.978
"
70.374,0.008,0.396,1.932,0.037,-0.063,-0.045,471.182,5.747,-2.497,0.248,1.941,0.000,"-2.068
"
70.625,0.008,0.378,1.831,0.050,-0.060,-0.034,473.143,6.160,-2.474,0.228,1.843,0.000,"-2.169
"
70.877,0.006,0.362,1.724,0.054,-0.055,-0.014,475.177,6.782,-2.367,0.182,1.741,0.000,"-2.276
"
71.129,0.008,0.355,1.602,0.052,-0.055,-0.003,477.110,6.633,-2.556,0.153,1.644,0.000,"-2.398
"
71.381,0.013,0.361,1.524,0.053,-0.057,-0.008,479.003,5.999,-2.753,0.162,1.550,0.000,"-2.476
"
71.632,0.019,0.380,1.423,0.036,-0.058,-0.029,480.905,5.616,-2.812,0.176,1.455,0.000,"-2.577
"
71.884,0.021,0.398,1.359,0.035,-0.059,-0.038,482.488,5.004,-2.874,0.170,1.376,0.000,"-2.641
"
72.136,0.016,0.411,1.310,0.028,-0.059,-0.047,483.703,4.952,-2.610,0.195,1.315,0.000,"-2.690
"
72.388,-0.004,0.419,1.250,0.029,-0.060,-0.050,484.806,5.044,-2.233,0.198,1.260,0.000,"-2.750
"
72.639,-0.027,0.415,1.225,0.035,-0.061,-0.050,485.432,5.309,-1.253,0.216,1.228,0.000,"-2.775
"
72.891,-0.059,0.396,1.211,0.056,-0.059,-0.046,485.747,6.185,-0.003,0.213,1.213,0.000,"-2.789
"
73.143,-0.081,0.373,1.217,0.077,-0.063,-0.039,485.686,6.444,-0.345,0.231,1.216,0.000,"-2.783
"
73.395,-0.092,0.348,1.235,0.075,-0.061,-0.030,485.340,7.215,-0.352,0.209,1.233,0.000,"-2.765
"
73.646,-0.090,0.331,1.260,0.071,-0.064,-0.019,484.828,8.113,-0.776,0.243,1.259,0.000,"-2.740
"
73.898,-0.064,0.309,1.351,0.063,-0.067,-0.000,483.579,7.422,-1.445,0.244,1.321,0.000,"-2.649
"
74.150,-0.049,0.308,1.398,0.055,-0.066,-0.013,482.467,7.024,-1.951,0.280,1.377,0.000,"-2.602
"
74.401,-0.019,0.319,1.493,0.054,-0.068,-0.020,480.624,6.664,-2.598,0.301,1.469,0.000,"-2.507
"
74.653,0.005,0.335,1.586,0.035,-0.069,-0.027,478.689,6.036,-3.353,0.302,1.566,0.000,"-2.414
"
74.905,0.018,0.348,1.657,0.028,-0.072,-0.037,476.995,6.134,-2.871,0.331,1.650,0.000,"-2.343
"
75.157,0.027,0.365,1.749,0.042,-0.071,-0.028,475.231,5.822,-2.930,0.343,1.738,0.000,"-2.251
"
75.408,0.029,0.377,1.817,0.044,-0.079,-0.040,473.764,5.696,-2.834,0.401,1.812,0.000,"-2.183
"
75.660,0.040,0.345,1.924,0.060,-0.084,-0.141,472.104,6.817,-3.004,0.474,1.895,0.000,"-2.076
"
75.912,0.051,0.312,1.959,0.067,-0.081,-0.081,470.916,7.915,-3.231,0.455,1.954,0.000,"-2.041
"
76.164,0.095,0.238,2.021,0.077,-0.070,0.049,469.844,11.366,-5.108,0.402,2.008,0.000,"-1.979
"
76.416,0.134,0.222,2.041,0.073,-0.069,0.025,469.242,9.735,-5.754,0.323,2.038,0.000,"-1.959
"
76.668,0.197,0.240,2.044,0.054,-0.066,-0.003,469.092,8.072,-7.178,0.287,2.045,0.000,"-1.956
"
76.919,0.247,0.275,2.021,0.002,-0.057,-0.023,469.455,6.408,-8.830,0.231,2.027,0.000,"-1.979
"
77.171,0.281,0.312,1.960,0.021,-0.057,-0.018,470.658,6.073,-7.926,0.187,1.967,0.000,"-2.040
"
77.422,0.305,0.370,1.782,0.022,-0.054,-0.019,473.380,5.417,-7.650,0.189,1.831,0.000,"-2.218
"
77.673,0.310,0.413,1.631,0.028,-0.058,-0.021,476.983,5.041,-7.487,0.173,1.651,0.000,"-2.369
"
77.925,0.300,0.484,1.377,0.029,-0.054,-0.027,480.541,3.307,-7.159,0.149,1.473,0.000,"-2.623
"
