Time,X,Y,Z,Pitch,Yaw,Roll,errorHeight,errorRoll,errorPitch,errorYaw,HLeadOut,HIntegralOut,HeightError
0.252,-0.349,0.859,0.425,0.016,-0.090,-0.014,83.838,0.003,-0.016,0.021,0.425,19.968,"-2.575
"
0.504,-0.344,0.858,0.426,0.027,-0.088,-0.018,83.867,0.052,-0.065,0.077,0.425,21.458,"-2.574
"
0.755,-0.352,0.870,0.433,0.020,-0.086,0.018,83.896,-0.204,0.053,0.053,0.427,22.947,"-2.567
"
1.007,-0.365,0.922,0.462,0.042,-0.091,0.058,83.923,-0.362,0.039,0.053,0.436,24.434,"-2.538
"
1.259,-0.382,0.997,0.503,0.045,-0.105,0.011,83.947,-6.073,0.781,0.188,0.464,25.909,"-2.497
"
1.510,-0.400,1.099,0.562,0.057,-0.117,-0.065,83.968,-8.594,0.632,0.331,0.507,27.365,"-2.438
"
1.762,-0.407,1.168,0.611,0.055,-0.127,-0.127,83.988,-9.880,0.232,0.451,0.556,28.793,"-2.389
"
2.014,-0.404,1.203,0.639,0.038,-0.129,-0.124,84.007,-7.272,-0.205,0.513,0.602,30.193,"-2.361
"
2.266,-0.395,1.190,0.636,0.038,-0.125,-0.084,84.030,-4.858,-0.254,0.511,0.625,31.572,"-2.364
"
2.517,-0.384,1.147,0.613,0.036,-0.132,-0.047,84.057,-2.961,-0.256,0.519,0.625,32.945,"-2.387
"
2.769,-0.375,1.098,0.580,0.036,-0.132,-0.013,84.089,-2.293,-0.170,0.562,0.606,34.416,"-2.420
"
3.021,-0.368,1.062,0.545,0.051,-0.134,0.001,84.121,-1.998,-0.192,0.596,0.577,35.809,"-2.455
"
3.273,-0.358,1.042,0.507,0.051,-0.141,-0.002,84.154,-2.121,-0.551,0.646,0.543,37.220,"-2.493
"
3.525,-0.345,1.042,0.474,0.038,-0.143,-0.001,84.188,-2.781,-1.081,0.697,0.509,38.652,"-2.526
"
3.777,-0.330,1.057,0.441,0.040,-0.148,-0.018,84.223,-3.340,-1.233,0.724,0.474,40.103,"-2.559
"
4.030,-0.327,1.081,0.435,0.042,-0.140,-0.005,84.256,-4.795,-1.099,0.684,0.449,41.573,"-2.565
"
4.281,-0.331,1.097,0.456,0.039,-0.139,-0.053,84.285,-4.918,-0.776,0.652,0.448,43.050,"-2.544
"
4.533,-0.333,1.110,0.489,0.046,-0.146,-0.075,84.311,-4.573,-0.789,0.703,0.464,44.523,"-2.511
"
4.784,-0.334,1.109,0.513,0.035,-0.144,-0.048,84.335,-3.780,-0.739,0.693,0.488,45.983,"-2.487
"
5.036,-0.333,1.101,0.527,0.037,-0.143,-0.032,84.360,-2.953,-0.670,0.696,0.510,47.430,"-2.473
"
5.287,-0.332,1.085,0.545,0.048,-0.145,-0.037,84.385,-2.674,-0.722,0.713,0.528,48.865,"-2.455
"
5.538,-0.329,1.080,0.551,0.059,-0.147,-0.037,84.410,-2.594,-1.136,0.743,0.542,50.292,"-2.449
"
5.790,-0.317,1.072,0.549,0.031,-0.143,-0.020,84.436,-2.797,-1.474,0.713,0.549,51.712,"-2.451
"
6.041,-0.309,1.073,0.543,0.037,-0.148,-0.027,84.465,-3.155,-1.817,0.725,0.547,53.130,"-2.457
"
6.293,-0.302,1.076,0.525,0.035,-0.146,-0.043,84.494,-3.294,-1.643,0.733,0.537,54.552,"-2.475
"
6.544,-0.302,1.075,0.510,0.030,-0.143,-0.034,84.524,-3.294,-1.221,0.707,0.524,55.980,"-2.490
"
6.796,-0.303,1.067,0.486,0.042,-0.142,-0.042,84.556,-2.883,-1.124,0.681,0.505,57.418,"-2.514
"
7.047,-0.302,1.056,0.470,0.050,-0.141,-0.035,84.587,-2.324,-1.059,0.697,0.488,58.867,"-2.530
"
7.299,-0.299,1.048,0.462,0.052,-0.137,-0.026,84.618,-2.065,-1.340,0.652,0.473,60.325,"-2.538
"
7.550,-0.286,1.035,0.454,0.050,-0.135,-0.015,84.648,-1.996,-1.846,0.633,0.463,61.790,"-2.546
"
7.801,-0.268,1.032,0.455,0.053,-0.131,-0.023,84.678,-2.157,-2.476,0.563,0.457,63.260,"-2.545
"
8.053,-0.256,1.034,0.461,0.033,-0.130,-0.027,84.708,-2.499,-2.813,0.552,0.458,64.829,"-2.539
"
8.305,-0.238,1.034,0.479,0.034,-0.123,-0.030,84.736,-2.478,-2.733,0.511,0.467,66.298,"-2.521
"
8.556,-0.226,1.032,0.498,0.045,-0.126,-0.036,84.762,-2.284,-2.909,0.493,0.480,67.760,"-2.502
"
8.807,-0.224,1.028,0.505,0.033,-0.127,-0.042,84.788,-1.880,-2.512,0.516,0.495,69.213,"-2.495
"
9.059,-0.222,1.015,0.526,0.037,-0.121,-0.024,84.813,-1.510,-2.271,0.469,0.511,70.658,"-2.474
"
9.310,-0.229,1.003,0.536,0.025,-0.126,-0.024,84.839,-1.281,-1.455,0.502,0.525,72.094,"-2.464
"
9.562,-0.241,0.995,0.540,0.042,-0.133,-0.018,84.865,-1.520,-1.106,0.565,0.534,73.523,"-2.460
"
9.814,-0.262,0.990,0.534,0.051,-0.134,-0.031,84.893,-1.840,-0.637,0.599,0.535,74.949,"-2.466
"
10.065,-0.271,0.990,0.523,0.071,-0.133,-0.033,84.921,-1.879,-0.803,0.594,0.532,76.376,"-2.477
"
10.317,-0.269,0.992,0.503,0.064,-0.139,-0.050,84.951,-2.018,-1.552,0.601,0.520,77.807,"-2.497
"
10.568,-0.256,0.993,0.493,0.063,-0.136,-0.042,84.982,-1.855,-2.417,0.636,0.505,79.246,"-2.507
"
10.820,-0.234,0.988,0.485,0.032,-0.132,-0.036,85.012,-1.277,-3.342,0.615,0.494,80.693,"-2.515
"
11.071,-0.214,0.982,0.483,0.023,-0.133,-0.022,85.041,-1.160,-3.301,0.574,0.488,82.145,"-2.517
"
11.323,-0.208,0.977,0.486,0.020,-0.131,-0.015,85.070,-1.197,-2.844,0.561,0.486,83.600,"-2.514
"
11.574,-0.209,0.973,0.491,0.026,-0.132,-0.027,85.098,-1.182,-2.406,0.570,0.488,85.054,"-2.509
"
11.826,-0.222,0.971,0.510,0.038,-0.133,-0.022,85.125,-1.422,-1.765,0.573,0.495,86.506,"-2.490
"
12.077,-0.233,0.972,0.525,0.057,-0.135,-0.040,85.151,-1.642,-1.413,0.581,0.509,87.951,"-2.475
"
12.329,-0.239,0.976,0.540,0.059,-0.134,-0.034,85.176,-1.934,-1.519,0.594,0.525,89.388,"-2.460
"
12.580,-0.238,0.985,0.557,0.055,-0.132,-0.038,85.202,-2.036,-1.946,0.567,0.540,90.816,"-2.443
"
12.832,-0.232,0.991,0.566,0.043,-0.130,-0.042,85.227,-2.126,-2.459,0.569,0.554,92.235,"-2.434
"
13.083,-0.222,0.997,0.565,0.039,-0.127,-0.039,85.253,-2.112,-2.746,0.528,0.561,93.648,"-2.435
"
13.335,-0.218,0.996,0.562,0.031,-0.129,-0.050,85.281,-1.878,-2.726,0.537,0.563,95.058,"-2.438
"
13.586,-0.220,0.993,0.556,0.028,-0.125,-0.036,85.311,-1.599,-2.164,0.506,0.560,96.563,"-2.444
"
13.838,-0.226,0.985,0.541,0.041,-0.130,-0.033,85.339,-1.374,-1.754,0.525,0.552,97.977,"-2.459
"
14.089,-0.232,0.981,0.522,0.058,-0.130,-0.031,85.369,-1.405,-1.685,0.538,0.539,99.396,"-2.478
"
14.341,-0.234,0.981,0.505,0.046,-0.128,-0.016,85.400,-1.741,-1.964,0.532,0.524,100.824,"-2.495
"
14.592,-0.228,0.987,0.491,0.054,-0.131,-0.019,85.431,-2.070,-2.592,0.533,0.507,102.262,"-2.509
"
14.844,-0.224,0.993,0.480,0.038,-0.132,-0.036,85.462,-2.184,-2.575,0.576,0.494,103.708,"-2.520
"
15.095,-0.218,0.999,0.478,0.035,-0.135,-0.048,85.492,-2.194,-2.712,0.591,0.484,105.162,"-2.522
"
15.347,-0.215,1.003,0.486,0.039,-0.132,-0.029,85.520,-2.161,-2.582,0.572,0.483,106.618,"-2.514
"
15.599,-0.217,1.002,0.500,0.039,-0.130,-0.026,85.548,-1.998,-2.261,0.568,0.489,108.073,"-2.500
"
15.850,-0.217,0.999,0.519,0.055,-0.131,-0.037,85.574,-1.746,-2.264,0.562,0.502,109.523,"-2.481
"
16.101,-0.218,0.997,0.542,0.037,-0.132,-0.026,85.599,-1.742,-2.249,0.579,0.520,110.963,"-2.458
"
16.353,-0.217,0.996,0.562,0.042,-0.135,-0.030,85.623,-1.829,-2.418,0.579,0.540,112.393,"-2.438
"
16.604,-0.216,0.996,0.570,0.051,-0.135,-0.031,85.648,-1.866,-2.483,0.605,0.558,113.811,"-2.430
"
16.855,-0.217,0.998,0.587,0.041,-0.138,-0.035,85.673,-1.923,-2.349,0.631,0.573,115.219,"-2.413
"
17.107,-0.219,1.001,0.587,0.041,-0.140,-0.026,85.698,-2.061,-2.289,0.661,0.582,116.620,"-2.413
"
17.359,-0.221,0.999,0.577,0.039,-0.144,-0.044,85.726,-1.849,-2.201,0.686,0.582,118.019,"-2.423
"
17.610,-0.226,0.994,0.561,0.039,-0.143,-0.039,85.754,-1.664,-1.958,0.707,0.575,119.419,"-2.439
"
17.862,-0.231,0.988,0.548,0.042,-0.148,-0.041,85.784,-1.369,-1.780,0.732,0.562,120.826,"-2.452
"
18.113,-0.239,0.978,0.532,0.046,-0.154,-0.038,85.814,-1.087,-1.424,0.772,0.549,122.241,"-2.468
"
18.365,-0.245,0.972,0.519,0.054,-0.148,-0.026,85.844,-1.136,-1.487,0.794,0.534,123.663,"-2.481
"
18.616,-0.246,0.969,0.513,0.051,-0.150,-0.031,85.874,-1.351,-1.749,0.801,0.523,125.094,"-2.487
"
18.911,-0.240,0.969,0.511,0.051,-0.151,-0.035,85.909,-1.354,-2.201,0.793,0.515,126.817,"-2.489
"
19.163,-0.231,0.972,0.513,0.044,-0.150,-0.027,85.938,-1.592,-2.471,0.778,0.513,128.255,"-2.487
"
19.415,-0.221,0.977,0.514,0.045,-0.147,-0.031,85.968,-1.766,-2.876,0.748,0.513,129.790,"-2.486
"
19.666,-0.218,0.980,0.515,0.031,-0.148,-0.031,85.996,-1.854,-2.696,0.757,0.514,131.229,"-2.485
"
19.918,-0.218,0.985,0.520,0.042,-0.146,-0.039,86.023,-1.800,-2.366,0.735,0.516,132.667,"-2.480
"
20.169,-0.224,0.987,0.524,0.037,-0.150,-0.026,86.051,-1.883,-1.901,0.753,0.520,134.103,"-2.476
"
20.421,-0.230,0.992,0.531,0.059,-0.145,-0.032,86.078,-2.011,-2.001,0.730,0.526,135.536,"-2.469
"
20.672,-0.236,0.998,0.538,0.049,-0.147,-0.037,86.105,-2.248,-1.903,0.743,0.531,136.966,"-2.462
"
20.924,-0.235,1.003,0.546,0.044,-0.150,-0.043,86.131,-2.189,-2.158,0.762,0.539,138.392,"-2.454
"
21.176,-0.233,1.004,0.551,0.038,-0.149,-0.038,86.158,-2.101,-2.258,0.774,0.545,139.815,"-2.449
"
21.427,-0.229,1.001,0.558,0.052,-0.151,-0.043,86.185,-1.663,-2.463,0.791,0.550,141.234,"-2.442
"
21.679,-0.226,0.996,0.565,0.040,-0.149,-0.032,86.211,-1.498,-2.447,0.778,0.557,142.649,"-2.435
"
21.930,-0.220,0.992,0.573,0.048,-0.150,-0.026,86.237,-1.406,-2.687,0.774,0.565,144.060,"-2.427
"
22.182,-0.218,0.990,0.577,0.031,-0.152,-0.031,86.264,-1.537,-2.538,0.797,0.572,145.467,"-2.423
"
22.434,-0.214,0.989,0.584,0.038,-0.151,-0.036,86.290,-1.618,-2.556,0.797,0.577,146.871,"-2.416
"
22.685,-0.211,0.989,0.587,0.046,-0.149,-0.033,86.317,-1.681,-2.596,0.788,0.582,148.271,"-2.413
"
22.937,-0.210,0.988,0.588,0.043,-0.150,-0.033,86.343,-1.644,-2.582,0.775,0.585,149.669,"-2.412
"
23.188,-0.211,0.989,0.591,0.031,-0.150,-0.025,86.370,-1.718,-2.411,0.785,0.588,151.065,"-2.409
"
23.440,-0.211,0.990,0.596,0.048,-0.150,-0.030,86.397,-1.756,-2.414,0.785,0.592,152.460,"-2.404
"
23.692,-0.219,0.992,0.599,0.025,-0.150,-0.028,86.423,-1.953,-1.968,0.787,0.596,153.852,"-2.401
"
23.943,-0.230,0.995,0.600,0.036,-0.153,-0.026,86.450,-2.114,-1.564,0.800,0.598,155.242,"-2.400
"
24.195,-0.246,0.998,0.590,0.042,-0.153,-0.034,86.477,-2.177,-1.108,0.825,0.597,156.632,"-2.410
"
24.447,-0.257,0.999,0.579,0.057,-0.159,-0.042,86.506,-2.225,-0.997,0.857,0.589,158.024,"-2.421
"
24.698,-0.265,0.999,0.555,0.061,-0.157,-0.039,86.535,-2.121,-1.223,0.861,0.576,159.423,"-2.445
"
24.950,-0.266,0.999,0.553,0.059,-0.156,-0.037,86.567,-2.028,-1.514,0.854,0.561,160.924,"-2.447
"
25.201,-0.249,1.004,0.514,0.063,-0.153,-0.029,86.599,-2.107,-2.631,0.817,0.538,162.341,"-2.486
"
25.453,-0.233,1.009,0.498,0.028,-0.153,-0.035,86.630,-2.184,-3.124,0.815,0.518,163.772,"-2.502
"
25.705,-0.217,1.013,0.492,0.033,-0.153,-0.032,86.661,-2.159,-3.389,0.810,0.503,165.212,"-2.508
"
25.956,-0.208,1.014,0.493,0.033,-0.152,-0.035,86.691,-2.107,-3.095,0.801,0.496,166.659,"-2.507
"
26.208,-0.205,1.015,0.500,0.043,-0.155,-0.035,86.719,-2.139,-3.021,0.827,0.497,168.108,"-2.500
"
26.460,-0.205,1.015,0.523,0.033,-0.155,-0.030,86.745,-2.013,-2.648,0.839,0.510,169.553,"-2.477
"
26.711,-0.210,1.016,0.554,0.038,-0.159,-0.037,86.770,-2.109,-2.364,0.868,0.529,170.989,"-2.446
"
26.963,-0.214,1.018,0.575,0.052,-0.157,-0.028,86.793,-2.204,-2.240,0.875,0.551,172.412,"-2.425
"
27.215,-0.222,1.017,0.591,0.039,-0.159,-0.033,86.818,-2.236,-2.039,0.876,0.569,173.823,"-2.409
"
27.466,-0.226,1.018,0.601,0.052,-0.159,-0.039,86.842,-2.204,-2.084,0.882,0.586,175.225,"-2.399
"
27.718,-0.226,1.018,0.606,0.051,-0.158,-0.033,86.868,-2.210,-2.256,0.878,0.598,176.618,"-2.394
"
27.970,-0.221,1.017,0.603,0.051,-0.156,-0.045,86.894,-2.010,-2.600,0.863,0.602,178.006,"-2.397
"
28.221,-0.214,1.015,0.595,0.040,-0.153,-0.033,86.921,-1.970,-2.828,0.829,0.601,179.394,"-2.405
"
28.473,-0.206,1.014,0.587,0.045,-0.154,-0.037,86.949,-1.833,-3.089,0.826,0.594,180.784,"-2.413
"
28.724,-0.197,1.012,0.574,0.035,-0.149,-0.026,86.978,-1.843,-3.142,0.793,0.585,182.178,"-2.426
"
28.976,-0.193,1.011,0.569,0.034,-0.150,-0.028,87.007,-1.935,-3.055,0.777,0.577,183.578,"-2.431
"
29.227,-0.192,1.010,0.574,0.047,-0.151,-0.037,87.035,-1.905,-2.950,0.790,0.573,184.981,"-2.426
"
29.479,-0.194,1.009,0.577,0.037,-0.152,-0.034,87.062,-1.929,-2.616,0.793,0.575,186.385,"-2.423
"
29.731,-0.194,1.009,0.579,0.050,-0.153,-0.030,87.089,-1.939,-2.791,0.808,0.577,187.788,"-2.421
"
29.982,-0.193,1.012,0.576,0.048,-0.154,-0.025,87.117,-2.190,-2.893,0.821,0.577,189.190,"-2.424
"
30.234,-0.189,1.018,0.564,0.040,-0.155,-0.037,87.145,-2.436,-3.062,0.831,0.573,190.592,"-2.436
"
30.485,-0.184,1.025,0.559,0.047,-0.154,-0.026,87.173,-2.529,-3.265,0.850,0.566,191.999,"-2.441
"
30.737,-0.182,1.029,0.555,0.030,-0.161,-0.041,87.204,-2.493,-3.203,0.871,0.560,193.503,"-2.445
"
30.989,-0.182,1.030,0.554,0.030,-0.162,-0.043,87.232,-2.450,-3.198,0.910,0.556,194.916,"-2.446
"
31.240,-0.183,1.034,0.558,0.028,-0.161,-0.032,87.260,-2.491,-3.019,0.915,0.557,196.330,"-2.442
"
31.492,-0.190,1.034,0.560,0.038,-0.160,-0.036,87.287,-2.399,-2.576,0.895,0.558,197.743,"-2.440
"
31.744,-0.197,1.033,0.563,0.049,-0.162,-0.039,87.314,-2.313,-2.374,0.923,0.560,199.155,"-2.437
"
31.995,-0.199,1.030,0.567,0.058,-0.163,-0.039,87.341,-2.141,-2.583,0.933,0.563,200.566,"-2.433
"
32.247,-0.194,1.026,0.567,0.052,-0.160,-0.036,87.368,-2.010,-3.088,0.929,0.566,201.975,"-2.433
"
32.499,-0.184,1.024,0.563,0.039,-0.162,-0.032,87.396,-1.935,-3.613,0.918,0.566,203.383,"-2.437
"
32.750,-0.176,1.022,0.560,0.028,-0.159,-0.031,87.424,-1.849,-3.666,0.889,0.563,204.793,"-2.440
"
33.002,-0.173,1.020,0.559,0.028,-0.155,-0.033,87.452,-1.932,-3.272,0.864,0.560,206.204,"-2.441
"
33.253,-0.175,1.019,0.564,0.044,-0.156,-0.034,87.479,-1.959,-2.981,0.854,0.561,207.615,"-2.436
"
33.505,-0.178,1.016,0.572,0.050,-0.155,-0.036,87.506,-1.932,-2.930,0.844,0.566,209.025,"-2.428
"
33.756,-0.181,1.013,0.582,0.039,-0.151,-0.031,87.532,-1.845,-2.828,0.808,0.573,210.432,"-2.418
"
34.008,-0.183,1.008,0.596,0.044,-0.151,-0.033,87.558,-1.743,-2.848,0.797,0.584,211.833,"-2.404
"
34.261,-0.184,1.005,0.608,0.049,-0.149,-0.025,87.583,-1.806,-2.895,0.776,0.596,213.227,"-2.392
"
34.512,-0.181,1.004,0.612,0.052,-0.148,-0.030,87.608,-1.786,-3.054,0.761,0.605,214.615,"-2.388
"
34.764,-0.176,1.004,0.612,0.039,-0.148,-0.030,87.635,-1.900,-3.239,0.773,0.610,215.999,"-2.388
"
35.015,-0.170,1.005,0.604,0.035,-0.153,-0.040,87.662,-2.034,-3.493,0.774,0.610,217.382,"-2.396
"
35.267,-0.170,1.002,0.594,0.031,-0.150,-0.046,87.690,-1.685,-3.215,0.788,0.603,218.767,"-2.406
"
35.519,-0.171,0.999,0.586,0.039,-0.147,-0.031,87.719,-1.428,-3.029,0.761,0.594,220.156,"-2.414
"
35.770,-0.169,0.991,0.569,0.053,-0.152,-0.037,87.748,-1.205,-3.094,0.781,0.583,221.551,"-2.431
"
36.022,-0.163,0.986,0.555,0.051,-0.150,-0.029,87.777,-1.168,-3.512,0.789,0.569,222.954,"-2.445
"
36.274,-0.152,0.981,0.544,0.044,-0.150,-0.036,87.809,-1.059,-3.847,0.794,0.556,224.458,"-2.456
"
36.525,-0.148,0.977,0.542,0.025,-0.153,-0.030,87.838,-1.032,-3.700,0.813,0.547,225.875,"-2.458
"
36.777,-0.143,0.967,0.551,0.039,-0.156,-0.047,87.866,-0.642,-3.542,0.839,0.547,227.295,"-2.449
"
37.029,-0.143,0.965,0.560,0.047,-0.155,-0.030,87.893,-0.799,-3.497,0.843,0.554,228.712,"-2.440
"
37.281,-0.144,0.958,0.586,0.037,-0.154,-0.031,87.918,-0.756,-3.357,0.855,0.566,230.124,"-2.414
"
37.532,-0.145,0.959,0.598,0.039,-0.156,-0.029,87.942,-1.120,-3.327,0.850,0.584,231.527,"-2.402
"
37.784,-0.152,0.964,0.632,0.039,-0.158,-0.032,87.966,-1.377,-3.038,0.860,0.606,232.919,"-2.368
"
38.035,-0.156,0.972,0.663,0.054,-0.159,-0.033,87.988,-1.654,-3.160,0.869,0.632,234.296,"-2.337
"
38.287,-0.158,0.980,0.685,0.033,-0.160,-0.033,88.010,-1.898,-3.172,0.898,0.659,235.659,"-2.315
"
38.539,-0.159,0.989,0.702,0.042,-0.163,-0.037,88.033,-2.092,-3.353,0.903,0.680,237.007,"-2.298
"
38.790,-0.161,0.995,0.713,0.038,-0.164,-0.036,88.056,-2.195,-3.152,0.931,0.698,238.344,"-2.287
"
39.042,-0.166,1.001,0.720,0.034,-0.164,-0.041,88.080,-2.176,-2.963,0.929,0.710,239.672,"-2.280
"
39.294,-0.174,1.003,0.719,0.044,-0.164,-0.033,88.104,-1.972,-2.686,0.942,0.716,240.995,"-2.281
"
39.545,-0.176,1.004,0.717,0.040,-0.160,-0.029,88.130,-1.906,-2.602,0.906,0.717,242.316,"-2.283
"
39.797,-0.185,0.999,0.695,0.057,-0.167,-0.040,88.157,-1.626,-2.544,0.934,0.710,243.638,"-2.305
"
40.049,-0.184,0.993,0.673,0.045,-0.167,-0.039,88.185,-1.416,-2.819,0.957,0.696,244.967,"-2.327
"
40.301,-0.178,0.987,0.653,0.041,-0.165,-0.032,88.215,-1.072,-3.292,0.967,0.676,246.306,"-2.347
"
40.552,-0.174,0.981,0.636,0.033,-0.166,-0.032,88.245,-0.884,-3.288,0.963,0.654,247.657,"-2.364
"
40.804,-0.170,0.977,0.626,0.037,-0.165,-0.027,88.275,-0.855,-3.432,0.958,0.638,249.019,"-2.374
"
41.055,-0.160,0.973,0.608,0.044,-0.165,-0.022,88.304,-1.008,-3.454,0.939,0.622,250.391,"-2.392
"
41.307,-0.159,0.974,0.606,0.046,-0.165,-0.023,88.333,-1.295,-3.658,0.951,0.612,251.769,"-2.394
"
41.559,-0.147,0.985,0.593,0.042,-0.165,-0.037,88.362,-1.834,-4.040,0.952,0.602,253.154,"-2.407
"
41.810,-0.131,0.998,0.591,0.049,-0.160,-0.033,88.392,-2.139,-4.655,0.923,0.595,254.636,"-2.409
"
42.062,-0.116,1.006,0.590,0.029,-0.157,-0.044,88.419,-2.035,-4.934,0.896,0.592,256.029,"-2.410
"
42.314,-0.106,1.009,0.588,0.015,-0.159,-0.039,88.447,-1.822,-4.813,0.885,0.590,257.423,"-2.412
"
42.565,-0.105,1.004,0.589,0.023,-0.158,-0.051,88.475,-1.350,-4.236,0.873,0.589,258.818,"-2.411
"
42.817,-0.109,0.994,0.601,0.040,-0.158,-0.040,88.501,-0.965,-3.704,0.881,0.593,260.212,"-2.399
"
43.069,-0.114,0.980,0.612,0.055,-0.160,-0.029,88.527,-0.524,-3.593,0.888,0.601,261.602,"-2.388
"
43.321,-0.115,0.971,0.620,0.050,-0.160,-0.024,88.552,-0.548,-3.745,0.888,0.611,262.987,"-2.380
"
43.572,-0.107,0.963,0.636,0.057,-0.159,-0.028,88.577,-0.481,-4.393,0.889,0.622,264.366,"-2.364
"
43.824,-0.101,0.961,0.648,0.039,-0.158,-0.023,88.601,-0.769,-4.660,0.877,0.636,265.738,"-2.352
"
44.075,-0.091,0.963,0.664,0.025,-0.157,-0.028,88.626,-1.001,-4.588,0.853,0.649,267.102,"-2.336
"
44.327,-0.092,0.965,0.675,0.024,-0.160,-0.046,88.650,-1.141,-4.297,0.869,0.661,268.459,"-2.325
"
44.579,-0.096,0.965,0.681,0.026,-0.157,-0.044,88.675,-1.121,-3.843,0.871,0.672,269.809,"-2.319
"
44.830,-0.111,0.961,0.695,0.035,-0.156,-0.031,88.699,-0.854,-3.137,0.852,0.685,271.152,"-2.305
"
45.082,-0.126,0.952,0.706,0.050,-0.156,-0.029,88.723,-0.652,-2.852,0.869,0.695,272.489,"-2.294
"
45.334,-0.134,0.946,0.713,0.052,-0.154,-0.029,88.747,-0.515,-2.953,0.850,0.704,273.820,"-2.287
"
45.585,-0.135,0.943,0.719,0.062,-0.157,-0.023,88.772,-0.562,-3.486,0.851,0.712,275.146,"-2.281
"
45.837,-0.128,0.942,0.720,0.043,-0.156,-0.029,88.797,-0.640,-3.874,0.853,0.717,276.468,"-2.280
"
46.089,-0.123,0.943,0.715,0.030,-0.157,-0.030,88.823,-0.810,-4.152,0.856,0.718,277.788,"-2.285
"
46.340,-0.122,0.946,0.707,0.028,-0.157,-0.027,88.849,-0.986,-3.953,0.859,0.713,279.110,"-2.293
"
46.592,-0.125,0.946,0.693,0.046,-0.162,-0.038,88.877,-0.890,-3.635,0.894,0.705,280.435,"-2.307
"
46.844,-0.129,0.944,0.686,0.036,-0.164,-0.035,88.904,-0.700,-3.385,0.921,0.695,281.766,"-2.314
"
47.095,-0.133,0.936,0.683,0.045,-0.163,-0.043,88.932,-0.213,-3.255,0.936,0.688,283.102,"-2.317
"
47.347,-0.133,0.928,0.686,0.052,-0.166,-0.029,88.958,-0.033,-3.439,0.947,0.685,284.440,"-2.314
"
47.635,-0.126,0.923,0.692,0.054,-0.163,-0.021,88.991,-0.021,-3.844,0.942,0.687,286.136,"-2.308
"
47.886,-0.117,0.926,0.706,0.052,-0.166,-0.022,89.016,-0.496,-4.373,0.960,0.695,287.472,"-2.294
"
48.138,-0.106,0.934,0.722,0.033,-0.167,-0.029,89.040,-0.903,-4.723,0.976,0.707,288.803,"-2.278
"
48.390,-0.098,0.943,0.736,0.030,-0.165,-0.031,89.063,-1.058,-4.659,0.962,0.722,290.126,"-2.264
"
48.641,-0.098,0.949,0.752,0.019,-0.164,-0.038,89.086,-1.121,-4.181,0.954,0.737,291.439,"-2.248
"
48.893,-0.104,0.946,0.767,0.034,-0.172,-0.055,89.109,-0.607,-3.649,0.991,0.752,292.744,"-2.233
"
49.145,-0.117,0.933,0.776,0.040,-0.170,-0.044,89.132,0.016,-3.000,1.011,0.765,294.041,"-2.224
"
49.397,-0.126,0.920,0.780,0.044,-0.170,-0.037,89.156,0.598,-2.741,1.003,0.773,295.332,"-2.220
"
49.648,-0.135,0.903,0.784,0.058,-0.168,-0.020,89.180,0.514,-2.971,1.002,0.779,296.618,"-2.216
"
49.900,-0.139,0.895,0.791,0.041,-0.170,-0.024,89.204,0.457,-2.988,1.013,0.784,297.901,"-2.209
"
50.152,-0.140,0.894,0.797,0.046,-0.171,-0.025,89.228,0.106,-3.250,1.019,0.791,299.182,"-2.203
"
50.403,-0.139,0.897,0.798,0.050,-0.172,-0.031,89.252,-0.178,-3.436,1.028,0.795,300.458,"-2.202
"
50.655,-0.138,0.904,0.792,0.035,-0.170,-0.030,89.277,-0.399,-3.516,1.025,0.795,301.734,"-2.208
"
50.906,-0.138,0.910,0.778,0.037,-0.169,-0.027,89.303,-0.489,-3.496,1.010,0.789,303.011,"-2.222
"
51.157,-0.139,0.913,0.764,0.039,-0.173,-0.042,89.330,-0.457,-3.375,1.026,0.777,304.293,"-2.236
"
51.408,-0.137,0.914,0.749,0.050,-0.176,-0.044,89.358,-0.329,-3.553,1.068,0.763,305.583,"-2.251
"
51.659,-0.135,0.913,0.739,0.043,-0.175,-0.036,89.385,-0.035,-3.628,1.072,0.749,306.882,"-2.261
"
51.910,-0.127,0.905,0.720,0.044,-0.175,-0.037,89.414,0.240,-3.913,1.068,0.733,308.189,"-2.280
"
52.162,-0.112,0.896,0.712,0.040,-0.175,-0.022,89.441,0.554,-4.351,1.067,0.721,309.504,"-2.288
"
52.413,-0.102,0.891,0.711,0.030,-0.173,-0.021,89.468,0.476,-4.383,1.038,0.715,310.825,"-2.289
"
52.663,-0.094,0.890,0.714,0.037,-0.175,-0.024,89.494,0.424,-4.450,1.061,0.714,312.147,"-2.286
"
52.914,-0.092,0.890,0.731,0.025,-0.174,-0.025,89.519,0.187,-4.196,1.066,0.720,313.469,"-2.269
"
53.166,-0.094,0.892,0.752,0.034,-0.175,-0.027,89.544,0.062,-3.954,1.064,0.734,314.872,"-2.248
"
53.416,-0.098,0.897,0.775,0.045,-0.178,-0.028,89.566,-0.176,-3.846,1.077,0.754,316.178,"-2.225
"
53.668,-0.101,0.903,0.791,0.045,-0.174,-0.022,89.588,-0.422,-3.887,1.070,0.775,317.471,"-2.209
"
53.919,-0.104,0.912,0.811,0.031,-0.178,-0.044,89.611,-0.568,-3.882,1.073,0.788,318.755,"-2.189
"
54.219,-0.108,0.915,0.822,0.036,-0.178,-0.046,89.637,-0.310,-3.687,1.113,0.808,320.283,"-2.178
"
54.470,-0.113,0.910,0.826,0.035,-0.179,-0.042,89.660,0.163,-3.413,1.111,0.819,321.548,"-2.174
"
54.720,-0.118,0.899,0.831,0.049,-0.177,-0.033,89.683,0.588,-3.293,1.099,0.825,322.808,"-2.169
"
54.971,-0.123,0.886,0.837,0.045,-0.174,-0.024,89.707,0.833,-3.237,1.081,0.831,324.065,"-2.163
"
55.221,-0.122,0.878,0.847,0.050,-0.172,-0.027,89.730,0.808,-3.559,1.059,0.837,325.318,"-2.153
"
55.472,-0.121,0.877,0.854,0.039,-0.172,-0.027,89.753,0.558,-3.583,1.028,0.846,326.567,"-2.146
"
55.722,-0.121,0.876,0.865,0.037,-0.169,-0.034,89.776,0.385,-3.610,0.982,0.855,327.811,"-2.135
"
55.973,-0.122,0.876,0.873,0.041,-0.166,-0.030,89.798,0.302,-3.533,0.971,0.865,329.049,"-2.127
"
56.223,-0.125,0.874,0.884,0.037,-0.169,-0.042,89.821,0.455,-3.371,0.976,0.875,330.282,"-2.116
"
56.474,-0.126,0.869,0.888,0.046,-0.166,-0.037,89.843,0.678,-3.364,0.983,0.882,331.509,"-2.112
"
56.724,-0.125,0.863,0.891,0.047,-0.169,-0.034,89.866,0.869,-3.525,0.966,0.887,332.733,"-2.109
"
56.975,-0.121,0.857,0.889,0.041,-0.167,-0.031,89.890,1.075,-3.685,0.979,0.889,333.954,"-2.111
"
57.226,-0.119,0.854,0.883,0.036,-0.165,-0.028,89.914,1.044,-3.777,0.959,0.886,335.177,"-2.117
"
57.477,-0.115,0.848,0.853,0.032,-0.166,-0.029,89.940,1.070,-3.820,0.964,0.878,336.401,"-2.147
"
57.728,-0.118,0.847,0.830,0.036,-0.170,-0.033,89.967,0.917,-3.472,0.952,0.859,337.635,"-2.170
"
57.979,-0.118,0.847,0.830,0.036,-0.170,-0.033,89.994,0.881,-3.324,1.005,0.841,338.880,"-2.170
"
58.229,-0.132,0.847,0.774,0.049,-0.167,-0.022,90.022,0.759,-3.089,0.996,0.823,340.132,"-2.226
"
58.480,-0.135,0.851,0.751,0.049,-0.168,-0.030,90.053,0.421,-3.121,0.972,0.786,341.403,"-2.249
"
58.730,-0.134,0.859,0.732,0.045,-0.164,-0.031,90.085,0.157,-3.437,0.971,0.756,342.779,"-2.268
"
59.030,-0.131,0.867,0.722,0.035,-0.164,-0.032,90.119,0.115,-3.569,0.951,0.735,344.345,"-2.278
"
59.281,-0.129,0.871,0.720,0.043,-0.167,-0.044,90.147,0.190,-3.713,0.966,0.726,345.658,"-2.280
"
59.531,-0.127,0.871,0.727,0.039,-0.161,-0.037,90.173,0.310,-3.573,0.958,0.723,346.975,"-2.273
"
59.781,-0.126,0.866,0.738,0.038,-0.160,-0.041,90.198,0.759,-3.486,0.913,0.728,348.291,"-2.262
"
60.032,-0.127,0.857,0.757,0.038,-0.156,-0.030,90.222,1.094,-3.317,0.886,0.738,349.603,"-2.243
"
60.282,-0.129,0.850,0.772,0.039,-0.158,-0.024,90.244,1.186,-3.141,0.867,0.755,350.907,"-2.228
"
60.581,-0.135,0.844,0.796,0.047,-0.159,-0.022,90.271,0.936,-3.078,0.867,0.776,352.459,"-2.204
"
60.832,-0.140,0.844,0.813,0.045,-0.160,-0.030,90.293,0.706,-2.875,0.877,0.795,353.740,"-2.187
"
61.082,-0.142,0.845,0.822,0.046,-0.159,-0.035,90.315,0.585,-3.014,0.884,0.811,355.011,"-2.178
"
61.381,-0.142,0.847,0.852,0.043,-0.158,-0.039,90.341,0.708,-3.149,0.880,0.831,356.525,"-2.148
"
61.680,-0.137,0.842,0.874,0.042,-0.158,-0.041,90.366,1.081,-3.463,0.876,0.854,358.023,"-2.126
"
61.931,-0.129,0.834,0.896,0.044,-0.157,-0.033,90.387,1.443,-3.751,0.854,0.874,359.259,"-2.104
"
62.182,-0.120,0.829,0.913,0.048,-0.158,-0.021,90.407,1.433,-3.934,0.847,0.892,360.483,"-2.087
"
62.432,-0.113,0.829,0.921,0.040,-0.158,-0.013,90.428,1.068,-4.130,0.859,0.908,361.698,"-2.079
"
62.683,-0.105,0.837,0.927,0.042,-0.156,-0.012,90.450,0.351,-4.497,0.857,0.919,362.905,"-2.073
"
62.933,-0.096,0.858,0.928,0.030,-0.159,-0.031,90.472,-0.289,-4.508,0.905,0.925,364.107,"-2.072
"
63.184,-0.095,0.867,0.925,0.025,-0.163,-0.045,90.496,-0.169,-4.155,0.922,0.925,365.307,"-2.075
"
63.434,-0.097,0.877,0.910,0.035,-0.170,-0.055,90.520,0.026,-3.917,0.978,0.920,366.508,"-2.090
"
63.685,-0.100,0.872,0.900,0.043,-0.171,-0.050,90.545,0.664,-3.717,1.011,0.911,367.714,"-2.100
"
63.935,-0.098,0.856,0.884,0.053,-0.171,-0.040,90.571,1.581,-3.856,1.027,0.899,368.926,"-2.116
"
64.186,-0.093,0.843,0.870,0.051,-0.169,-0.028,90.599,1.988,-4.178,0.998,0.883,370.228,"-2.130
"
64.486,-0.075,0.820,0.835,0.045,-0.165,-0.022,90.632,2.365,-4.853,0.964,0.862,371.705,"-2.165
"
64.786,-0.064,0.812,0.813,0.032,-0.161,-0.018,90.666,1.758,-4.698,0.919,0.832,373.200,"-2.187
"
65.037,-0.056,0.806,0.781,0.031,-0.154,-0.026,90.695,1.803,-4.779,0.885,0.809,374.460,"-2.219
"
65.288,-0.059,0.803,0.753,0.029,-0.155,-0.028,90.724,1.763,-4.265,0.856,0.784,375.735,"-2.247
"
65.587,-0.067,0.800,0.730,0.034,-0.153,-0.025,90.760,1.652,-3.758,0.824,0.753,377.285,"-2.270
"
65.838,-0.078,0.797,0.710,0.048,-0.152,-0.032,90.789,1.698,-3.463,0.820,0.732,378.591,"-2.290
"
66.088,-0.084,0.795,0.698,0.046,-0.150,-0.034,90.818,1.643,-3.579,0.794,0.714,379.908,"-2.302
"
66.339,-0.084,0.793,0.687,0.045,-0.151,-0.037,90.846,1.761,-3.948,0.778,0.700,381.235,"-2.313
"
66.590,-0.081,0.792,0.684,0.044,-0.147,-0.030,90.874,1.751,-4.248,0.754,0.690,382.569,"-2.316
"
66.841,-0.069,0.796,0.690,0.047,-0.144,-0.023,90.900,1.471,-4.769,0.735,0.688,383.906,"-2.310
"
67.092,-0.054,0.804,0.713,0.035,-0.148,-0.028,90.925,1.280,-5.244,0.735,0.697,385.242,"-2.287
"
67.344,-0.045,0.812,0.736,0.025,-0.150,-0.036,90.948,1.051,-5.274,0.767,0.713,386.570,"-2.264
"
67.595,-0.040,0.820,0.774,0.025,-0.150,-0.034,90.970,0.918,-5.198,0.776,0.737,387.887,"-2.226
"
67.846,-0.044,0.823,0.816,0.026,-0.151,-0.037,90.989,1.148,-4.612,0.775,0.772,389.186,"-2.184
"
68.098,-0.051,0.822,0.852,0.035,-0.154,-0.035,91.007,1.234,-4.067,0.809,0.811,390.464,"-2.148
"
68.349,-0.062,0.816,0.895,0.046,-0.158,-0.036,91.025,1.576,-3.693,0.817,0.850,391.719,"-2.105
"
68.601,-0.068,0.811,0.923,0.050,-0.156,-0.027,91.042,1.822,-3.760,0.847,0.888,392.952,"-2.077
"
68.853,-0.070,0.802,0.951,0.049,-0.156,-0.025,91.060,1.940,-4.074,0.854,0.920,394.165,"-2.049
"
69.104,-0.065,0.796,0.962,0.049,-0.156,-0.027,91.080,2.048,-4.381,0.853,0.943,395.361,"-2.038
"
69.358,-0.060,0.790,0.963,0.031,-0.158,-0.033,91.102,2.172,-4.577,0.871,0.956,396.626,"-2.037
"
69.610,-0.056,0.784,0.960,0.029,-0.159,-0.034,91.125,2.272,-4.481,0.872,0.959,397.807,"-2.040
"
69.861,-0.059,0.774,0.954,0.031,-0.160,-0.031,91.148,2.528,-4.017,0.892,0.957,398.988,"-2.046
"
70.113,-0.065,0.765,0.954,0.040,-0.162,-0.031,91.172,2.682,-3.682,0.909,0.955,400.171,"-2.046
"
70.364,-0.073,0.756,0.953,0.047,-0.160,-0.027,91.195,2.663,-3.635,0.922,0.954,401.354,"-2.047
"
70.616,-0.076,0.751,0.952,0.045,-0.164,-0.032,91.218,2.656,-3.705,0.926,0.953,402.538,"-2.048
"
70.867,-0.075,0.747,0.951,0.050,-0.162,-0.034,91.242,2.688,-3.981,0.926,0.952,403.723,"-2.049
"
71.119,-0.073,0.744,0.950,0.043,-0.164,-0.035,91.265,2.736,-4.109,0.937,0.951,404.908,"-2.050
"
71.370,-0.064,0.734,0.948,0.040,-0.164,-0.039,91.288,3.207,-4.456,0.939,0.949,406.094,"-2.052
"
71.622,-0.057,0.724,0.945,0.034,-0.162,-0.025,91.312,3.412,-4.553,0.926,0.947,407.281,"-2.055
"
71.873,-0.052,0.718,0.943,0.039,-0.167,-0.027,91.335,3.321,-4.441,0.966,0.945,408.470,"-2.057
"
72.124,-0.051,0.708,0.934,0.027,-0.163,-0.021,91.359,3.348,-4.264,0.946,0.941,409.660,"-2.066
"
72.375,-0.057,0.705,0.927,0.025,-0.160,-0.024,91.384,3.284,-3.664,0.912,0.934,410.853,"-2.073
"
72.627,-0.068,0.703,0.922,0.038,-0.159,-0.027,91.408,3.149,-3.325,0.897,0.928,412.050,"-2.078
"
72.879,-0.083,0.701,0.918,0.043,-0.159,-0.028,91.433,3.095,-2.993,0.898,0.923,413.251,"-2.082
"
73.130,-0.092,0.701,0.916,0.057,-0.161,-0.027,91.457,3.024,-3.128,0.913,0.919,414.454,"-2.084
"
73.382,-0.091,0.704,0.915,0.058,-0.163,-0.028,91.481,2.919,-3.659,0.913,0.916,415.659,"-2.085
"
73.633,-0.078,0.710,0.917,0.055,-0.161,-0.031,91.504,2.778,-4.398,0.898,0.916,416.864,"-2.083
"
73.884,-0.058,0.720,0.918,0.036,-0.158,-0.028,91.528,2.500,-5.389,0.889,0.917,418.070,"-2.082
"
74.136,-0.040,0.728,0.914,0.011,-0.162,-0.037,91.551,2.548,-5.380,0.905,0.916,419.275,"-2.086
"
74.388,-0.033,0.733,0.910,0.018,-0.162,-0.030,91.576,2.461,-5.094,0.905,0.913,420.482,"-2.090
"
74.639,-0.036,0.735,0.900,0.023,-0.165,-0.044,91.602,2.650,-4.354,0.937,0.907,421.771,"-2.100
"
74.891,-0.044,0.731,0.889,0.033,-0.162,-0.041,91.627,2.874,-3.929,0.938,0.899,422.984,"-2.111
"
75.142,-0.057,0.718,0.876,0.046,-0.163,-0.039,91.653,3.460,-3.428,0.941,0.888,424.203,"-2.124
"
75.393,-0.064,0.705,0.868,0.049,-0.164,-0.031,91.678,3.898,-3.445,0.951,0.878,425.428,"-2.132
"
75.645,-0.065,0.694,0.864,0.048,-0.160,-0.022,91.704,3.813,-3.807,0.922,0.870,426.658,"-2.136
"
75.897,-0.064,0.685,0.861,0.040,-0.161,-0.020,91.729,3.917,-3.950,0.911,0.865,427.892,"-2.139
"
76.148,-0.062,0.684,0.863,0.043,-0.163,-0.020,91.753,3.553,-4.161,0.906,0.863,429.128,"-2.137
"
76.400,-0.061,0.688,0.868,0.039,-0.160,-0.017,91.777,3.045,-4.214,0.899,0.865,430.364,"-2.132
"
76.651,-0.058,0.699,0.882,0.048,-0.159,-0.023,91.800,2.669,-4.364,0.891,0.871,431.598,"-2.118
"
76.902,-0.057,0.719,0.900,0.034,-0.160,-0.030,91.821,1.841,-4.414,0.888,0.886,432.825,"-2.100
"
77.154,-0.060,0.738,0.913,0.035,-0.161,-0.046,91.843,1.554,-4.309,0.884,0.898,434.045,"-2.087
"
77.405,-0.065,0.749,0.922,0.038,-0.162,-0.053,91.865,1.841,-3.998,0.911,0.911,435.257,"-2.078
"
77.657,-0.068,0.751,0.935,0.044,-0.161,-0.043,91.886,2.147,-3.896,0.921,0.922,436.463,"-2.065
"
77.909,-0.071,0.749,0.949,0.037,-0.162,-0.033,91.907,2.492,-3.873,0.931,0.935,437.661,"-2.051
"
78.161,-0.072,0.747,0.966,0.043,-0.164,-0.033,91.928,2.590,-3.904,0.938,0.950,438.852,"-2.034
"
78.412,-0.075,0.745,0.997,0.044,-0.162,-0.032,91.947,2.500,-3.865,0.948,0.970,440.032,"-2.003
"
78.664,-0.077,0.745,1.020,0.040,-0.164,-0.036,91.966,2.426,-3.856,0.938,0.995,441.200,"-1.980
"
78.916,-0.078,0.746,1.044,0.042,-0.161,-0.037,91.984,2.380,-3.903,0.914,1.020,442.353,"-1.956
"
79.167,-0.080,0.746,1.075,0.034,-0.162,-0.039,92.002,2.408,-3.714,0.893,1.044,443.491,"-1.925
"
79.419,-0.084,0.743,1.096,0.038,-0.160,-0.041,92.020,2.584,-3.550,0.897,1.070,444.615,"-1.904
"
79.671,-0.088,0.737,1.112,0.044,-0.160,-0.043,92.038,2.811,-3.497,0.894,1.090,445.725,"-1.888
"
79.922,-0.091,0.727,1.130,0.052,-0.159,-0.029,92.056,3.106,-3.366,0.877,1.107,446.825,"-1.870
"
80.174,-0.091,0.723,1.145,0.054,-0.157,-0.023,92.076,3.025,-3.628,0.838,1.126,447.988,"-1.855
"
80.426,-0.088,0.725,1.155,0.041,-0.153,-0.024,92.094,2.616,-3.850,0.813,1.142,449.067,"-1.845
"
80.677,-0.084,0.733,1.163,0.044,-0.153,-0.035,92.113,2.258,-4.087,0.829,1.154,450.138,"-1.837
"
80.929,-0.082,0.741,1.166,0.036,-0.149,-0.034,92.133,2.120,-3.991,0.829,1.161,451.204,"-1.834
"
81.181,-0.082,0.746,1.166,0.043,-0.157,-0.039,92.153,2.138,-3.947,0.839,1.164,452.267,"-1.834
"
81.432,-0.084,0.747,1.163,0.036,-0.161,-0.048,92.174,2.318,-3.711,0.893,1.164,453.330,"-1.837
"
81.684,-0.087,0.743,1.154,0.043,-0.156,-0.046,92.195,2.654,-3.603,0.854,1.159,454.393,"-1.846
"
81.936,-0.090,0.732,1.139,0.041,-0.156,-0.042,92.217,3.007,-3.544,0.859,1.151,455.460,"-1.861
"
82.187,-0.095,0.717,1.119,0.037,-0.157,-0.038,92.241,3.622,-3.241,0.850,1.138,456.533,"-1.881
"
82.439,-0.100,0.706,1.099,0.043,-0.155,-0.020,92.265,3.761,-3.032,0.854,1.121,457.615,"-1.901
"
82.691,-0.105,0.698,1.072,0.050,-0.155,-0.020,92.290,3.498,-3.069,0.859,1.098,458.709,"-1.928
"
82.942,-0.107,0.697,1.046,0.049,-0.157,-0.027,92.316,3.152,-3.218,0.852,1.072,459.817,"-1.954
"
83.194,-0.107,0.698,1.022,0.045,-0.154,-0.038,92.343,3.027,-3.433,0.831,1.046,460.940,"-1.978
"
83.446,-0.104,0.697,0.998,0.043,-0.147,-0.035,92.369,3.188,-3.586,0.791,1.021,462.078,"-2.002
"
83.697,-0.103,0.696,0.994,0.041,-0.152,-0.044,92.395,3.382,-3.543,0.806,1.004,463.229,"-2.006
"
83.949,-0.099,0.680,0.970,0.043,-0.146,-0.032,92.420,3.915,-3.555,0.786,0.989,464.387,"-2.030
"
84.201,-0.096,0.673,0.966,0.046,-0.146,-0.018,92.445,4.037,-3.620,0.749,0.976,465.555,"-2.034
"
84.452,-0.095,0.668,0.965,0.039,-0.151,-0.016,92.469,3.738,-3.556,0.774,0.969,466.729,"-2.035
"
84.704,-0.094,0.675,0.972,0.039,-0.154,-0.019,92.492,3.175,-3.577,0.816,0.968,467.904,"-2.028
"
84.956,-0.095,0.683,0.978,0.040,-0.156,-0.025,92.514,2.726,-3.576,0.839,0.973,469.079,"-2.022
"
85.208,-0.096,0.699,0.988,0.041,-0.158,-0.034,92.536,2.194,-3.630,0.865,0.980,470.250,"-2.012
"
85.459,-0.098,0.717,0.996,0.038,-0.157,-0.044,92.557,2.001,-3.581,0.876,0.988,471.416,"-2.004
"
85.711,-0.099,0.723,1.002,0.040,-0.160,-0.050,92.580,2.312,-3.557,0.878,0.995,472.655,"-1.998
"
85.963,-0.099,0.721,1.010,0.041,-0.157,-0.046,92.602,2.809,-3.511,0.867,1.002,473.814,"-1.990
"
86.214,-0.099,0.714,1.020,0.039,-0.147,-0.037,92.623,3.156,-3.505,0.791,1.010,474.968,"-1.980
"
86.466,-0.098,0.702,1.037,0.048,-0.146,-0.035,92.643,3.653,-3.519,0.739,1.023,476.115,"-1.963
"
86.718,-0.093,0.688,1.062,0.052,-0.140,-0.023,92.662,4.024,-3.785,0.698,1.040,477.255,"-1.938
"
86.969,-0.092,0.686,1.067,0.050,-0.141,-0.023,92.682,4.054,-3.896,0.676,1.056,478.384,"-1.933
"
87.221,-0.086,0.675,1.123,0.025,-0.136,-0.018,92.698,3.662,-3.780,0.638,1.089,479.500,"-1.877
"
87.473,-0.091,0.676,1.164,0.033,-0.140,-0.029,92.713,3.388,-3.384,0.640,1.125,480.595,"-1.836
"
87.725,-0.101,0.682,1.195,0.039,-0.141,-0.032,92.728,3.022,-3.059,0.669,1.160,481.669,"-1.805
"
87.977,-0.111,0.687,1.226,0.043,-0.146,-0.048,92.743,2.885,-2.873,0.684,1.191,482.725,"-1.774
"
88.228,-0.120,0.689,1.256,0.045,-0.142,-0.036,92.758,2.979,-2.649,0.707,1.223,483.762,"-1.744
"
88.480,-0.125,0.687,1.284,0.048,-0.148,-0.041,92.772,3.190,-2.802,0.728,1.253,484.781,"-1.716
"
88.779,-0.133,0.678,1.319,0.025,-0.152,-0.053,92.790,3.717,-2.460,0.770,1.287,485.982,"-1.681
"
89.030,-0.142,0.665,1.348,0.038,-0.149,-0.033,92.804,4.185,-2.102,0.780,1.316,486.965,"-1.652
"
89.282,-0.154,0.651,1.382,0.044,-0.156,-0.028,92.817,4.455,-1.654,0.820,1.347,487.931,"-1.618
"
89.534,-0.161,0.643,1.411,0.051,-0.159,-0.028,92.830,4.283,-1.797,0.870,1.382,488.877,"-1.589
"
89.786,-0.166,0.637,1.447,0.054,-0.162,-0.028,92.842,4.209,-1.885,0.908,1.418,489.803,"-1.553
"
90.037,-0.167,0.631,1.492,0.039,-0.167,-0.045,92.853,4.269,-2.139,0.926,1.456,490.707,"-1.508
"
90.289,-0.167,0.626,1.528,0.046,-0.158,-0.033,92.864,4.333,-2.205,0.910,1.493,491.590,"-1.472
"
90.541,-0.165,0.621,1.574,0.059,-0.158,-0.032,92.874,4.423,-2.302,0.877,1.529,492.452,"-1.426
"
90.792,-0.160,0.619,1.603,0.057,-0.155,-0.033,92.884,4.421,-2.705,0.864,1.567,493.292,"-1.397
"
91.044,-0.146,0.618,1.663,0.042,-0.149,-0.027,92.892,4.396,-3.286,0.838,1.610,494.110,"-1.337
"
91.296,-0.137,0.618,1.714,0.036,-0.154,-0.037,92.900,4.364,-3.352,0.821,1.662,494.952,"-1.286
"
91.547,-0.131,0.615,1.780,0.028,-0.154,-0.042,92.905,4.509,-3.142,0.816,1.718,495.711,"-1.220
"
91.799,-0.131,0.610,1.857,0.045,-0.155,-0.040,92.909,4.711,-2.846,0.812,1.775,496.437,"-1.143
"
92.051,-0.130,0.603,1.933,0.057,-0.153,-0.032,92.909,4.940,-2.773,0.816,1.852,497.124,"-1.067
"
92.302,-0.125,0.598,2.023,0.056,-0.158,-0.033,92.908,4.953,-3.093,0.835,1.932,497.766,"-0.977
"
92.554,-0.112,0.599,2.114,0.051,-0.161,-0.033,92.904,4.723,-3.684,0.889,2.019,498.358,"-0.886
"
92.806,-0.100,0.603,2.200,0.030,-0.163,-0.034,92.899,4.507,-3.989,0.908,2.108,498.900,"-0.800
"
93.058,-0.091,0.610,2.297,0.030,-0.161,-0.026,92.893,4.187,-3.843,0.907,2.202,499.389,"-0.703
"
93.309,-0.088,0.617,2.389,0.035,-0.164,-0.040,92.885,4.077,-3.563,0.927,2.296,499.824,"-0.611
"
93.561,-0.093,0.623,2.514,0.038,-0.156,-0.043,92.874,3.997,-3.217,0.879,2.398,500.203,"-0.486
"
93.813,-0.097,0.623,2.609,0.047,-0.156,-0.042,92.862,4.242,-3.026,0.851,2.503,500.521,"-0.391
"
94.064,-0.103,0.616,2.731,0.044,-0.151,-0.037,92.849,4.553,-2.948,0.830,2.610,500.779,"-0.269
"
94.316,-0.107,0.605,2.848,0.044,-0.154,-0.037,92.833,4.846,-2.966,0.818,2.722,500.972,"-0.152
"
94.568,-0.107,0.594,2.949,0.053,-0.151,-0.027,92.815,5.185,-3.119,0.810,2.837,501.100,"-0.051
"
94.820,-0.103,0.582,3.061,0.051,-0.151,-0.021,92.797,5.261,-3.196,0.813,2.950,501.162,"0.061
"
95.072,-0.095,0.575,3.177,0.046,-0.155,-0.020,92.778,5.313,-3.533,0.820,3.060,501.159,"0.177
"
95.324,-0.086,0.575,3.282,0.044,-0.148,-0.014,92.758,5.099,-3.783,0.803,3.167,501.093,"0.282
"
95.577,-0.077,0.578,3.386,0.036,-0.149,-0.024,92.737,4.957,-3.885,0.798,3.273,500.965,"0.386
"
95.828,-0.072,0.583,3.485,0.034,-0.151,-0.027,92.715,4.793,-3.867,0.768,3.376,500.777,"0.485
"
96.081,-0.070,0.587,3.582,0.037,-0.150,-0.027,92.693,4.739,-3.755,0.772,3.476,500.530,"0.582
"
96.333,-0.072,0.590,3.679,0.042,-0.149,-0.025,92.670,4.733,-3.644,0.771,3.573,500.227,"0.679
"
96.585,-0.076,0.592,3.771,0.039,-0.151,-0.027,92.647,4.742,-3.516,0.799,3.668,499.868,"0.771
"
96.837,-0.079,0.593,3.862,0.042,-0.152,-0.029,92.623,4.699,-3.520,0.810,3.761,499.454,"0.862
"
97.089,-0.083,0.593,3.952,0.039,-0.154,-0.031,92.595,4.729,-3.415,0.825,3.861,498.954,"0.952
"
97.341,-0.087,0.593,4.038,0.042,-0.154,-0.033,92.569,4.735,-3.312,0.832,3.952,498.429,"1.038
"
97.593,-0.093,0.592,4.128,0.039,-0.156,-0.033,92.543,4.786,-3.148,0.834,4.040,497.853,"1.128
"
97.845,-0.096,0.592,4.206,0.048,-0.155,-0.033,92.516,4.780,-3.185,0.828,4.123,497.227,"1.206
"
98.098,-0.098,0.592,4.278,0.049,-0.154,-0.027,92.489,4.736,-3.220,0.820,4.201,496.554,"1.278
"
98.350,-0.097,0.594,4.347,0.039,-0.154,-0.030,92.463,4.677,-3.285,0.818,4.275,495.838,"1.347
"
98.602,-0.097,0.595,4.412,0.038,-0.150,-0.028,92.436,4.636,-3.313,0.810,4.344,495.080,"1.412
"
98.854,-0.100,0.594,4.472,0.035,-0.150,-0.034,92.409,4.663,-3.221,0.803,4.407,494.284,"1.472
"
99.107,-0.103,0.594,4.524,0.043,-0.152,-0.030,92.383,4.691,-3.095,0.790,4.466,493.453,"1.524
"
99.359,-0.108,0.594,4.573,0.042,-0.152,-0.028,92.356,4.651,-3.053,0.787,4.520,492.588,"1.573
"
99.612,-0.110,0.597,4.619,0.043,-0.152,-0.027,92.330,4.566,-3.079,0.797,4.569,491.695,"1.619
"
99.864,-0.111,0.603,4.662,0.041,-0.146,-0.021,92.304,4.386,-3.170,0.792,4.615,490.774,"1.662
"
100.116,-0.109,0.609,4.699,0.042,-0.146,-0.024,92.279,4.291,-3.206,0.783,4.657,489.827,"1.699
"
100.369,-0.107,0.614,4.732,0.045,-0.151,-0.031,92.253,4.344,-3.183,0.801,4.695,488.857,"1.732
"
100.621,-0.103,0.615,4.758,0.042,-0.148,-0.027,92.228,4.354,-3.297,0.768,4.727,487.866,"1.758
"
100.873,-0.098,0.614,4.781,0.042,-0.150,-0.033,92.204,4.445,-3.307,0.721,4.755,486.859,"1.781
"
101.126,-0.093,0.612,4.798,0.046,-0.150,-0.029,92.180,4.538,-3.455,0.777,4.777,485.837,"1.798
"
101.379,-0.086,0.606,4.816,0.047,-0.148,-0.029,92.156,4.693,-3.758,0.771,4.796,484.803,"1.816
"
101.632,-0.079,0.600,4.831,0.039,-0.148,-0.028,92.133,4.959,-3.799,0.740,4.814,483.759,"1.831
"
101.885,-0.074,0.593,4.844,0.037,-0.150,-0.024,92.110,5.045,-3.869,0.728,4.829,482.705,"1.844
"
102.185,-0.070,0.584,4.861,0.056,-0.153,-0.020,92.080,5.228,-3.763,0.744,4.847,481.358,"1.861
"
102.439,-0.070,0.578,4.873,0.043,-0.147,-0.021,92.057,5.231,-3.596,0.717,4.860,480.285,"1.873
"
102.692,-0.069,0.575,4.884,0.049,-0.147,-0.023,92.034,5.217,-3.674,0.764,4.873,479.205,"1.884
"
102.945,-0.069,0.574,4.889,0.043,-0.149,-0.025,92.011,5.138,-3.704,0.744,4.882,478.119,"1.889
"
103.198,-0.067,0.575,4.890,0.048,-0.139,-0.025,91.989,4.946,-3.894,1.725,4.884,477.029,"1.890
"
103.451,-0.065,0.578,4.885,0.052,-0.123,-0.012,91.968,4.789,-3.952,0.642,4.886,475.939,"1.885
"
103.703,-0.063,0.582,4.877,0.049,-0.129,-0.027,91.947,4.710,-4.036,0.532,4.883,474.848,"1.877
"
103.956,-0.062,0.587,4.862,0.047,-0.126,-0.024,91.927,4.749,-4.010,0.418,4.875,473.761,"1.862
"
104.209,-0.063,0.590,4.842,0.038,-0.130,-0.027,91.908,4.601,-4.012,0.541,4.860,472.680,"1.842
"
104.462,-0.063,0.593,4.816,0.041,-0.135,-0.033,91.891,4.624,-4.041,0.593,4.840,471.609,"1.816
"
104.714,-0.066,0.594,4.783,0.039,-0.140,-0.035,91.875,4.701,-3.883,0.596,4.814,470.552,"1.783
"
104.966,-0.071,0.592,4.744,0.041,-0.137,-0.027,91.860,4.782,-3.631,0.660,4.782,469.511,"1.744
"
105.219,-0.076,0.589,4.698,0.041,-0.140,-0.029,91.847,4.856,-3.587,0.663,4.742,468.491,"1.698
"
105.471,-0.082,0.584,4.650,0.037,-0.146,-0.039,91.835,4.947,-3.400,0.718,4.698,467.496,"1.650
"
105.724,-0.087,0.579,4.599,0.043,-0.150,-0.036,91.825,4.972,-3.402,0.744,4.651,466.527,"1.599
"
105.976,-0.091,0.573,4.545,0.044,-0.145,-0.033,91.815,5.149,-3.246,0.752,4.600,465.586,"1.545
"
106.228,-0.092,0.569,4.485,0.049,-0.145,-0.032,91.807,5.135,-3.334,0.745,4.545,464.676,"1.485
"
106.480,-0.088,0.566,4.418,0.048,-0.147,-0.031,91.800,5.203,-3.477,0.759,4.484,463.799,"1.418
"
106.732,-0.080,0.565,4.348,0.042,-0.149,-0.033,91.795,5.227,-3.689,0.763,4.420,462.959,"1.348
"
106.985,-0.070,0.567,4.278,0.045,-0.150,-0.031,91.791,5.193,-3.854,0.766,4.353,462.157,"1.278
"
107.237,-0.059,0.572,4.205,0.045,-0.152,-0.034,91.788,5.102,-4.061,0.787,4.284,461.394,"1.205
"
107.489,-0.047,0.579,4.128,0.041,-0.153,-0.037,91.787,4.971,-4.352,0.794,4.205,460.626,"1.128
"
107.741,-0.035,0.587,4.049,0.031,-0.155,-0.038,91.787,4.825,-4.554,0.815,4.129,459.951,"1.049
"
107.993,-0.028,0.594,3.965,0.026,-0.155,-0.040,91.789,4.755,-4.574,0.831,4.049,459.320,"0.965
"
108.245,-0.026,0.600,3.878,0.029,-0.152,-0.034,91.792,4.637,-4.462,0.824,3.965,458.738,"0.878
"
108.497,-0.030,0.603,3.790,0.030,-0.156,-0.041,91.796,4.660,-4.304,0.833,3.879,458.204,"0.790
"
108.750,-0.037,0.604,3.705,0.039,-0.156,-0.032,91.802,4.686,-4.014,0.870,3.792,457.721,"0.705
"
109.002,-0.045,0.602,3.618,0.039,-0.158,-0.030,91.809,4.771,-3.882,0.888,3.706,457.288,"0.618
"
109.254,-0.052,0.601,3.548,0.043,-0.165,-0.034,91.816,4.808,-3.713,0.932,3.621,456.904,"0.548
"
109.506,-0.059,0.600,3.444,0.046,-0.167,-0.035,91.824,4.794,-3.515,0.950,3.537,456.568,"0.444
"
109.758,-0.062,0.602,3.371,0.051,-0.171,-0.033,91.834,4.650,-3.637,1.012,3.450,456.283,"0.371
"
110.009,-0.062,0.602,3.265,0.036,-0.174,-0.044,91.843,4.745,-3.698,1.078,3.368,456.046,"0.265
"
110.261,-0.060,0.601,3.169,0.039,-0.179,-0.045,91.856,4.782,-3.791,1.075,3.275,455.860,"0.169
"
110.513,-0.058,0.600,3.076,0.037,-0.177,-0.040,91.870,4.848,-3.839,1.086,3.175,455.730,"0.076
"
110.765,-0.057,0.599,2.965,0.034,-0.176,-0.033,91.887,4.825,-3.844,1.083,3.074,455.657,"-0.035
"
111.018,-0.060,0.601,2.861,0.029,-0.174,-0.030,91.904,4.668,-3.738,1.088,2.971,455.644,"-0.139
"
111.270,-0.068,0.603,2.755,0.030,-0.180,-0.042,91.924,4.604,-3.510,1.099,2.866,455.692,"-0.245
"
111.522,-0.080,0.603,2.651,0.034,-0.182,-0.048,91.944,4.663,-3.192,1.116,2.761,455.800,"-0.349
"
111.774,-0.094,0.599,2.550,0.033,-0.181,-0.049,91.965,4.745,-2.843,1.124,2.657,455.968,"-0.450
"
112.026,-0.111,0.590,2.446,0.034,-0.179,-0.044,91.988,5.015,-2.417,1.129,2.551,456.197,"-0.554
"
112.278,-0.132,0.577,2.329,0.043,-0.186,-0.042,92.012,5.153,-2.039,1.151,2.444,456.487,"-0.671
"
112.530,-0.150,0.563,2.212,0.052,-0.183,-0.043,92.038,5.663,-1.225,1.151,2.338,456.839,"-0.788
"
112.782,-0.155,0.557,2.154,0.061,-0.180,-0.040,92.064,5.781,-1.425,1.136,2.236,457.252,"-0.846
"
113.034,-0.157,0.547,1.968,0.055,-0.180,-0.026,92.094,5.680,-1.977,1.145,2.114,457.728,"-1.032
"
113.285,-0.152,0.551,1.827,0.030,-0.180,-0.026,92.129,5.220,-2.589,1.142,1.982,458.316,"-1.173
"
113.537,-0.149,0.558,1.682,0.021,-0.184,-0.043,92.167,4.893,-2.407,1.150,1.834,458.948,"-1.318
"
113.788,-0.155,0.563,1.519,0.027,-0.184,-0.053,92.208,4.708,-1.818,1.156,1.675,459.669,"-1.481
"
114.040,-0.165,0.561,1.353,0.038,-0.180,-0.049,92.253,5.082,-1.230,1.152,1.512,460.482,"-1.647
"
114.292,-0.183,0.549,1.113,0.040,-0.175,-0.044,92.302,5.754,-0.598,1.118,1.330,461.393,"-1.887
"
114.544,-0.196,0.531,0.908,0.056,-0.178,-0.036,92.357,6.141,-0.690,1.107,1.129,462.414,"-2.092
"
114.795,-0.204,0.513,0.720,0.061,-0.175,-0.029,92.416,6.840,-0.672,1.100,0.920,463.557,"-2.280
"
115.047,-0.204,0.496,0.502,0.058,-0.171,-0.017,92.473,7.031,-1.012,1.049,0.733,464.811,"-2.498
"
115.298,-0.210,0.497,0.461,0.054,-0.162,0.009,92.531,5.862,-0.770,0.974,0.554,466.181,"-2.539
"
115.550,-0.212,0.511,0.575,0.089,-0.161,-0.030,92.565,5.045,-1.119,0.955,0.516,467.612,"-2.425
"
115.802,-0.205,0.530,0.710,0.061,-0.160,-0.044,92.579,4.607,-1.783,0.919,0.594,469.028,"-2.290
"
116.054,-0.179,0.544,0.862,0.059,-0.161,-0.047,92.586,4.661,-3.475,0.917,0.710,470.388,"-2.138
"
116.306,-0.156,0.551,0.995,0.032,-0.155,-0.029,92.586,5.116,-3.643,0.875,0.854,471.671,"-2.005
"
116.557,-0.129,0.555,1.162,0.025,-0.158,-0.028,92.586,5.235,-4.137,0.837,0.987,472.873,"-1.838
"
116.809,-0.115,0.559,1.299,0.033,-0.159,-0.021,92.581,5.103,-3.821,0.871,1.140,473.993,"-1.701
"
117.061,-0.108,0.571,1.427,0.041,-0.156,-0.007,92.577,4.430,-3.667,0.885,1.280,475.028,"-1.573
"
117.312,-0.105,0.591,1.538,0.037,-0.155,-0.021,92.572,3.446,-3.608,0.842,1.414,475.984,"-1.462
"
117.564,-0.105,0.623,1.655,0.031,-0.148,-0.039,92.570,2.221,-3.617,0.809,1.527,476.868,"-1.345
"
117.816,-0.108,0.644,1.726,0.031,-0.148,-0.054,92.568,2.585,-3.284,0.780,1.629,477.691,"-1.274
"
118.067,-0.113,0.666,1.807,0.041,-0.149,-0.050,92.568,2.268,-3.107,0.775,1.720,478.459,"-1.193
"
118.319,-0.120,0.683,1.883,0.040,-0.151,-0.044,92.567,2.409,-2.983,0.806,1.801,479.176,"-1.117
"
118.571,-0.123,0.694,1.936,0.041,-0.152,-0.032,92.568,2.200,-2.971,0.809,1.871,479.849,"-1.064
"
118.822,-0.127,0.704,1.980,0.040,-0.154,-0.034,92.571,2.120,-2.859,0.838,1.935,480.525,"-1.020
"
119.074,-0.133,0.718,2.030,0.040,-0.160,-0.049,92.574,1.969,-2.768,0.870,1.985,481.127,"-0.970
"
119.326,-0.137,0.723,2.065,0.054,-0.160,-0.059,92.578,2.266,-2.808,0.899,2.024,481.703,"-0.935
"
119.578,-0.133,0.721,2.085,0.057,-0.158,-0.044,92.583,2.755,-3.198,0.878,2.057,482.257,"-0.915
"
119.829,-0.124,0.717,2.095,0.050,-0.155,-0.044,92.590,3.150,-3.769,0.868,2.078,482.797,"-0.905
"
120.080,-0.117,0.714,2.097,0.041,-0.158,-0.050,92.598,3.333,-4.155,0.874,2.089,483.326,"-0.903
"
120.332,-0.093,0.705,2.111,0.028,-0.148,-0.039,92.607,3.457,-4.445,0.812,2.098,483.851,"-0.889
"
120.584,-0.087,0.697,2.127,0.016,-0.145,-0.041,92.615,3.605,-4.002,0.735,2.112,484.369,"-0.873
"
120.835,-0.089,0.692,2.139,0.028,-0.140,-0.037,92.622,3.695,-3.355,0.689,2.126,484.879,"-0.861
"
121.087,-0.111,0.687,2.149,0.025,-0.140,-0.031,92.630,3.350,-2.216,0.674,2.138,485.382,"-0.851
"
121.339,-0.132,0.686,2.146,0.050,-0.142,-0.043,92.639,3.038,-1.926,0.665,2.144,485.878,"-0.854
"
121.590,-0.148,0.687,2.137,0.059,-0.144,-0.050,92.649,2.909,-1.566,0.668,2.143,486.373,"-0.863
"
121.842,-0.157,0.686,2.120,0.061,-0.141,-0.048,92.660,2.990,-1.889,0.689,2.136,486.871,"-0.880
"
122.094,-0.158,0.682,2.099,0.046,-0.139,-0.041,92.672,3.373,-2.532,0.667,2.118,487.375,"-0.901
"
122.345,-0.157,0.675,2.075,0.036,-0.140,-0.042,92.686,3.606,-2.587,0.662,2.098,487.891,"-0.925
"
122.597,-0.158,0.668,2.049,0.039,-0.140,-0.036,92.700,3.756,-2.471,0.667,2.077,488.419,"-0.951
"
122.849,-0.160,0.662,2.022,0.047,-0.143,-0.036,92.715,3.916,-2.327,0.694,2.052,488.960,"-0.978
"
123.100,-0.162,0.657,1.990,0.047,-0.145,-0.030,92.731,3.824,-2.334,0.741,2.023,489.517,"-1.010
"
123.352,-0.163,0.655,1.965,0.041,-0.146,-0.033,92.747,3.648,-2.384,0.727,1.994,490.091,"-1.035
"
123.604,-0.164,0.655,1.943,0.039,-0.148,-0.035,92.763,3.596,-2.336,0.739,1.969,490.681,"-1.057
"
123.856,-0.168,0.653,1.911,0.038,-0.152,-0.045,92.779,3.716,-2.126,0.779,1.942,491.285,"-1.089
"
124.107,-0.173,0.647,1.881,0.042,-0.158,-0.051,92.797,4.046,-1.856,0.820,1.912,491.906,"-1.119
"
124.358,-0.178,0.637,1.846,0.048,-0.153,-0.034,92.814,4.383,-1.723,0.842,1.883,492.543,"-1.154
"
124.611,-0.180,0.626,1.809,0.045,-0.158,-0.040,92.834,4.629,-1.828,0.860,1.846,493.244,"-1.191
"
124.862,-0.179,0.614,1.775,0.049,-0.161,-0.042,92.853,4.914,-1.974,0.878,1.813,493.920,"-1.225
"
125.114,-0.177,0.603,1.747,0.044,-0.158,-0.034,92.873,4.934,-2.083,0.885,1.778,494.617,"-1.253
"
125.366,-0.173,0.592,1.713,0.046,-0.156,-0.033,92.893,5.325,-2.239,0.860,1.745,495.334,"-1.287
"
125.618,-0.166,0.583,1.675,0.050,-0.155,-0.028,92.913,5.262,-2.491,0.845,1.709,496.070,"-1.325
"
125.869,-0.157,0.578,1.629,0.044,-0.151,-0.028,92.935,5.119,-2.727,0.814,1.671,496.828,"-1.371
"
126.121,-0.151,0.577,1.589,0.039,-0.150,-0.025,92.957,4.964,-2.866,0.825,1.632,497.608,"-1.411
"
126.373,-0.149,0.578,1.547,0.034,-0.155,-0.032,92.980,4.815,-2.619,0.833,1.592,498.411,"-1.453
"
126.624,-0.152,0.579,1.504,0.032,-0.152,-0.038,93.003,4.708,-2.206,0.834,1.548,499.238,"-1.496
"
126.876,-0.158,0.579,1.461,0.044,-0.160,-0.047,93.028,4.710,-1.878,0.864,1.504,500.091,"-1.539
"
127.128,-0.164,0.578,1.408,0.053,-0.158,-0.038,93.053,4.911,-1.850,0.884,1.458,500.970,"-1.592
"
127.379,-0.164,0.575,1.364,0.054,-0.159,-0.038,93.079,5.010,-2.160,0.891,1.408,501.877,"-1.636
"
127.631,-0.155,0.573,1.309,0.053,-0.159,-0.038,93.106,5.125,-2.729,0.903,1.359,502.812,"-1.691
"
127.883,-0.147,0.571,1.282,0.044,-0.164,-0.043,93.132,5.235,-3.090,0.920,1.316,503.774,"-1.718
"
128.134,-0.132,0.569,1.231,0.037,-0.154,-0.030,93.159,5.217,-3.477,0.853,1.274,504.761,"-1.769
"
128.386,-0.121,0.572,1.185,0.032,-0.156,-0.029,93.186,4.968,-3.449,0.851,1.233,505.771,"-1.815
"
128.638,-0.118,0.578,1.146,0.031,-0.157,-0.035,93.214,4.698,-3.147,0.845,1.190,506.806,"-1.854
"
128.889,-0.119,0.583,1.114,0.044,-0.156,-0.037,93.241,4.435,-2.950,0.846,1.151,507.865,"-1.886
"
129.141,-0.120,0.587,1.081,0.052,-0.156,-0.043,93.268,4.579,-2.917,0.850,1.116,508.945,"-1.919
"
129.393,-0.110,0.579,1.049,0.070,-0.166,-0.101,93.295,5.736,-3.602,0.911,1.083,510.045,"-1.951
"
129.645,-0.079,0.545,1.013,0.081,-0.173,-0.121,93.323,6.810,-4.064,1.009,1.049,511.164,"-1.987
"
129.897,-0.019,0.490,0.968,0.079,-0.171,0.020,93.352,9.584,-6.505,1.047,1.013,512.303,"-2.032
"
130.149,0.055,0.455,0.929,0.075,-0.169,0.063,93.383,9.869,-8.840,1.028,0.970,513.542,"-2.071
"
130.439,0.141,0.464,0.891,0.067,-0.120,0.006,93.419,6.750,-12.521,0.617,0.924,514.968,"-2.109
"
130.691,0.203,0.491,0.871,0.048,-0.084,-0.022,93.448,5.245,-12.113,0.136,0.894,516.178,"-2.129
"
130.943,0.318,0.549,0.875,-0.032,-0.082,-0.074,93.475,4.101,-14.074,0.000,0.879,517.402,"-2.125
"
131.195,0.366,0.566,0.904,0.024,-0.094,-0.072,93.497,4.815,-14.000,0.080,0.886,518.628,"-2.096
"
131.446,0.392,0.571,0.914,0.017,-0.104,-0.041,93.518,5.620,-12.740,0.199,0.902,519.846,"-2.086
"
131.698,0.409,0.570,0.888,0.022,-0.112,-0.030,93.542,5.934,-12.363,0.288,0.903,521.059,"-2.112
"
131.950,0.416,0.576,0.833,0.036,-0.,0.0,0.0,0.0,0.0,0.0,0.0,0.0,0.0
