Time,X,Y,Z,Pitch,Yaw,Roll,errorHeight,errorRoll,errorPitch,errorYaw,HLeadOut,HIntegralOut,HeightError
0.253,-0.109,0.902,0.427,0.038,0.230,-0.025,484.474,-0.009,-0.039,0.047,0.426,0.000,"-3.573
"
0.505,-0.111,0.902,0.428,0.029,0.227,0.001,484.455,-0.060,0.062,0.073,0.428,0.000,"-3.572
"
0.758,-0.105,0.923,0.473,0.055,0.227,0.047,484.024,-0.922,-0.018,0.064,0.463,0.000,"-3.527
"
1.010,-0.093,0.979,0.592,0.048,0.213,0.033,482.685,-2.714,-0.064,0.158,0.570,0.000,"-3.408
"
1.263,-0.071,1.070,0.781,0.051,0.219,-0.022,480.461,-5.017,-0.156,0.237,0.749,0.000,"-3.219
"
1.516,-0.049,1.169,1.025,0.049,0.211,-0.062,477.526,-7.111,0.373,0.195,0.985,0.000,"-2.975
"
1.769,-0.032,1.253,1.301,-0.002,0.169,-0.034,474.223,-8.099,0.114,0.402,1.250,0.000,"-2.699
"
2.023,-0.030,1.299,1.558,0.042,0.202,-0.115,470.984,-7.741,-0.206,0.437,1.510,0.000,"-2.442
"
2.276,-0.036,1.305,1.784,0.049,0.203,-0.111,467.983,-6.625,0.188,0.459,1.752,0.000,"-2.216
"
2.529,-0.051,1.269,2.016,0.057,0.197,-0.095,465.207,-4.693,0.418,0.372,1.975,0.000,"-1.984
"
2.781,-0.065,1.207,2.210,0.057,0.203,-0.056,462.713,-2.867,0.505,0.538,2.175,0.000,"-1.790
"
3.034,-0.078,1.131,2.377,0.060,0.202,-0.038,460.577,-0.819,0.132,0.359,2.347,0.000,"-1.623
"
3.288,-0.085,1.061,2.518,0.051,0.215,-0.009,458.763,-0.889,0.021,0.341,2.492,0.000,"-1.482
"
3.541,-0.087,1.003,2.628,0.047,0.199,-0.002,457.300,-0.359,-0.226,0.393,2.610,0.000,"-1.372
"
3.794,-0.085,0.965,2.707,0.043,0.198,-0.006,456.246,-0.115,-0.351,0.220,2.695,0.000,"-1.293
"
4.047,-0.079,0.945,2.753,0.049,0.198,-0.021,455.613,0.473,-0.377,0.380,2.745,0.000,"-1.247
"
4.300,-0.070,0.940,2.762,0.040,0.198,-0.004,455.405,-0.368,-0.994,0.312,2.762,0.000,"-1.238
"
4.553,-0.063,0.941,2.736,0.035,0.211,-0.030,455.635,-1.940,-1.309,0.551,2.744,0.000,"-1.264
"
4.807,-0.065,0.946,2.683,0.020,0.324,0.111,456.242,-0.963,-0.533,0.195,2.695,0.000,"-1.317
"
5.060,-0.068,0.952,2.592,0.038,0.197,-0.042,457.345,-1.034,-0.419,0.295,2.606,0.000,"-1.408
"
5.313,-0.078,0.948,2.480,0.052,0.200,-0.042,458.690,-1.294,-0.495,0.611,2.498,0.000,"-1.520
"
5.566,-0.086,0.937,2.344,0.064,0.208,-0.046,460.283,0.066,-0.084,0.252,2.370,0.000,"-1.656
"
5.819,-0.085,0.920,2.189,0.074,0.216,-0.046,462.215,0.036,-0.442,0.323,2.215,0.000,"-1.811
"
6.072,-0.076,0.897,2.018,0.051,0.207,-0.040,464.336,0.521,-1.094,0.156,2.045,0.000,"-1.982
"
6.325,-0.065,0.870,1.839,0.036,0.226,-0.040,466.531,0.581,-1.495,0.016,1.868,0.000,"-2.161
"
6.578,-0.060,0.840,1.650,0.027,0.220,-0.038,468.816,1.648,-1.401,0.163,1.685,0.000,"-2.350
"
6.831,-0.064,0.813,1.460,0.037,0.222,-0.030,471.293,1.711,-1.278,0.271,1.485,0.000,"-2.540
"
7.084,-0.076,0.786,1.249,0.041,0.224,-0.032,473.825,2.288,-0.690,0.071,1.282,0.000,"-2.751
"
7.338,-0.097,0.765,1.043,-0.004,0.350,0.204,476.384,2.797,-0.706,0.042,1.076,0.000,"-2.957
"
7.590,-0.107,0.748,0.834,0.058,0.223,-0.012,478.951,3.522,0.327,0.009,0.870,0.000,"-3.166
"
7.843,-0.115,0.737,0.646,0.066,0.142,-0.140,481.285,3.126,-0.562,0.181,0.683,0.000,"-3.354
"
8.097,-0.113,0.728,0.510,0.080,0.238,-0.034,483.161,3.542,0.306,0.154,0.532,0.000,"-3.490
"
8.350,-0.087,0.723,0.434,0.104,0.239,-0.014,484.280,2.996,-1.524,-0.050,0.442,0.000,"-3.566
"
8.603,-0.077,0.737,0.502,0.069,0.245,-0.025,483.739,2.152,-1.125,-0.031,0.485,0.000,"-3.498
"
8.856,-0.054,0.750,0.613,0.044,0.242,-0.052,482.392,1.756,-2.050,-0.169,0.594,0.000,"-3.387
"
9.109,-0.031,0.758,0.762,-0.001,0.188,0.017,480.653,1.996,-2.313,-0.006,0.733,0.000,"-3.238
"
9.362,-0.022,0.752,0.928,0.021,0.302,0.068,478.668,2.744,-1.713,0.130,0.893,0.000,"-3.072
"
9.615,-0.017,0.733,1.092,0.038,0.234,-0.019,476.543,2.585,-2.171,-0.131,1.064,0.000,"-2.908
"
9.868,-0.025,0.711,1.259,0.038,0.227,-0.039,474.488,3.386,-2.138,0.121,1.229,0.000,"-2.741
"
10.121,-0.040,0.689,1.414,0.043,0.235,-0.029,472.520,3.636,-1.404,0.017,1.387,0.000,"-2.586
"
10.375,-0.064,0.670,1.560,0.046,0.231,-0.020,470.630,4.374,-1.072,0.165,1.539,0.000,"-2.440
"
10.628,-0.087,0.657,1.680,0.047,0.213,-0.026,469.093,4.123,-0.331,0.165,1.662,0.000,"-2.320
"
10.881,-0.106,0.650,1.781,0.055,0.204,-0.009,467.794,4.512,-0.607,0.163,1.767,0.000,"-2.219
"
11.134,-0.119,0.651,1.859,0.060,0.218,-0.016,466.772,4.240,-0.516,0.323,1.849,0.000,"-2.141
"
11.387,-0.125,0.655,1.925,0.057,0.203,-0.027,465.923,4.035,-0.639,0.022,1.917,0.000,"-2.075
"
11.640,-0.125,0.663,1.968,0.062,0.224,-0.017,465.363,3.450,-0.466,0.254,1.962,0.000,"-2.032
"
11.893,-0.120,0.664,1.991,0.061,0.198,-0.048,465.038,3.624,-0.708,0.332,1.988,0.000,"-2.009
"
12.146,-0.109,0.662,1.996,0.058,0.203,-0.048,464.948,3.804,-1.196,0.369,1.995,0.000,"-2.004
"
12.399,-0.096,0.654,1.986,0.046,0.214,-0.056,465.039,4.002,-1.496,0.358,1.988,0.000,"-2.014
"
12.652,-0.085,0.637,1.964,0.018,0.204,-0.039,465.272,4.444,-1.989,0.237,1.969,0.000,"-2.036
"
12.905,-0.084,0.618,1.934,0.036,0.221,-0.032,465.627,4.322,-1.482,0.212,1.941,0.000,"-2.066
"
13.158,-0.091,0.593,1.890,0.046,0.210,-0.036,466.102,5.659,-1.218,-0.022,1.903,0.000,"-2.110
"
13.412,-0.091,0.578,1.818,-0.013,-0.152,-0.585,466.796,6.200,0.924,0.068,1.847,0.000,"-2.182
"
13.664,-0.112,0.557,1.785,0.022,0.350,0.266,467.525,6.061,-1.088,0.234,1.788,0.000,"-2.215
"
13.917,-0.114,0.551,1.706,0.050,0.266,0.057,468.399,5.608,-1.137,0.232,1.718,0.000,"-2.294
"
14.171,-0.107,0.551,1.627,0.051,0.210,-0.016,469.307,5.577,-0.284,-0.161,1.645,0.000,"-2.373
"
14.424,-0.100,0.552,1.544,0.039,0.341,0.174,470.430,5.010,-2.307,0.221,1.555,0.000,"-2.456
"
14.677,-0.088,0.544,1.441,0.023,0.201,-0.038,471.585,5.352,-1.543,0.055,1.462,0.000,"-2.559
"
14.931,-0.080,0.535,1.346,0.033,0.302,0.092,472.853,5.894,-2.384,0.251,1.360,0.000,"-2.654
"
15.184,-0.078,0.522,1.244,-0.008,0.334,0.197,474.074,5.856,-3.677,0.254,1.262,0.000,"-2.756
"
15.437,-0.078,0.510,1.139,0.030,0.192,-0.032,475.317,6.457,-1.595,0.146,1.162,0.000,"-2.861
"
15.690,-0.087,0.498,1.043,0.050,0.191,-0.039,476.583,6.506,-1.033,0.209,1.060,0.000,"-2.957
"
15.944,-0.093,0.483,0.958,0.013,0.158,0.023,477.709,6.899,-1.189,0.791,0.970,0.000,"-3.042
"
16.197,-0.105,0.472,0.888,0.022,0.280,0.160,478.663,7.050,-1.978,0.563,0.893,0.000,"-3.112
"
16.450,-0.108,0.463,0.830,0.044,0.165,-0.020,479.360,7.305,-1.083,0.424,0.837,0.000,"-3.170
"
16.703,-0.114,0.460,0.803,0.065,0.171,-0.005,479.745,6.996,-1.015,0.886,0.806,0.000,"-3.197
"
16.956,-0.127,0.467,0.810,0.018,0.287,0.192,479.736,6.370,-1.834,0.088,0.807,0.000,"-3.190
"
17.209,-0.126,0.478,0.825,0.054,0.145,-0.005,479.594,6.227,0.042,0.769,0.819,0.000,"-3.175
"
17.462,-0.129,0.493,0.859,0.048,0.215,0.074,479.178,5.985,-0.852,0.871,0.852,0.000,"-3.141
"
17.716,-0.124,0.510,0.891,0.046,0.138,-0.025,478.774,5.856,-0.940,0.956,0.884,0.000,"-3.109
"
17.969,-0.124,0.531,0.930,0.019,0.229,0.109,478.324,5.167,-1.267,0.759,0.921,0.000,"-3.070
"
18.222,-0.122,0.547,0.957,0.063,0.145,-0.043,477.931,5.608,-0.469,0.679,0.952,0.000,"-3.043
"
18.475,-0.118,0.557,0.989,0.072,0.158,-0.048,477.543,4.823,-0.237,0.874,0.983,0.000,"-3.011
"
18.728,-0.108,0.559,1.022,0.054,0.170,-0.051,477.125,5.075,-0.494,0.761,1.017,0.000,"-2.978
"
18.981,-0.091,0.549,1.056,0.060,0.167,-0.034,476.710,5.053,-1.947,0.956,1.050,0.000,"-2.944
"
19.234,-0.076,0.531,1.091,0.031,0.180,-0.044,476.246,5.770,-2.195,0.455,1.088,0.000,"-2.909
"
19.488,-0.072,0.509,1.127,0.018,0.184,-0.014,475.814,6.503,-2.482,0.354,1.122,0.000,"-2.873
"
19.743,-0.088,0.489,1.169,0.008,0.291,0.128,475.394,6.420,-2.181,0.503,1.156,0.000,"-2.831
"
19.996,-0.108,0.469,1.194,0.046,0.197,-0.022,474.980,7.418,-0.689,-0.148,1.190,0.000,"-2.806
"
20.249,-0.134,0.456,1.216,0.052,0.190,-0.030,474.676,7.882,0.122,0.644,1.214,0.000,"-2.784
"
20.503,-0.155,0.449,1.228,0.086,0.047,-0.229,474.459,7.059,1.174,0.428,1.231,0.000,"-2.772
"
20.756,-0.175,0.440,1.250,0.017,0.401,0.308,474.252,7.269,-1.516,-0.617,1.248,0.000,"-2.750
"
21.009,-0.174,0.440,1.245,-0.002,0.306,0.219,474.318,7.108,-0.372,-0.715,1.242,0.000,"-2.755
"
21.263,-0.164,0.438,1.227,0.079,0.192,-0.014,474.500,8.233,-0.669,0.365,1.228,0.000,"-2.773
"
21.516,-0.159,0.452,1.210,0.048,0.184,0.011,474.691,6.765,-1.027,0.784,1.212,0.000,"-2.790
"
21.769,-0.153,0.466,1.195,0.030,0.174,-0.012,474.892,6.670,-0.425,0.547,1.196,0.000,"-2.805
"
22.023,-0.146,0.482,1.163,0.042,0.183,-0.038,475.207,6.352,-0.151,0.245,1.171,0.000,"-2.837
"
22.276,-0.143,0.487,1.136,0.048,0.177,-0.033,475.597,6.667,-0.880,0.635,1.140,0.000,"-2.864
"
22.529,-0.144,0.480,1.105,0.061,0.193,-0.031,475.938,6.633,-0.934,0.592,1.112,0.000,"-2.895
"
22.782,-0.147,0.468,1.079,0.052,0.187,-0.032,476.228,7.302,-0.235,0.217,1.089,0.000,"-2.921
"
23.035,-0.154,0.456,1.057,0.034,0.294,0.160,476.606,7.440,-0.797,0.129,1.059,0.000,"-2.943
"
23.288,-0.155,0.444,1.026,0.007,0.153,0.015,476.883,7.396,-0.805,-0.236,1.036,0.000,"-2.974
"
23.541,-0.166,0.442,1.009,0.012,0.309,0.201,477.223,7.008,-1.643,0.330,1.009,0.000,"-2.991
"
23.794,-0.179,0.443,0.993,-0.028,0.319,0.257,477.431,7.219,-1.318,-0.104,0.992,0.000,"-3.007
"
24.046,-0.198,0.450,0.975,-0.004,0.299,0.212,477.643,7.344,-0.181,0.003,0.975,0.000,"-3.025
"
24.299,-0.218,0.461,0.956,0.044,0.243,0.091,477.873,6.892,0.486,0.487,0.957,0.000,"-3.044
"
24.552,-0.234,0.477,0.935,0.087,0.165,-0.052,478.061,6.365,1.160,0.676,0.942,0.000,"-3.065
"
24.804,-0.232,0.495,0.933,0.088,0.168,-0.035,478.159,6.190,0.875,0.745,0.934,0.000,"-3.067
"
25.058,-0.218,0.503,0.930,0.066,0.168,-0.035,478.174,6.109,0.357,0.404,0.933,0.000,"-3.070
"
25.310,-0.186,0.500,0.937,0.071,0.174,-0.030,478.157,6.408,-0.343,0.658,0.934,0.000,"-3.063
"
25.563,-0.153,0.481,0.948,-0.003,0.139,0.021,478.014,6.780,-1.114,0.557,0.945,0.000,"-3.052
"
25.817,-0.128,0.458,0.954,0.013,0.091,-0.142,477.894,8.068,-0.863,0.603,0.955,0.000,"-3.046
"
26.070,-0.122,0.432,0.970,0.019,0.201,-0.031,477.718,8.264,-1.589,0.245,0.969,0.000,"-3.030
"
26.323,-0.133,0.413,0.977,0.035,0.196,-0.011,477.579,8.061,0.023,-0.364,0.980,0.000,"-3.023
"
26.576,-0.153,0.407,0.986,0.025,0.318,0.208,477.578,7.954,-1.070,0.050,0.980,0.000,"-3.014
"
26.829,-0.166,0.406,0.972,0.065,0.184,-0.021,477.630,8.168,-0.790,0.244,0.976,0.000,"-3.028
"
27.082,-0.177,0.417,0.957,0.061,0.187,-0.026,477.796,7.642,-0.388,0.129,0.963,0.000,"-3.043
"
27.335,-0.180,0.433,0.948,0.035,0.322,0.213,478.020,6.960,-1.969,0.565,0.945,0.000,"-3.052
"
27.588,-0.178,0.449,0.936,-0.007,0.345,0.265,478.134,6.406,-1.156,-0.406,0.936,0.000,"-3.064
"
27.841,-0.161,0.477,0.916,0.045,0.177,-0.013,478.370,6.209,-0.689,0.315,0.917,0.000,"-3.084
"
28.094,-0.157,0.498,0.913,0.045,0.173,-0.041,478.422,5.709,-0.250,0.611,0.913,0.000,"-3.087
"
28.347,-0.156,0.511,0.926,0.063,0.177,-0.047,478.314,5.391,-0.220,0.674,0.921,0.000,"-3.074
"
28.600,-0.157,0.511,0.944,0.056,0.179,-0.054,478.071,6.093,-1.432,0.610,0.941,0.000,"-3.056
"
28.853,-0.162,0.501,0.975,0.022,0.305,0.157,477.721,6.606,-1.286,0.129,0.969,0.000,"-3.025
"
29.106,-0.163,0.482,1.003,0.028,0.319,0.183,477.439,6.788,-1.730,0.564,0.992,0.000,"-2.997
"
29.359,-0.165,0.461,1.018,0.030,0.185,-0.026,477.142,7.109,-0.069,0.305,1.016,0.000,"-2.982
"
29.612,-0.170,0.446,1.045,0.039,0.315,0.160,476.881,7.411,-1.493,0.271,1.036,0.000,"-2.955
"
29.865,-0.179,0.437,1.067,-0.018,0.364,0.274,476.630,7.828,-1.712,-0.036,1.057,0.000,"-2.933
"
30.118,-0.181,0.437,1.076,0.044,0.187,-0.012,476.414,7.565,0.075,0.174,1.074,0.000,"-2.924
"
30.371,-0.191,0.453,1.095,0.062,0.183,-0.018,476.167,7.054,0.301,0.311,1.094,0.000,"-2.905
"
30.625,-0.200,0.476,1.108,0.068,0.206,-0.006,476.035,5.798,0.159,0.657,1.104,0.000,"-2.892
"
30.877,-0.211,0.494,1.124,0.048,0.240,0.058,475.792,6.211,0.509,0.008,1.124,0.000,"-2.876
"
31.130,-0.212,0.501,1.126,0.060,0.080,-0.157,475.749,6.161,1.055,0.760,1.127,0.000,"-2.874
"
31.383,-0.215,0.497,1.134,0.076,0.191,-0.014,475.661,6.677,0.237,0.498,1.135,0.000,"-2.866
"
31.636,-0.214,0.494,1.143,0.003,0.351,0.262,475.635,6.699,-1.946,0.198,1.137,0.000,"-2.857
"
31.889,-0.209,0.486,1.131,-0.011,0.298,0.187,475.742,7.048,0.192,0.140,1.128,0.000,"-2.869
"
32.142,-0.204,0.473,1.105,0.067,0.180,-0.028,475.990,6.958,0.514,0.498,1.108,0.000,"-2.895
"
32.399,-0.204,0.463,1.081,0.049,0.165,-0.013,476.252,7.121,-0.002,0.490,1.087,0.000,"-2.919
"
32.652,-0.200,0.460,1.057,0.048,0.184,-0.019,476.544,7.491,-0.244,0.274,1.064,0.000,"-2.943
"
32.905,-0.195,0.460,1.032,0.051,0.168,-0.031,476.850,7.173,-0.365,0.315,1.039,0.000,"-2.968
"
33.158,-0.193,0.466,1.007,-0.000,0.118,0.041,477.180,7.047,0.427,0.330,1.012,0.000,"-2.993
"
33.411,-0.198,0.476,0.990,0.036,0.267,0.111,477.457,6.594,0.047,0.662,0.990,0.000,"-3.010
"
33.664,-0.196,0.485,0.964,0.051,0.160,-0.027,477.728,6.223,0.516,0.567,0.968,0.000,"-3.036
"
33.917,-0.192,0.490,0.945,0.065,0.159,-0.026,477.962,6.205,0.238,0.338,0.950,0.000,"-3.055
"
34.170,-0.191,0.490,0.929,0.048,0.161,-0.043,478.148,6.477,-0.048,0.352,0.935,0.000,"-3.071
"
34.423,-0.191,0.492,0.931,0.013,0.304,0.238,478.275,6.280,-0.607,0.670,0.924,0.000,"-3.069
"
34.676,-0.185,0.491,0.918,0.054,0.167,-0.013,478.340,6.388,0.859,0.856,0.919,0.000,"-3.082
"
34.929,-0.184,0.493,0.921,0.025,0.291,0.173,478.331,6.279,-0.839,-0.007,0.920,0.000,"-3.079
"
35.182,-0.182,0.496,0.911,0.013,0.142,-0.007,478.427,6.236,0.256,0.632,0.912,0.000,"-3.089
"
35.435,-0.182,0.503,0.913,0.071,0.161,-0.052,478.421,6.120,0.664,0.879,0.913,0.000,"-3.087
"
35.688,-0.179,0.511,0.916,0.077,0.179,-0.040,478.378,6.121,-0.027,0.778,0.916,0.000,"-3.084
"
35.941,-0.166,0.517,0.916,0.063,0.172,-0.027,478.383,6.053,-0.392,0.715,0.916,0.000,"-3.084
"
36.194,-0.147,0.531,0.924,0.032,0.295,0.156,478.282,5.376,-1.660,-0.156,0.924,0.000,"-3.076
"
36.446,-0.126,0.544,0.916,0.027,0.195,-0.044,478.342,5.054,-2.512,0.029,0.919,0.000,"-3.084
"
36.700,-0.122,0.563,0.909,0.021,0.199,-0.045,478.438,3.730,-1.555,0.171,0.911,0.000,"-3.091
"
36.953,-0.140,0.576,0.906,-0.013,0.336,0.216,478.577,4.056,-1.775,0.452,0.900,0.000,"-3.094
"
37.206,-0.165,0.581,0.879,0.041,0.192,-0.035,478.822,4.910,-0.095,0.728,0.881,0.000,"-3.121
"
37.461,-0.200,0.578,0.857,0.052,0.186,-0.036,479.051,5.616,1.390,0.618,0.862,0.000,"-3.143
"
37.714,-0.230,0.572,0.847,0.036,0.354,0.223,479.273,5.901,0.399,0.234,0.844,0.000,"-3.153
"
37.967,-0.239,0.557,0.826,0.080,0.196,-0.023,479.436,6.356,1.391,-0.175,0.831,0.000,"-3.174
"
38.220,-0.234,0.537,0.819,0.089,0.198,-0.025,479.585,6.764,0.541,0.452,0.819,0.000,"-3.181
"
38.474,-0.216,0.516,0.823,0.045,0.298,0.158,479.593,6.913,-0.189,-0.160,0.819,0.000,"-3.177
"
38.727,-0.182,0.495,0.820,0.058,0.199,-0.017,479.555,6.831,-0.854,-0.012,0.822,0.000,"-3.180
"
38.980,-0.150,0.482,0.834,0.030,0.188,-0.012,479.448,6.673,-1.820,0.331,0.830,0.000,"-3.166
"
39.233,-0.128,0.483,0.859,0.028,0.194,-0.010,479.167,6.080,-2.054,0.776,0.853,0.000,"-3.141
"
39.483,-0.119,0.495,0.896,0.034,0.185,-0.020,478.679,5.790,-1.217,0.302,0.892,0.000,"-3.104
"
39.736,-0.126,0.518,0.947,0.018,0.175,-0.028,478.111,5.859,-1.556,0.220,0.938,0.000,"-3.053
"
39.989,-0.147,0.545,0.999,0.030,0.178,-0.032,477.472,4.742,0.792,0.075,0.991,0.000,"-3.001
"
40.242,-0.175,0.563,1.057,0.044,0.292,0.156,476.812,4.814,0.568,0.471,1.042,0.000,"-2.943
"
40.495,-0.195,0.573,1.097,0.071,0.176,-0.038,476.252,4.995,0.819,0.620,1.087,0.000,"-2.903
"
40.748,-0.211,0.574,1.136,0.063,0.168,-0.044,475.716,5.217,1.647,0.563,1.130,0.000,"-2.864
"
41.001,-0.212,0.568,1.170,0.092,0.174,-0.031,475.285,6.370,1.224,0.514,1.165,0.000,"-2.830
"
41.254,-0.200,0.559,1.210,0.052,0.261,0.144,474.901,6.144,-0.887,0.532,1.196,0.000,"-2.790
"
41.508,-0.176,0.544,1.226,0.052,0.165,-0.052,474.564,6.114,-0.631,0.665,1.223,0.000,"-2.774
"
41.761,-0.150,0.537,1.233,0.047,0.045,-0.229,474.406,6.259,-0.672,0.642,1.235,0.000,"-2.767
"
42.014,-0.134,0.521,1.238,0.039,0.181,-0.005,474.231,6.292,-1.584,-0.526,1.249,0.000,"-2.762
"
42.266,-0.124,0.509,1.227,0.024,0.169,-0.023,474.461,6.370,-2.345,0.397,1.231,0.000,"-2.773
"
42.519,-0.123,0.500,1.205,0.039,0.178,-0.009,474.686,6.837,-1.623,0.444,1.213,0.000,"-2.795
"
42.772,-0.125,0.498,1.178,0.069,0.189,-0.014,475.039,6.672,-1.042,0.684,1.184,0.000,"-2.822
"
43.025,-0.129,0.501,1.141,0.059,0.199,-0.013,475.455,6.633,-1.194,0.131,1.151,0.000,"-2.859
"
43.279,-0.130,0.504,1.093,0.049,0.181,-0.041,476.048,6.601,-1.538,0.571,1.103,0.000,"-2.907
"
43.532,-0.133,0.509,1.044,0.052,0.191,-0.039,476.630,5.879,-0.665,0.418,1.057,0.000,"-2.956
"
43.785,-0.138,0.511,0.998,0.047,0.306,0.143,477.307,6.430,-1.325,0.700,1.002,0.000,"-3.002
"
44.037,-0.134,0.506,0.940,0.069,0.191,-0.035,477.930,6.322,-0.509,0.331,0.952,0.000,"-3.060
"
44.290,-0.125,0.494,0.892,0.069,0.187,-0.050,478.541,6.138,-0.908,0.432,0.903,0.000,"-3.108
"
44.543,-0.113,0.481,0.851,0.041,0.188,-0.019,479.094,6.714,-1.466,0.554,0.859,0.000,"-3.149
"
44.797,-0.101,0.461,0.820,0.043,0.183,-0.014,479.433,7.328,-1.548,-0.241,0.831,0.000,"-3.180
"
45.048,-0.093,0.446,0.805,0.037,0.138,-0.094,479.702,7.455,-1.436,0.420,0.810,0.000,"-3.195
"
45.300,-0.089,0.434,0.813,0.058,0.184,-0.026,479.679,7.401,-1.808,0.444,0.812,0.000,"-3.187
"
45.553,-0.083,0.431,0.823,0.064,0.069,-0.208,479.508,7.495,-0.768,0.703,0.825,0.000,"-3.177
"
45.806,-0.079,0.429,0.859,0.061,0.186,-0.002,479.138,7.052,-1.508,0.363,0.855,0.000,"-3.141
"
46.059,-0.070,0.434,0.891,0.056,0.191,-0.026,478.763,6.738,-2.125,0.539,0.885,0.000,"-3.109
"
46.312,-0.059,0.446,0.932,0.050,0.194,-0.015,478.309,6.717,-2.616,0.441,0.922,0.000,"-3.068
"
46.565,-0.052,0.465,0.975,0.038,0.178,-0.017,477.754,6.244,-2.503,0.607,0.966,0.000,"-3.025
"
46.818,-0.052,0.487,1.021,0.041,0.183,-0.029,477.162,5.392,-1.454,0.234,1.014,0.000,"-2.979
"
47.071,-0.050,0.512,1.061,0.061,0.038,-0.269,476.581,5.457,-0.851,0.320,1.061,0.000,"-2.939
"
47.324,-0.055,0.504,1.091,0.073,0.086,-0.290,476.207,6.163,-0.843,1.237,1.091,0.000,"-2.909
"
47.578,-0.051,0.472,1.099,0.031,0.136,-0.004,476.172,7.441,-2.153,1.247,1.093,0.000,"-2.901
"
47.831,-0.040,0.411,1.180,0.079,0.166,-0.011,475.322,8.735,-3.339,0.784,1.162,0.000,"-2.820
"
48.084,-0.012,0.362,1.373,0.053,0.244,0.154,473.253,8.971,-4.633,0.461,1.328,0.000,"-2.627
"
48.337,0.032,0.341,1.561,0.072,0.157,0.032,470.914,9.189,-5.270,0.763,1.516,0.000,"-2.439
"
48.590,0.086,0.359,1.757,0.060,0.155,0.018,468.440,7.530,-5.645,0.586,1.715,0.000,"-2.243
"
48.843,0.150,0.411,1.945,0.062,0.152,0.037,466.073,5.273,-5.991,0.785,1.905,0.000,"-2.055
"
49.096,0.211,0.495,2.103,-0.001,0.149,0.022,463.997,2.935,-7.097,0.685,2.072,0.000,"-1.897
"
49.348,0.250,0.610,2.231,-0.035,0.151,0.018,462.333,1.441,-6.950,0.727,2.206,0.000,"-1.769
"
49.601,0.249,0.750,2.335,-0.025,0.162,0.046,461.004,-2.064,-5.974,0.944,2.312,0.000,"-1.665
"
49.854,0.219,0.905,2.411,0.022,0.093,-0.067,459.896,-3.766,-3.592,0.594,2.401,0.000,"-1.589
"
50.107,0.161,1.080,2.473,-0.003,0.109,0.024,459.136,-7.806,-1.465,0.830,2.462,0.000,"-1.527
"
50.359,0.097,1.260,2.503,0.049,0.052,-0.149,458.639,-9.283,-1.123,1.253,2.502,0.000,"-1.497
"
50.612,0.025,1.433,2.523,0.040,0.147,-0.019,458.415,-13.054,1.168,1.188,2.520,0.000,"-1.477
"
50.865,-0.048,1.599,2.522,0.037,0.121,-0.040,458.412,-14.519,2.629,1.641,2.521,0.000,"-1.478
"
51.118,-0.126,1.753,2.504,0.024,0.075,-0.035,458.571,-16.628,3.221,1.773,2.508,0.000,"-1.496
"
51.370,-0.220,1.896,2.466,0.018,0.028,-0.031,458.995,-19.129,3.942,2.311,2.474,0.000,"-1.534
"
51.623,-0.324,2.031,2.414,0.024,0.014,0.000,459.609,-19.668,5.877,2.513,2.424,0.000,"-1.586
"
51.876,-0.441,2.173,2.346,0.031,0.010,0.010,460.409,-19.986,7.905,2.605,2.360,0.000,"-1.654
"
52.129,-0.561,2.320,2.259,0.039,-0.017,-0.024,461.447,-20.436,9.567,2.727,2.277,0.000,"-1.741
"
52.382,-0.683,2.462,2.156,0.041,-0.047,-0.053,462.700,-21.044,11.227,3.053,2.176,0.000,"-1.844
"
52.636,-0.806,2.583,2.035,0.027,-0.091,-0.062,464.174,-20.751,12.175,3.529,2.058,0.000,"-1.965
"
52.889,-0.933,2.679,1.909,0.015,-0.136,-0.049,465.759,-21.302,13.579,3.964,1.930,0.000,"-2.091
"
53.142,-1.063,2.750,1.862,0.044,-0.140,-0.051,466.569,-20.769,15.324,4.217,1.865,0.000,"-2.138
"
53.394,-1.202,2.785,1.894,-0.010,-0.164,-0.066,466.325,-20.539,16.756,4.397,1.885,0.000,"-2.106
"
53.647,-1.336,2.805,1.986,0.101,-0.162,-0.021,465.334,-20.151,16.732,4.432,1.964,0.000,"-2.014
"
53.900,-1.449,2.814,2.092,0.109,-0.162,-0.029,464.045,-19.626,16.628,4.574,2.068,0.000,"-1.908
"
54.152,-1.524,2.825,2.189,0.095,-0.172,-0.038,462.780,-20.062,15.190,4.592,2.170,0.000,"-1.811
"
54.405,-1.565,2.834,2.258,0.093,-0.170,-0.039,461.839,-19.755,14.534,4.576,2.245,0.000,"-1.742
"
54.657,-1.577,2.835,2.296,0.095,-0.163,-0.047,461.295,-19.038,14.288,4.597,2.289,0.000,"-1.704
"
54.910,-1.562,2.826,2.305,0.092,-0.159,-0.051,461.090,-18.837,13.520,4.520,2.305,0.000,"-1.695
"
55.162,-1.529,2.811,2.288,0.060,-0.158,-0.006,461.225,-18.507,13.159,4.432,2.295,0.000,"-1.712
"
55.415,-1.488,2.803,2.249,0.054,-0.145,0.006,461.657,-18.648,13.062,4.408,2.260,0.000,"-1.751
"
