Time,X,Y,Z,Pitch,Yaw,Roll,errorHeight,errorRoll,errorPitch,errorYaw,HLeadOut,HIntegralOut,HeightError
0.252,-2.202,2.116,0.410,0.013,-0.291,-0.009,460.372,-0.001,0.003,0.029,0.410,0.000,"-3.590
"
0.504,-2.203,2.117,0.411,0.014,-0.292,-0.009,460.366,-0.013,-0.010,0.025,0.410,0.000,"-3.589
"
0.757,-2.209,2.128,0.424,0.031,-0.287,0.030,460.257,-0.265,0.072,0.007,0.415,0.000,"-3.576
"
1.009,-2.233,2.185,0.514,0.050,-0.300,0.058,459.520,-1.374,0.164,0.074,0.448,0.000,"-3.486
"
1.261,-2.258,2.261,0.621,0.050,-0.309,0.026,457.587,-3.093,0.161,0.178,0.534,0.000,"-3.379
"
1.513,-2.296,2.411,0.827,0.054,-0.316,-0.020,454.681,-5.254,-0.030,0.249,0.664,0.000,"-3.173
"
1.765,-2.318,2.513,0.973,0.047,-0.321,-0.051,451.091,-7.423,-0.333,0.354,0.824,0.000,"-3.027
"
2.017,-2.333,2.611,1.121,0.050,-0.323,-0.091,447.423,-12.919,-1.295,0.406,0.988,0.000,"-2.879
"
2.268,-2.340,2.684,1.263,0.026,-0.323,-0.146,443.770,-10.365,-1.012,0.415,1.151,0.000,"-2.737
"
2.521,-2.331,2.700,1.367,0.032,-0.328,-0.148,440.977,-10.057,-1.433,0.440,1.276,0.000,"-2.633
"
2.773,-2.301,2.630,1.437,0.025,-0.329,-0.153,438.861,-6.681,-1.297,0.470,1.371,0.000,"-2.563
"
3.024,-2.269,2.541,1.447,0.037,-0.330,-0.107,437.747,-3.129,-1.243,0.482,1.421,0.000,"-2.553
"
3.276,-2.208,2.355,1.409,0.039,-0.336,-0.037,437.553,0.142,-1.092,0.527,1.429,0.000,"-2.591
"
3.528,-2.169,2.231,1.349,0.035,-0.337,-0.004,438.356,-0.400,-1.075,0.565,1.393,0.000,"-2.651
"
3.780,-2.114,2.063,1.204,0.041,-0.340,0.009,439.962,5.256,-0.963,0.588,1.322,0.000,"-2.796
"
4.032,-2.087,1.982,1.073,0.041,-0.341,0.073,442.492,4.901,-0.896,0.599,1.209,0.000,"-2.927
"
4.284,-2.068,1.922,0.841,0.035,-0.344,0.084,446.437,4.400,-0.913,0.621,1.032,0.000,"-3.159
"
4.536,-2.070,1.928,0.663,0.038,-0.343,0.064,450.664,3.622,-0.937,0.636,0.844,0.000,"-3.337
"
4.788,-2.088,1.974,0.482,0.035,-0.346,0.053,455.414,2.408,-0.913,0.647,0.631,0.000,"-3.518
"
5.040,-2.112,2.026,0.456,0.014,-0.339,-0.056,458.487,1.260,-0.893,0.635,0.494,0.000,"-3.544
"
5.292,-2.127,2.060,0.535,0.051,-0.336,0.002,458.302,0.874,-0.803,0.571,0.502,0.000,"-3.465
"
5.545,-2.149,2.120,0.672,0.064,-0.336,-0.005,456.571,-0.076,-0.749,0.568,0.580,0.000,"-3.328
"
5.797,-2.161,2.175,0.768,0.052,-0.337,-0.016,454.232,-1.120,-0.951,0.557,0.684,0.000,"-3.232
"
6.049,-2.169,2.260,0.900,0.038,-0.335,-0.049,451.868,-2.345,-1.301,0.555,0.790,0.000,"-3.100
"
6.301,-2.170,2.307,0.976,0.042,-0.332,-0.061,449.496,-3.132,-1.579,0.523,0.896,0.000,"-3.024
"
6.553,-2.165,2.348,1.052,0.031,-0.333,-0.077,447.562,-4.037,-2.078,0.519,0.982,0.000,"-2.948
"
6.805,-2.153,2.355,1.097,0.028,-0.334,-0.091,446.106,-3.662,-2.340,0.528,1.047,0.000,"-2.903
"
7.057,-2.140,2.338,1.108,0.026,-0.330,-0.090,445.196,-2.663,-2.247,0.503,1.088,0.000,"-2.892
"
7.308,-2.116,2.272,1.084,0.023,-0.327,-0.076,444.996,0.272,-2.165,0.465,1.097,0.000,"-2.916
"
7.560,-2.102,2.211,1.038,0.022,-0.328,-0.039,445.616,-0.092,-1.936,0.454,1.069,0.000,"-2.962
"
7.813,-2.090,2.113,0.933,0.030,-0.330,-0.028,446.983,1.102,-1.562,0.473,1.008,0.000,"-3.067
"
8.065,-2.089,2.050,0.835,0.035,-0.329,-0.014,449.039,1.952,-1.211,0.477,0.916,0.000,"-3.165
"
8.317,-2.094,1.970,0.661,0.045,-0.334,0.004,451.451,3.366,-0.577,0.467,0.808,0.000,"-3.339
"
8.569,-2.100,1.938,0.543,0.059,-0.329,0.023,454.751,3.659,-0.405,0.479,0.661,0.000,"-3.457
"
8.821,-2.104,1.915,0.417,0.062,-0.331,-0.028,457.817,3.460,-0.395,0.472,0.524,0.000,"-3.583
"
9.073,-2.103,1.910,0.465,0.062,-0.321,0.015,459.133,3.655,-0.415,0.410,0.465,0.000,"-3.535
"
9.325,-2.094,1.929,0.551,0.071,-0.321,0.028,458.434,3.365,-0.702,0.396,0.496,0.000,"-3.449
"
9.578,-2.086,1.982,0.647,0.050,-0.328,0.021,456.831,2.238,-1.241,0.420,0.568,0.000,"-3.353
"
9.830,-2.081,2.051,0.730,0.042,-0.325,0.015,454.796,0.763,-1.848,0.439,0.664,0.000,"-3.270
"
10.082,-2.083,2.174,0.844,0.021,-0.329,-0.021,452.505,-0.999,-2.321,0.461,0.761,0.000,"-3.156
"
10.334,-2.093,2.254,0.904,0.021,-0.329,-0.045,450.624,-2.299,-2.507,0.475,0.845,0.000,"-3.096
"
10.586,-2.114,2.352,0.970,0.024,-0.334,-0.081,449.052,-3.560,-2.591,0.514,0.916,0.000,"-3.030
"
10.838,-2.131,2.391,0.993,0.018,-0.334,-0.098,447.979,-4.813,-2.396,0.529,0.963,0.000,"-3.007
"
11.091,-2.150,2.392,0.987,0.022,-0.333,-0.126,447.489,-4.249,-2.001,0.520,0.985,0.000,"-3.013
"
11.342,-2.154,2.380,0.978,0.023,-0.334,-0.127,447.570,-3.514,-1.794,0.529,0.982,0.000,"-3.022
"
11.594,-2.160,2.244,0.879,0.044,-0.332,-0.088,448.495,-1.161,-0.966,0.524,0.940,0.000,"-3.121
"
11.846,-2.149,2.137,0.793,0.056,-0.331,-0.054,450.085,2.083,-0.330,0.500,0.869,0.000,"-3.207
"
12.098,-2.134,2.042,0.707,0.059,-0.330,-0.024,452.186,2.804,-0.359,0.492,0.776,0.000,"-3.293
"
12.350,-2.100,1.902,0.558,0.060,-0.326,0.010,454.695,4.699,-0.335,0.444,0.663,0.000,"-3.442
"
12.603,-2.077,1.836,0.471,0.060,-0.328,0.029,457.165,5.419,-0.412,0.455,0.553,0.000,"-3.529
"
12.855,-2.046,1.775,0.429,0.061,-0.326,0.009,459.111,6.276,-0.657,0.453,0.466,0.000,"-3.571
"
13.107,-2.034,1.772,0.472,0.075,-0.322,0.068,459.326,6.079,-0.865,0.404,0.457,0.000,"-3.528
"
13.359,-2.022,1.827,0.556,0.052,-0.329,0.067,458.461,5.125,-1.297,0.434,0.495,0.000,"-3.444
"
13.611,-2.028,1.905,0.612,0.027,-0.332,0.042,457.043,3.454,-1.693,0.487,0.559,0.000,"-3.388
"
13.864,-2.056,2.060,0.689,0.030,-0.331,0.005,455.636,1.817,-1.936,0.554,0.621,0.000,"-3.311
"
14.115,-2.088,2.178,0.736,0.020,-0.334,-0.023,454.233,-1.088,-2.076,0.506,0.684,0.000,"-3.264
"
14.368,-2.128,2.291,0.774,0.021,-0.333,-0.054,453.042,-3.906,-2.022,0.521,0.737,0.000,"-3.226
"
14.620,-2.190,2.414,0.806,0.021,-0.329,-0.113,452.139,-5.377,-1.574,0.489,0.778,0.000,"-3.194
"
14.872,-2.228,2.458,0.808,0.030,-0.332,-0.141,451.668,-6.553,-0.894,0.502,0.799,0.000,"-3.192
"
15.123,-2.261,2.457,0.788,0.045,-0.332,-0.160,451.715,-5.552,-0.527,0.501,0.797,0.000,"-3.212
"
15.376,-2.273,2.379,0.731,0.061,-0.326,-0.148,452.356,-2.755,0.910,0.468,0.768,0.000,"-3.269
"
15.628,-2.240,2.222,0.636,0.085,-0.334,-0.096,453.784,-1.035,0.211,0.531,0.704,0.000,"-3.364
"
15.880,-2.193,2.088,0.560,0.063,-0.330,-0.081,455.552,1.317,0.044,0.503,0.625,0.000,"-3.440
"
16.132,-2.100,1.885,0.458,0.063,-0.329,-0.008,457.367,4.880,-0.423,0.490,0.544,0.000,"-3.542
"
16.384,-2.033,1.762,0.415,0.061,-0.330,0.000,459.113,7.036,-0.856,0.463,0.466,0.000,"-3.585
"
16.637,-2.002,1.668,0.493,0.038,-0.336,0.073,459.315,8.525,-0.656,0.480,0.457,0.000,"-3.507
"
16.889,-1.990,1.636,0.588,0.049,-0.333,0.100,457.925,8.551,-0.684,0.522,0.519,0.000,"-3.412
"
17.141,-1.999,1.661,0.663,0.043,-0.337,0.109,456.041,7.575,-0.637,0.558,0.603,0.000,"-3.337
"
17.393,-2.046,1.791,0.756,0.040,-0.339,0.075,454.192,4.911,-0.605,0.556,0.686,0.000,"-3.244
"
17.645,-2.095,1.927,0.801,0.042,-0.337,0.053,452.657,2.415,-0.571,0.547,0.755,0.000,"-3.199
"
17.898,-2.183,2.167,0.837,0.045,-0.340,-0.013,451.573,-1.992,-0.544,0.583,0.803,0.000,"-3.163
"
18.149,-2.241,2.325,0.840,0.035,-0.338,-0.059,451.015,-5.569,-0.468,0.582,0.828,0.000,"-3.160
"
18.402,-2.332,2.556,0.847,0.038,-0.336,-0.027,450.792,-8.509,-0.317,0.587,0.838,0.000,"-3.153
"
18.654,-2.393,2.702,0.859,0.039,-0.339,-0.022,450.553,-10.739,-0.188,0.584,0.849,0.000,"-3.141
"
18.906,-2.471,2.870,0.887,0.035,-0.354,-0.165,450.208,-12.598,-0.176,0.668,0.864,0.000,"-3.113
"
19.158,-2.503,2.928,0.906,0.039,-0.356,-0.172,449.705,-14.240,0.063,0.758,0.886,0.000,"-3.094
"
19.410,-2.520,2.939,0.932,0.043,-0.391,-0.160,449.162,-14.774,0.250,0.997,0.911,0.000,"-3.068
"
19.662,-2.510,2.868,1.009,0.030,-0.463,-0.139,448.205,-10.395,-0.085,1.657,0.953,0.000,"-2.991
"
19.914,-2.483,2.753,1.126,0.028,-0.488,-0.087,446.190,-9.190,-0.288,2.183,1.043,0.000,"-2.874
"
20.166,-2.440,2.567,1.238,0.036,-0.491,-0.046,443.783,-6.000,0.487,2.303,1.151,0.000,"-2.762
"
20.419,-2.407,2.436,1.249,0.062,-0.498,-0.048,442.295,-5.011,0.696,2.376,1.217,0.000,"-2.751
"
20.671,-2.353,2.262,1.180,0.078,-0.502,-0.014,442.198,1.650,2.016,2.418,1.222,0.000,"-2.820
"
20.923,-2.306,2.153,1.074,0.067,-0.505,-0.026,443.631,0.188,1.369,2.469,1.158,0.000,"-2.926
"
21.175,-2.226,2.010,0.859,0.059,-0.50,0.0,0.0,0.0,0.0,0.0,0.0,0.0,0.0
