Time,X,Y,Z,Pitch,Yaw,Roll,errorHeight,errorRoll,errorPitch,errorYaw,HLeadOut,HIntegralOut,HeightError
0.252,0.007,3.332,0.412,0.018,1.606,-0.030,87.685,0.005,-0.075,"0.032
",0.0,0.0,0.0
0.505,0.007,3.330,0.414,0.024,1.607,-0.031,87.727,-0.037,-0.031,"0.014
",0.0,0.0,0.0
0.756,0.023,3.331,0.431,0.055,1.605,0.020,87.767,-0.629,-0.015,"0.027
",0.0,0.0,0.0
1.008,0.058,3.336,0.483,0.052,1.592,0.020,87.797,-1.626,0.218,"0.141
",0.0,0.0,0.0
1.260,0.115,3.339,0.568,0.055,1.580,-0.023,87.813,-2.975,0.170,"0.218
",0.0,0.0,0.0
1.512,0.182,3.344,0.677,0.046,1.574,-0.047,87.815,-4.147,0.325,"0.339
",0.0,0.0,0.0
1.764,0.233,3.354,0.785,0.045,1.570,-0.081,87.809,-4.633,0.546,"0.439
",0.0,0.0,0.0
2.017,0.257,3.371,0.873,0.043,1.565,-0.088,87.804,-4.487,0.936,"0.492
",0.0,0.0,0.0
2.269,0.248,3.394,0.935,0.043,1.558,-0.093,87.806,-3.614,1.428,"0.547
",0.0,0.0,0.0
2.521,0.207,3.420,0.971,0.052,1.556,-0.078,87.817,-2.311,1.918,"0.571
",0.0,0.0,0.0
2.774,0.143,3.447,0.988,0.058,1.553,-0.060,87.837,-0.819,2.356,"0.610
",0.0,0.0,0.0
3.026,0.066,3.469,0.985,0.066,1.550,-0.038,87.865,0.682,2.636,"0.626
",0.0,0.0,0.0
3.278,-0.012,3.485,0.963,0.068,1.549,-0.021,87.902,1.876,2.771,"0.670
",0.0,0.0,0.0
3.530,-0.079,3.493,0.924,0.068,1.549,-0.006,87.947,2.704,2.812,"0.672
",0.0,0.0,0.0
3.783,-0.129,3.494,0.873,0.065,1.550,0.004,87.999,3.256,2.624,"0.679
",0.0,0.0,0.0
4.035,-0.158,3.489,0.814,0.062,1.543,-0.004,88.057,3.166,2.440,"0.708
",0.0,0.0,0.0
4.288,-0.168,3.480,0.746,0.056,1.545,-0.003,88.119,2.909,2.224,"0.715
",0.0,0.0,0.0
4.540,-0.160,3.472,0.679,0.051,1.543,-0.013,88.184,2.436,2.091,"0.742
",0.0,0.0,0.0
4.792,-0.140,3.464,0.620,0.050,1.541,-0.022,88.254,1.833,1.960,"0.760
",0.0,0.0,0.0
5.088,-0.113,3.457,0.568,0.053,1.540,-0.044,88.329,1.312,1.831,"0.782
",0.0,0.0,0.0
5.340,-0.096,3.453,0.543,0.042,1.538,-0.053,88.384,1.178,1.831,"0.794
",0.0,0.0,0.0
5.593,-0.090,3.450,0.537,0.051,1.535,-0.060,88.433,1.328,1.841,"0.794
",0.0,0.0,0.0
5.846,-0.099,3.447,0.549,0.060,1.533,-0.062,88.474,1.834,1.742,"0.844
",0.0,0.0,0.0
6.098,-0.121,3.441,0.571,0.059,1.537,-0.046,88.509,2.453,1.687,"0.834
",0.0,0.0,0.0
6.350,-0.152,3.432,0.600,0.059,1.537,-0.043,88.540,3.138,1.444,"0.814
",0.0,0.0,0.0
6.602,-0.186,3.422,0.636,0.047,1.535,-0.034,88.567,3.701,1.315,"0.830
",0.0,0.0,0.0
6.855,-0.217,3.415,0.675,0.043,1.538,-0.020,88.591,4.157,1.257,"0.797
",0.0,0.0,0.0
7.107,-0.239,3.413,0.722,0.059,1.538,-0.012,88.612,4.284,1.293,"0.806
",0.0,0.0,0.0
7.359,-0.248,3.413,0.767,0.051,1.538,-0.008,88.630,4.153,1.375,"0.797
",0.0,0.0,0.0
7.612,-0.244,3.413,0.806,0.051,1.535,-0.025,88.650,3.849,1.417,"0.800
",0.0,0.0,0.0
7.864,-0.231,3.417,0.839,0.051,1.543,-0.023,88.670,3.427,1.497,"0.782
",0.0,0.0,0.0
8.116,-0.214,3.421,0.863,0.059,1.544,-0.033,88.693,3.078,1.553,"0.747
",0.0,0.0,0.0
8.368,-0.200,3.425,0.875,0.058,1.546,-0.050,88.720,2.918,1.621,"0.745
",0.0,0.0,0.0
8.621,-0.195,3.428,0.875,0.062,1.549,-0.049,88.752,3.016,1.628,"0.709
",0.0,0.0,0.0
8.873,-0.199,3.429,0.859,0.060,1.550,-0.051,88.789,3.284,1.562,"0.667
",0.0,0.0,0.0
9.126,-0.210,3.424,0.831,0.070,1.558,-0.038,88.833,3.650,1.385,"0.608
",0.0,0.0,0.0
9.377,-0.227,3.416,0.791,0.066,1.561,-0.035,88.882,3.992,1.147,"0.568
",0.0,0.0,0.0
9.630,-0.245,3.403,0.745,0.060,1.564,-0.028,88.936,4.354,0.859,"0.536
",0.0,0.0,0.0
9.881,-0.263,3.388,0.697,0.060,1.567,-0.026,88.993,4.592,0.571,"0.503
",0.0,0.0,0.0
10.133,-0.277,3.373,0.653,0.054,1.565,-0.029,89.051,4.779,0.321,"0.476
",0.0,0.0,0.0
10.386,-0.286,3.357,0.619,0.054,1.568,-0.026,89.110,4.792,0.036,"0.474
",0.0,0.0,0.0
10.638,-0.290,3.341,0.597,0.050,1.568,-0.025,89.163,4.761,-0.190,"0.453
",0.0,0.0,0.0
10.890,-0.291,3.327,0.589,0.054,1.570,-0.035,89.210,4.708,-0.415,"0.441
",0.0,0.0,0.0
11.143,-0.290,3.314,0.595,0.055,1.574,-0.031,89.252,4.656,-0.608,"0.421
",0.0,0.0,0.0
11.395,-0.291,3.305,0.616,0.039,1.572,-0.042,89.287,4.692,-0.636,"0.402
",0.0,0.0,0.0
11.647,-0.291,3.300,0.646,0.051,1.577,-0.029,89.317,4.677,-0.651,"0.373
",0.0,0.0,0.0
11.900,-0.291,3.301,0.679,0.043,1.579,-0.026,89.344,4.677,-0.518,"0.359
",0.0,0.0,0.0
12.152,-0.291,3.305,0.715,0.059,1.583,-0.022,89.368,4.673,-0.422,"0.316
",0.0,0.0,0.0
12.404,-0.292,3.310,0.750,0.056,1.583,-0.022,89.391,4.700,-0.284,"0.313
",0.0,0.0,0.0
12.656,-0.295,3.314,0.784,0.063,1.580,-0.026,89.414,4.802,-0.281,"0.318
",0.0,0.0,0.0
12.909,-0.297,3.316,0.814,0.064,1.576,-0.027,89.437,4.825,-0.223,"0.345
",0.0,0.0,0.0
13.161,-0.298,3.315,0.837,0.064,1.577,-0.024,89.462,4.792,-0.328,"0.358
",0.0,0.0,0.0
13.414,-0.295,3.310,0.852,0.069,1.578,-0.019,89.489,4.658,-0.496,"0.361
",0.0,0.0,0.0
13.666,-0.287,3.302,0.862,0.061,1.578,-0.023,89.519,4.439,-0.697,"0.351
",0.0,0.0,0.0
13.918,-0.276,3.290,0.866,0.057,1.576,-0.033,89.551,4.194,-0.963,"0.341
",0.0,0.0,0.0
14.170,-0.264,3.278,0.863,0.051,1.580,-0.033,89.585,3.971,-1.144,"0.326
",0.0,0.0,0.0
14.423,-0.255,3.269,0.855,0.050,1.580,-0.042,89.623,3.925,-1.247,"0.330
",0.0,0.0,0.0
14.722,-0.252,3.261,0.838,0.054,1.580,-0.041,89.671,4.009,-1.312,"0.321
",0.0,0.0,0.0
14.974,-0.258,3.256,0.822,0.057,1.581,-0.038,89.713,4.259,-1.377,"0.335
",0.0,0.0,0.0
15.226,-0.269,3.252,0.805,0.057,1.580,-0.036,89.756,4.562,-1.381,"0.330
",0.0,0.0,0.0
15.479,-0.285,3.246,0.788,0.057,1.581,-0.026,89.799,4.912,-1.558,"0.304
",0.0,0.0,0.0
15.731,-0.300,3.239,0.769,0.053,1.584,-0.019,89.844,5.107,-1.690,"0.294
",0.0,0.0,0.0
15.984,-0.311,3.232,0.752,0.050,1.582,-0.016,89.891,5.219,-1.792,"0.289
",0.0,0.0,0.0
16.236,-0.316,3.226,0.739,0.056,1.583,-0.020,89.935,5.181,-1.866,"0.274
",0.0,0.0,0.0
16.488,-0.316,3.224,0.725,0.050,1.583,-0.015,89.979,5.046,-1.820,"0.274
",0.0,0.0,0.0
16.741,-0.314,3.222,0.722,0.060,1.581,-0.023,90.021,4.984,-1.857,"0.271
",0.0,0.0,0.0
16.993,-0.308,3.220,0.726,0.058,1.584,-0.013,90.059,4.786,-1.887,"0.301
",0.0,0.0,0.0
17.245,-0.299,3.217,0.735,0.055,1.579,-0.024,90.095,4.582,-1.947,"0.319
",0.0,0.0,0.0
17.497,-0.288,3.214,0.750,0.049,1.577,-0.030,90.128,4.357,-1.946,"0.348
",0.0,0.0,0.0
17.750,-0.276,3.215,0.766,0.045,1.578,-0.028,90.159,4.172,-1.847,"0.344
",0.0,0.0,0.0
18.002,-0.265,3.219,0.782,0.057,1.579,-0.033,90.189,4.001,-1.743,"0.339
",0.0,0.0,0.0
18.254,-0.257,3.226,0.799,0.054,1.581,-0.027,90.219,3.960,-1.577,"0.313
",0.0,0.0,0.0
18.507,-0.254,3.229,0.818,0.062,1.578,-0.043,90.248,4.010,-1.568,"0.346
",0.0,0.0,0.0
18.758,-0.256,3.228,0.838,0.070,1.580,-0.034,90.277,4.164,-1.742,"0.336
",0.0,0.0,0.0
19.011,-0.265,3.222,0.859,0.061,1.580,-0.031,90.304,4.429,-1.933,"0.314
",0.0,0.0,0.0
19.263,-0.279,3.211,0.877,0.052,1.578,-0.032,90.331,4.783,-2.165,"0.320
",0.0,0.0,0.0
19.516,-0.294,3.203,0.891,0.044,1.578,-0.022,90.360,5.034,-2.253,"0.331
",0.0,0.0,0.0
19.768,-0.309,3.198,0.902,0.055,1.578,-0.013,90.389,5.258,-2.219,"0.330
",0.0,0.0,0.0
20.020,-0.318,3.198,0.913,0.049,1.578,-0.009,90.419,5.291,-2.182,"0.340
",0.0,0.0,0.0
20.272,-0.320,3.199,0.922,0.056,1.576,-0.009,90.450,5.186,-2.118,"0.364
",0.0,0.0,0.0
20.525,-0.315,3.202,0.928,0.050,1.576,-0.013,90.481,4.911,-2.025,"0.366
",0.0,0.0,0.0
20.823,-0.302,3.206,0.933,0.061,1.575,-0.017,90.519,4.600,-1.951,"0.375
",0.0,0.0,0.0
21.075,-0.289,3.208,0.931,0.062,1.575,-0.029,90.552,4.331,-1.927,"0.374
",0.0,0.0,0.0
21.328,-0.277,3.207,0.924,0.064,1.576,-0.034,90.588,4.229,-2.042,"0.355
",0.0,0.0,0.0
21.580,-0.271,3.199,0.913,0.069,1.581,-0.030,90.629,4.170,-2.314,"0.320
",0.0,0.0,0.0
21.832,-0.268,3.187,0.897,0.059,1.582,-0.026,90.669,4.212,-2.629,"0.310
",0.0,0.0,0.0
22.084,-0.267,3.172,0.880,0.061,1.582,-0.024,90.710,4.251,-2.926,"0.296
",0.0,0.0,0.0
22.337,-0.266,3.159,0.866,0.053,1.581,-0.023,90.752,4.212,-3.092,"0.306
",0.0,0.0,0.0
22.589,-0.263,3.147,0.854,0.052,1.580,-0.022,90.793,4.183,-3.226,"0.314
",0.0,0.0,0.0
22.841,-0.261,3.139,0.845,0.051,1.580,-0.031,90.834,4.109,-3.269,"0.336
",0.0,0.0,0.0
23.094,-0.257,3.134,0.839,0.049,1.577,-0.030,90.873,4.055,-3.249,"0.352
",0.0,0.0,0.0
23.346,-0.255,3.133,0.834,0.051,1.581,-0.027,90.912,4.016,-3.224,"0.316
",0.0,0.0,0.0
23.598,-0.254,3.134,0.832,0.057,1.578,-0.036,90.949,4.063,-3.093,"0.330
",0.0,0.0,0.0
23.850,-0.256,3.138,0.831,0.055,1.572,-0.043,90.986,4.165,-2.978,"0.383
",0.0,0.0,0.0
24.103,-0.260,3.142,0.834,0.058,1.574,-0.035,91.022,4.300,-2.944,"0.381
",0.0,0.0,0.0
24.355,-0.265,3.145,0.843,0.057,1.572,-0.030,91.056,4.366,-2.889,"0.401
",0.0,0.0,0.0
24.607,-0.268,3.147,0.858,0.056,1.572,-0.027,91.088,4.341,-2.849,"0.403
",0.0,0.0,0.0
24.860,-0.268,3.149,0.876,0.057,1.575,-0.018,91.117,4.319,-2.864,"0.399
",0.0,0.0,0.0
25.112,-0.266,3.151,0.896,0.057,1.574,-0.019,91.144,4.215,-2.831,"0.377
",0.0,0.0,0.0
25.364,-0.262,3.153,0.915,0.061,1.571,-0.025,91.171,4.124,-2.807,"0.396
",0.0,0.0,0.0
25.617,-0.257,3.154,0.931,0.056,1.572,-0.024,91.198,4.063,-2.799,"0.410
",0.0,0.0,0.0
25.869,-0.253,3.154,0.947,0.056,1.567,-0.031,91.226,4.021,-2.801,"0.422
",0.0,0.0,0.0
26.121,-0.252,3.154,0.960,0.059,1.572,-0.024,91.253,4.030,-2.786,"0.449
",0.0,0.0,0.0
26.374,-0.253,3.157,0.974,0.050,1.567,-0.029,91.281,4.091,-2.696,"0.454
",0.0,0.0,0.0
26.626,-0.256,3.163,0.985,0.050,1.562,-0.033,91.310,4.226,-2.493,"0.479
",0.0,0.0,0.0
26.878,-0.262,3.175,0.992,0.050,1.565,-0.022,91.339,4.337,-2.220,"0.498
",0.0,0.0,0.0
27.130,-0.267,3.190,0.995,0.052,1.566,-0.015,91.372,4.442,-1.879,"0.485
",0.0,0.0,0.0
27.383,-0.270,3.207,0.993,0.054,1.565,-0.018,91.405,4.447,-1.581,"0.482
",0.0,0.0,0.0
27.635,-0.272,3.223,0.987,0.056,1.565,-0.018,91.440,4.415,-1.363,"0.492
",0.0,0.0,0.0
27.887,-0.274,3.237,0.976,0.059,1.561,-0.034,91.476,4.488,-1.152,"0.536
",0.0,0.0,0.0
28.140,-0.276,3.247,0.964,0.063,1.560,-0.035,91.515,4.526,-1.051,"0.543
",0.0,0.0,0.0
28.392,-0.281,3.254,0.951,0.064,1.562,-0.035,91.554,4.625,-1.060,"0.547
",0.0,0.0,0.0
28.644,-0.286,3.255,0.938,0.059,1.564,-0.032,91.593,4.732,-1.147,"0.531
",0.0,0.0,0.0
28.896,-0.291,3.252,0.926,0.064,1.566,-0.033,91.633,4.819,-1.298,"0.511
",0.0,0.0,0.0
29.149,-0.297,3.248,0.913,0.058,1.564,-0.039,91.673,4.904,-1.420,"0.514
",0.0,0.0,0.0
29.401,-0.305,3.241,0.902,0.059,1.568,-0.036,91.712,5.085,-1.599,"0.493
",0.0,0.0,0.0
29.653,-0.314,3.232,0.890,0.061,1.572,-0.031,91.752,5.234,-1.779,"0.437
",0.0,0.0,0.0
29.906,-0.323,3.221,0.876,0.060,1.578,-0.027,91.793,5.339,-2.028,"0.391
",0.0,0.0,0.0
30.158,-0.328,3.208,0.860,0.060,1.583,-0.015,91.834,5.352,-2.321,"0.305
",0.0,0.0,0.0
30.410,-0.329,3.193,0.843,0.057,1.588,-0.010,91.877,5.281,-2.592,"0.260
",0.0,0.0,0.0
30.663,-0.323,3.178,0.834,0.054,1.585,-0.023,91.919,4.995,-2.853,"0.264
",0.0,0.0,0.0
30.916,-0.310,3.165,0.839,0.045,1.585,-0.029,91.956,4.697,-3.001,"0.261
",0.0,0.0,0.0
31.168,-0.293,3.153,0.857,0.056,1.589,-0.025,91.989,4.312,-3.154,"0.243
",0.0,0.0,0.0
31.420,-0.278,3.147,0.885,0.044,1.589,-0.035,92.016,4.122,-3.118,"0.229
",0.0,0.0,0.0
31.672,-0.267,3.143,0.920,0.055,1.591,-0.035,92.039,3.978,-3.151,"0.184
",0.0,0.0,0.0
31.925,-0.263,3.144,0.959,0.048,1.591,-0.034,92.058,4.104,-2.997,"0.198
",0.0,0.0,0.0
32.177,-0.267,3.151,1.003,0.050,1.594,-0.027,92.075,4.332,-2.794,"0.170
",0.0,0.0,0.0
32.474,-0.278,3.164,1.052,0.058,1.582,-0.034,92.094,4.629,-2.449,"0.296
",0.0,0.0,0.0
32.727,-0.290,3.174,1.094,0.064,1.587,-0.023,92.109,5.007,-2.267,"0.259
",0.0,0.0,0.0
32.979,-0.302,3.179,1.131,0.070,1.582,-0.023,92.125,5.111,-2.356,"0.262
",0.0,0.0,0.0
33.231,-0.313,3.179,1.168,0.060,1.585,-0.021,92.140,5.278,-2.505,"0.259
",0.0,0.0,0.0
33.483,-0.323,3.174,1.203,0.064,1.584,-0.015,92.155,5.405,-2.701,"0.255
",0.0,0.0,0.0
33.735,-0.331,3.166,1.237,0.055,1.580,-0.019,92.170,5.502,-2.852,"0.278
",0.0,0.0,0.0
33.988,-0.336,3.156,1.266,0.061,1.578,-0.023,92.186,5.486,-3.025,"0.318
",0.0,0.0,0.0
34.240,-0.339,3.147,1.293,0.054,1.577,-0.024,92.203,5.518,-3.129,"0.360
",0.0,0.0,0.0
34.492,-0.340,3.139,1.319,0.051,1.575,-0.023,92.220,5.481,-3.273,"0.376
",0.0,0.0,0.0
34.744,-0.340,3.135,1.343,0.056,1.572,-0.027,92.237,5.424,-3.237,"0.405
",0.0,0.0,0.0
34.997,-0.340,3.134,1.369,0.051,1.572,-0.033,92.253,5.452,-3.128,"0.412
",0.0,0.0,0.0
35.249,-0.344,3.136,1.389,0.054,1.573,-0.036,92.270,5.556,-3.057,"0.408
",0.0,0.0,0.0
35.501,-0.353,3.141,1.406,0.051,1.573,-0.038,92.289,5.870,-2.912,"0.385
",0.0,0.0,0.0
35.754,-0.365,3.145,1.418,0.065,1.573,-0.029,92.309,6.138,-2.896,"0.375
",0.0,0.0,0.0
36.006,-0.378,3.146,1.425,0.064,1.573,-0.025,92.331,6.368,-2.908,"0.396
",0.0,0.0,0.0
36.258,-0.388,3.143,1.428,0.060,1.574,-0.016,92.355,6.394,-3.044,"0.392
",0.0,0.0,0.0
36.510,-0.391,3.139,1.429,0.056,1.575,-0.013,92.380,6.324,-3.145,"0.383
",0.0,0.0,0.0
36.763,-0.389,3.136,1.434,0.055,1.571,-0.021,92.404,6.180,-3.179,"0.419
",0.0,0.0,0.0
37.015,-0.383,3.133,1.437,0.053,1.569,-0.026,92.429,5.999,-3.184,"0.431
",0.0,0.0,0.0
37.267,-0.377,3.133,1.439,0.054,1.570,-0.034,92.454,5.912,-3.147,"0.437
",0.0,0.0,0.0
37.519,-0.374,3.134,1.436,0.058,1.570,-0.034,92.479,5.927,-3.113,"0.450
",0.0,0.0,0.0
37.772,-0.376,3.135,1.426,0.056,1.567,-0.041,92.508,6.079,-3.060,"0.451
",0.0,0.0,0.0
38.024,-0.383,3.137,1.412,0.061,1.567,-0.038,92.538,6.271,-3.026,"0.440
",0.0,0.0,0.0
38.276,-0.393,3.139,1.397,0.060,1.571,-0.028,92.573,6.540,-3.018,"0.435
",0.0,0.0,0.0
38.529,-0.404,3.138,1.381,0.066,1.573,-0.021,92.606,6.678,-3.098,"0.400
",0.0,0.0,0.0
38.781,-0.411,3.135,1.366,0.069,1.572,-0.014,92.639,6.719,-3.181,"0.394
",0.0,0.0,0.0
39.033,-0.412,3.127,1.354,0.065,1.574,-0.012,92.672,6.611,-3.427,"0.395
",0.0,0.0,0.0
39.285,-0.406,3.115,1.340,0.066,1.571,-0.011,92.705,6.368,-3.697,"0.410
",0.0,0.0,0.0
39.538,-0.395,3.101,1.326,0.055,1.570,-0.022,92.739,5.996,-3.987,"0.427
",0.0,0.0,0.0
39.790,-0.381,3.087,1.310,0.056,1.572,-0.025,92.773,5.740,-4.216,"0.428
",0.0,0.0,0.0
40.042,-0.370,3.076,1.292,0.052,1.570,-0.035,92.808,5.649,-4.311,"0.429
",0.0,0.0,0.0
40.295,-0.365,3.068,1.273,0.054,1.571,-0.040,92.844,5.712,-4.409,"0.424
",0.0,0.0,0.0
40.547,-0.368,3.064,1.256,0.050,1.567,-0.043,92.881,5.963,-4.299,"0.437
",0.0,0.0,0.0
40.799,-0.380,3.066,1.245,0.052,1.568,-0.041,92.916,6.368,-4.140,"0.469
",0.0,0.0,0.0
41.052,-0.397,3.073,1.237,0.049,1.565,-0.037,92.949,6.729,-3.862,"0.464
",0.0,0.0,0.0
41.302,-0.418,3.085,1.236,0.050,1.563,-0.038,92.981,7.215,-3.579,"0.488
",0.0,0.0,0.0
41.555,-0.437,3.099,1.239,0.060,1.570,-0.018,93.011,7.416,-3.339,"0.451
",0.0,0.0,0.0
41.807,-0.452,3.114,1.245,0.059,1.573,-0.010,93.038,7.577,-3.086,"0.418
",0.0,0.0,0.0
42.059,-0.459,3.124,1.252,0.070,1.578,-0.003,93.065,7.460,-3.089,"0.371
",0.0,0.0,0.0
42.311,-0.454,3.129,1.263,0.065,1.584,-0.006,93.091,7.112,-3.156,"0.307
",0.0,0.0,0.0
42.564,-0.442,3.127,1.279,0.066,1.584,-0.016,93.114,6.677,-3.367,"0.264
",0.0,0.0,0.0
42.816,-0.429,3.120,1.297,0.063,1.589,-0.026,93.136,6.437,-3.664,"0.230
",0.0,0.0,0.0
43.068,-0.419,3.108,1.313,0.066,1.592,-0.028,93.157,6.297,-4.014,"0.202
",0.0,0.0,0.0
43.321,-0.417,3.095,1.325,0.050,1.595,-0.035,93.179,6.483,-4.172,"0.178
",0.0,0.0,0.0
43.573,-0.424,3.085,1.341,0.045,1.598,-0.027,93.201,6.814,-4.277,"0.142
",0.0,0.0,0.0
43.825,-0.439,3.081,1.355,0.055,1.597,-0.023,93.224,7.214,-4.273,"0.135
",0.0,0.0,0.0
44.077,-0.458,3.079,1.367,0.057,1.596,-0.017,93.246,7.618,-4.226,"0.140
",0.0,0.0,0.0
44.330,-0.478,3.077,1.377,0.051,1.588,-0.019,93.268,8.039,-4.151,"0.177
",0.0,0.0,0.0
44.582,-0.493,3.077,1.384,0.050,1.590,-0.012,93.291,8.186,-4.180,"0.220
",0.0,0.0,0.0
44.834,-0.502,3.082,1.391,0.052,1.589,-0.002,93.315,8.174,-3.989,"0.226
",0.0,0.0,0.0
45.086,-0.502,3.091,1.401,0.051,1.587,0.005,93.338,7.939,-3.718,"0.238
",0.0,0.0,0.0
45.339,-0.493,3.104,1.420,0.058,1.586,-0.000,93.359,7.576,-3.442,"0.267
",0.0,0.0,0.0
45.591,-0.478,3.119,1.445,0.056,1.579,-0.018,93.377,7.205,-3.053,"0.325
",0.0,0.0,0.0
45.844,-0.461,3.135,1.480,0.062,1.576,-0.024,93.391,6.977,-2.796,"0.367
",0.0,0.0,0.0
46.096,-0.446,3.147,1.520,0.073,1.573,-0.029,93.401,6.697,-2.633,"0.382
",0.0,0.0,0.0
46.348,-0.435,3.155,1.564,0.065,1.574,-0.037,93.408,6.656,-2.647,"0.383
",0.0,0.0,0.0
46.600,-0.429,3.157,1.610,0.070,1.574,-0.035,93.413,6.673,-2.729,"0.375
",0.0,0.0,0.0
46.853,-0.430,3.156,1.659,0.067,1.573,-0.038,93.417,6.872,-2.815,"0.394
",0.0,0.0,0.0
47.152,-0.439,3.152,1.719,0.062,1.571,-0.037,93.418,7.183,-2.947,"0.416
",0.0,0.0,0.0
47.404,-0.453,3.151,1.774,0.048,1.568,-0.035,93.418,7.616,-2.833,"0.448
",0.0,0.0,0.0
47.656,-0.469,3.155,1.828,0.058,1.568,-0.026,93.416,7.994,-2.710,"0.453
",0.0,0.0,0.0
47.909,-0.485,3.161,1.882,0.069,1.569,-0.016,93.413,8.064,-2.563,"0.448
",0.0,0.0,0.0
48.161,-0.497,3.165,1.940,0.070,1.569,-0.015,93.407,8.234,-2.533,"0.441
",0.0,0.0,0.0
48.413,-0.500,3.164,2.000,0.072,1.571,-0.009,93.400,8.064,-2.698,"0.440
",0.0,0.0,0.0
48.665,-0.498,3.159,2.060,0.067,1.569,-0.019,93.392,7.888,-2.815,"0.428
",0.0,0.0,0.0
48.917,-0.489,3.151,2.121,0.065,1.570,-0.019,93.382,7.541,-3.087,"0.421
",0.0,0.0,0.0
49.170,-0.477,3.143,2.183,0.057,1.571,-0.019,93.370,7.228,-3.207,"0.420
",0.0,0.0,0.0
49.422,-0.464,3.137,2.245,0.058,1.569,-0.028,93.357,7.105,-3.207,"0.418
",0.0,0.0,0.0
49.675,-0.452,3.134,2.307,0.062,1.571,-0.022,93.343,6.921,-3.219,"0.431
",0.0,0.0,0.0
49.927,-0.443,3.133,2.371,0.058,1.570,-0.031,93.328,6.879,-3.172,"0.424
",0.0,0.0,0.0
50.179,-0.439,3.134,2.432,0.063,1.570,-0.033,93.313,6.904,-3.131,"0.427
",0.0,0.0,0.0
50.431,-0.441,3.138,2.494,0.058,1.570,-0.034,93.296,7.094,-2.972,"0.436
",0.0,0.0,0.0
50.684,-0.447,3.140,2.556,0.065,1.570,-0.026,93.278,7.264,-2.944,"0.435
",0.0,0.0,0.0
50.936,-0.455,3.144,2.621,0.061,1.569,-0.023,93.259,7.451,-2.871,"0.439
",0.0,0.0,0.0
51.189,-0.465,3.145,2.685,0.067,1.572,-0.021,93.237,7.591,-2.937,"0.427
",0.0,0.0,0.0
51.441,-0.474,3.146,2.749,0.064,1.573,-0.023,93.216,7.731,-2.955,"0.415
",0.0,0.0,0.0
51.693,-0.483,3.144,2.812,0.064,1.572,-0.021,93.193,7.897,-3.016,"0.399
",0.0,0.0,0.0
51.945,-0.493,3.141,2.872,0.068,1.574,-0.019,93.169,8.006,-3.138,"0.394
",0.0,0.0,0.0
52.198,-0.499,3.134,2.934,0.066,1.573,-0.019,93.146,8.076,-3.287,"0.396
",0.0,0.0,0.0
52.450,-0.502,3.125,2.995,0.063,1.573,-0.013,93.120,8.063,-3.487,"0.403
",0.0,0.0,0.0
52.702,-0.502,3.116,3.060,0.058,1.571,-0.017,93.094,8.016,-3.598,"0.418
",0.0,0.0,0.0
52.954,-0.497,3.107,3.121,0.065,1.570,-0.012,93.067,7.825,-3.722,"0.431
",0.0,0.0,0.0
53.207,-0.488,3.099,3.181,0.066,1.569,-0.015,93.039,7.617,-3.840,"0.442
",0.0,0.0,0.0
53.459,-0.475,3.091,3.239,0.057,1.570,-0.017,93.011,7.297,-3.947,"0.441
",0.0,0.0,0.0
53.711,-0.459,3.086,3.292,0.055,1.568,-0.022,92.983,6.988,-3.992,"0.440
",0.0,0.0,0.0
53.964,-0.445,3.083,3.341,0.058,1.568,-0.029,92.956,6.819,-3.946,"0.452
",0.0,0.0,0.0
54.216,-0.434,3.085,3.387,0.057,1.567,-0.029,92.930,6.728,-3.844,"0.457
",0.0,0.0,0.0
54.468,-0.426,3.088,3.427,0.064,1.567,-0.023,92.905,6.626,-3.758,"0.461
",0.0,0.0,0.0
54.720,-0.421,3.090,3.459,0.066,1.567,-0.027,92.881,6.616,-3.752,"0.462
",0.0,0.0,0.0
54.973,-0.417,3.090,3.486,0.065,1.568,-0.024,92.859,6.614,-3.813,"0.462
",0.0,0.0,0.0
55.225,-0.417,3.086,3.506,0.068,1.567,-0.026,92.841,6.639,-3.974,"0.462
",0.0,0.0,0.0
55.478,-0.419,3.079,3.523,0.062,1.566,-0.027,92.824,6.755,-4.086,"0.471
",0.0,0.0,0.0
55.730,-0.423,3.073,3.535,0.057,1.568,-0.022,92.809,6.834,-4.245,"0.465
",0.0,0.0,0.0
55.982,-0.428,3.070,3.542,0.048,1.565,-0.024,92.796,6.968,-4.164,"0.469
",0.0,0.0,0.0
56.235,-0.432,3.071,3.548,0.057,1.565,-0.019,92.783,7.009,-4.051,"0.481
",0.0,0.0,0.0
56.487,-0.434,3.078,3.550,0.052,1.565,-0.017,92.772,7.013,-3.821,"0.493
",0.0,0.0,0.0
56.739,-0.433,3.088,3.548,0.055,1.563,-0.018,92.763,6.910,-3.543,"0.506
",0.0,0.0,0.0
56.992,-0.429,3.102,3.541,0.057,1.565,-0.021,92.755,6.790,-3.307,"0.507
",0.0,0.0,0.0
57.244,-0.424,3.115,3.532,0.060,1.565,-0.024,92.749,6.684,-3.087,"0.503
",0.0,0.0,0.0
57.497,-0.419,3.126,3.523,0.067,1.565,-0.023,92.744,6.583,-2.979,"0.489
",0.0,0.0,0.0
57.749,-0.414,3.134,3.509,0.064,1.568,-0.022,92.740,6.518,-2.947,"0.474
",0.0,0.0,0.0
58.001,-0.409,3.137,3.492,0.061,1.568,-0.026,92.738,6.472,-2.955,"0.459
",0.0,0.0,0.0
58.254,-0.407,3.139,3.473,0.061,1.570,-0.027,92.737,6.429,-3.012,"0.441
",0.0,0.0,0.0
58.506,-0.408,3.140,3.454,0.057,1.573,-0.029,92.737,6.526,-3.032,"0.416
",0.0,0.0,0.0
58.758,-0.413,3.140,3.433,0.059,1.575,-0.030,92.737,6.667,-3.033,"0.387
",0.0,0.0,0.0
59.010,-0.421,3.141,3.412,0.059,1.577,-0.030,92.739,6.873,-3.035,"0.360
",0.0,0.0,0.0
59.263,-0.431,3.141,3.388,0.061,1.581,-0.023,92.741,7.054,-3.107,"0.328
",0.0,0.0,0.0
59.515,-0.443,3.139,3.365,0.060,1.583,-0.027,92.745,7.266,-3.169,"0.297
",0.0,0.0,0.0
59.768,-0.454,3.137,3.341,0.062,1.589,-0.019,92.749,7.396,-3.285,"0.248
",0.0,0.0,0.0
60.020,-0.465,3.134,3.313,0.058,1.594,-0.024,92.754,7.552,-3.348,"0.216
",0.0,0.0,0.0
60.272,-0.475,3.128,3.284,0.073,1.595,-0.023,92.760,7.713,-3.538,"0.176
",0.0,0.0,0.0
60.524,-0.486,3.120,3.250,0.063,1.595,-0.022,92.769,7.877,-3.732,"0.150
",0.0,0.0,0.0
60.777,-0.495,3.107,3.214,0.062,1.599,-0.016,92.780,8.002,-4.061,"0.123
",0.0,0.0,0.0
61.029,-0.502,3.094,3.173,0.054,1.603,-0.014,92.792,8.010,-4.288,"0.105
",0.0,0.0,0.0
61.282,-0.507,3.085,3.130,0.045,1.602,-0.016,92.806,8.035,-4.336,"0.077
",0.0,0.0,0.0
61.534,-0.507,3.081,3.083,0.051,1.602,-0.014,92.823,7.956,-4.275,"0.059
",0.0,0.0,0.0
61.786,-0.504,3.084,3.036,0.053,1.605,-0.013,92.841,7.812,-4.127,"0.043
",0.0,0.0,0.0
62.038,-0.495,3.087,2.986,0.065,1.605,-0.011,92.861,7.583,-4.050,"0.024
",0.0,0.0,0.0
62.291,-0.483,3.089,2.932,0.068,1.610,-0.013,92.883,7.258,-4.109,"0.009
",0.0,0.0,0.0
62.543,-0.471,3.085,2.873,0.077,1.608,-0.023,92.908,7.010,-4.313,"-0.003
",0.0,0.0,0.0
62.795,-0.461,3.076,2.803,0.059,1.610,-0.028,92.937,6.984,-4.506,"-0.007
",0.0,0.0,0.0
63.048,-0.458,3.063,2.736,0.061,1.609,-0.027,92.969,7.083,-4.766,"-0.012
",0.0,0.0,0.0
63.300,-0.460,3.049,2.663,0.060,1.607,-0.025,93.002,7.190,-5.043,"-0.008
",0.0,0.0,0.0
63.552,-0.465,3.038,2.587,0.042,1.606,-0.021,93.039,7.349,-5.158,"0.009
",0.0,0.0,0.0
63.804,-0.470,3.034,2.513,0.040,1.607,-0.016,93.078,7.395,-5.031,"0.016
",0.0,0.0,0.0
64.057,-0.474,3.040,2.441,0.047,1.605,-0.022,93.117,7.459,-4.774,"0.025
",0.0,0.0,0.0
64.309,-0.476,3.049,2.375,0.063,1.606,-0.017,93.155,7.491,-4.427,"0.025
",0.0,0.0,0.0
64.561,-0.476,3.058,2.310,0.067,1.605,-0.018,93.194,7.404,-4.390,"0.015
",0.0,0.0,0.0
64.813,-0.474,3.061,2.251,0.068,1.606,-0.019,93.232,7.324,-4.459,"0.014
",0.0,0.0,0.0
65.065,-0.469,3.060,2.192,0.063,1.608,-0.018,93.270,7.169,-4.617,"0.012
",0.0,0.0,0.0
65.353,-0.461,3.051,2.125,0.066,1.608,-0.019,93.315,7.019,-4.887,"0.008
",0.0,0.0,0.0
65.606,-0.453,3.038,2.072,0.063,1.607,-0.022,93.353,6.835,-5.177,"0.000
",0.0,0.0,0.0
65.858,-0.444,3.022,2.026,0.057,1.607,-0.024,93.390,6.715,-5.493,"-0.008
",0.0,0.0,0.0
66.110,-0.436,3.004,1.981,0.059,1.608,-0.027,93.428,6.564,-5.846,"-0.012
",0.0,0.0,0.0
66.362,-0.433,2.987,1.933,0.052,1.611,-0.036,93.465,6.527,-6.183,"-0.032
",0.0,0.0,0.0
66.615,-0.434,2.971,1.883,0.052,1.611,-0.034,93.504,6.743,-6.337,"-0.030
",0.0,0.0,0.0
66.867,-0.444,2.958,1.829,0.045,1.611,-0.033,93.544,7.059,-6.497,"-0.020
",0.0,0.0,0.0
67.119,-0.460,2.947,1.774,0.050,1.610,-0.033,93.586,7.457,-6.573,"-0.026
",0.0,0.0,0.0
67.371,-0.480,2.942,1.717,0.048,1.609,-0.024,93.630,7.848,-6.548,"-0.010
",0.0,0.0,0.0
67.624,-0.500,2.939,1.662,0.055,1.610,-0.017,93.675,8.170,-6.560,"-0.013
",0.0,0.0,0.0
67.876,-0.516,2.941,1.608,0.047,1.609,-0.011,93.720,8.372,-6.447,"-0.021
",0.0,0.0,0.0
68.128,-0.527,2.944,1.558,0.053,1.607,-0.017,93.766,8.450,-6.338,"-0.006
",0.0,0.0,0.0
68.380,-0.531,2.948,1.510,0.061,1.610,-0.010,93.811,8.345,-6.312,"-0.002
",0.0,0.0,0.0
68.632,-0.532,2.951,1.462,0.051,1.607,-0.024,93.856,8.254,-6.227,"-0.008
",0.0,0.0,0.0
68.884,-0.532,2.951,1.422,0.066,1.611,-0.023,93.901,8.207,-6.323,"-0.014
",0.0,0.0,0.0
69.137,-0.533,2.949,1.386,0.064,1.610,-0.023,93.944,8.262,-6.408,"-0.016
",0.0,0.0,0.0
69.389,-0.534,2.942,1.351,0.063,1.609,-0.021,93.986,8.292,-6.602,"-0.018
",0.0,0.0,0.0
69.641,-0.533,2.933,1.320,0.055,1.608,-0.017,94.028,8.190,-6.778,"0.014
",0.0,0.0,0.0
69.893,-0.528,2.925,1.295,0.053,1.612,-0.013,94.068,8.037,-6.906,"-0.019
",0.0,0.0,0.0
70.146,-0.520,2.920,1.277,0.044,1.613,-0.017,94.106,7.825,-6.932,"-0.044
",0.0,0.0,0.0
70.398,-0.511,2.921,1.270,0.048,1.612,-0.018,94.141,7.653,-6.794,"-0.054
",0.0,0.0,0.0
70.650,-0.502,2.926,1.268,0.042,1.609,-0.021,94.173,7.589,-6.558,"-0.044
",0.0,0.0,0.0
70.903,-0.495,2.936,1.273,0.054,1.608,-0.026,94.201,7.516,-6.306,"-0.015
",0.0,0.0,0.0
71.155,-0.490,2.946,1.284,0.064,1.607,-0.025,94.228,7.502,-6.112,"-0.002
",0.0,0.0,0.0
71.407,-0.489,2.956,1.301,0.056,1.606,-0.027,94.251,7.550,-5.937,"-0.004
",0.0,0.0,0.0
71.660,-0.492,2.963,1.325,0.062,1.602,-0.030,94.273,7.716,-5.894,"0.030
",0.0,0.0,0.0
71.913,-0.498,2.968,1.355,0.064,1.598,-0.028,94.289,7.919,-5.836,"0.067
",0.0,0.0,0.0
72.165,-0.505,2.969,1.389,0.067,1.598,-0.022,94.303,8.053,-5.906,"0.102
",0.0,0.0,0.0
72.418,-0.510,2.967,1.434,0.059,1.598,-0.015,94.314,8.071,-6.009,"0.108
",0.0,0.0,0.0
72.671,-0.512,2.960,1.486,0.058,1.595,-0.015,94.321,8.024,-6.218,"0.123
",0.0,0.0,0.0
72.923,-0.510,2.953,1.540,0.052,1.596,-0.016,94.324,7.933,-6.310,"0.144
",0.0,0.0,0.0
73.175,-0.507,2.948,1.599,0.045,1.594,-0.021,94.324,7.812,-6.386,"0.159
",0.0,0.0,0.0
73.427,-0.502,2.949,1.670,0.042,1.589,-0.026,94.321,7.797,-6.178,"0.174
",0.0,0.0,0.0
73.680,-0.499,2.956,1.744,0.050,1.588,-0.027,94.313,7.736,-5.858,"0.192
",0.0,0.0,0.0
73.932,-0.498,2.966,1.818,0.057,1.589,-0.023,94.303,7.816,-5.585,"0.205
",0.0,0.0,0.0
74.184,-0.498,2.977,1.894,0.056,1.588,-0.020,94.291,7.811,-5.502,"0.224
",0.0,0.0,0.0
74.436,-0.497,2.983,1.971,0.066,1.588,-0.018,94.277,7.791,-5.505,"0.228
",0.0,0.0,0.0
74.688,-0.495,2.986,2.052,0.059,1.589,-0.023,94.261,7.740,-5.522,"0.230
",0.0,0.0,0.0
74.941,-0.493,2.983,2.134,0.065,1.591,-0.023,94.243,7.675,-5.747,"0.201
",0.0,0.0,0.0
75.193,-0.495,2.978,2.218,0.047,1.593,-0.030,94.223,7.752,-5.883,"0.185
",0.0,0.0,0.0
75.492,-0.502,2.975,2.324,0.050,1.594,-0.023,94.195,8.032,-5.889,"0.150
",0.0,0.0,0.0
75.744,-0.513,2.977,2.409,0.049,1.592,-0.023,94.169,8.297,-5.721,"0.169
",0.0,0.0,0.0
75.997,-0.525,2.980,2.489,0.058,1.593,-0.014,94.144,8.489,-5.643,"0.179
",0.0,0.0,0.0
76.249,-0.535,2.984,2.565,0.057,1.590,-0.010,94.118,8.646,-5.565,"0.187
",0.0,0.0,0.0
76.501,-0.540,2.987,2.638,0.054,1.588,-0.006,94.094,8.620,-5.519,"0.211
",0.0,0.0,0.0
76.754,-0.539,2.989,2.708,0.058,1.585,-0.006,94.069,8.448,-5.491,"0.239
",0.0,0.0,0.0
77.006,-0.532,2.991,2.776,0.056,1.584,-0.012,94.044,8.260,-5.431,"0.261
",0.0,0.0,0.0
77.258,-0.522,2.993,2.844,0.054,1.582,-0.017,94.017,8.037,-5.380,"0.279
",0.0,0.0,0.0
77.510,-0.510,2.996,2.912,0.052,1.578,-0.022,93.991,7.817,-5.290,"0.307
",0.0,0.0,0.0
77.762,-0.498,3.001,2.978,0.056,1.578,-0.019,93.964,7.621,-5.152,"0.329
",0.0,0.0,0.0
78.015,-0.487,3.009,3.045,0.052,1.578,-0.018,93.936,7.499,-4.960,"0.333
",0.0,0.0,0.0
78.267,-0.477,3.019,3.112,0.055,1.577,-0.021,93.907,7.341,-4.797,"0.350
",0.0,0.0,0.0
78.519,-0.469,3.029,3.172,0.061,1.578,-0.022,93.879,7.219,-4.618,"0.352
",0.0,0.0,0.0
78.771,-0.465,3.036,3.232,0.063,1.576,-0.030,93.850,7.288,-4.543,"0.357
",0.0,0.0,0.0
79.024,-0.466,3.040,3.288,0.063,1.574,-0.030,93.821,7.415,-4.551,"0.364
",0.0,0.0,0.0
79.276,-0.472,3.041,3.340,0.056,1.573,-0.029,93.793,7.655,-4.551,"0.380
",0.0,0.0,0.0
79.528,-0.481,3.040,3.386,0.058,1.573,-0.022,93.766,7.848,-4.634,"0.400
",0.0,0.0,0.0
79.780,-0.493,3.040,3.431,0.054,1.570,-0.025,93.740,8.101,-4.610,"0.421
",0.0,0.0,0.0
80.033,-0.506,3.039,3.471,0.064,1.568,-0.019,93.714,8.321,-4.629,"0.454
",0.0,0.0,0.0
80.285,-0.518,3.038,3.507,0.058,1.565,-0.018,93.690,8.554,-4.601,"0.486
",0.0,0.0,0.0
80.538,-0.528,3.036,3.537,0.060,1.562,-0.011,93.667,8.656,-4.629,"0.520
",0.0,0.0,0.0
80.790,-0.532,3.034,3.561,0.059,1.559,-0.007,93.646,8.602,-4.668,"0.553
",0.0,0.0,0.0
81.042,-0.529,3.029,3.583,0.062,1.556,-0.016,93.627,8.445,-4.747,"0.576
",0.0,0.0,0.0
81.294,-0.521,3.023,3.599,0.064,1.555,-0.018,93.609,8.227,-4.883,"0.595
",0.0,0.0,0.0
81.547,-0.511,3.016,3.615,0.051,1.554,-0.021,93.592,8.003,-5.002,"0.623
",0.0,0.0,0.0
81.799,-0.500,3.010,3.630,0.051,1.553,-0.023,93.575,7.825,-5.048,"0.635
",0.0,0.0,0.0
82.051,-0.493,3.010,3.646,0.049,1.551,-0.031,93.558,7.784,-4.962,"0.640
",0.0,0.0,0.0
82.303,-0.490,3.015,3.661,0.046,1.552,-0.032,93.540,7.855,-4.757,"0.640
",0.0,0.0,0.0
82.555,-0.493,3.024,3.673,0.054,1.550,-0.029,93.523,8.015,-4.501,"0.644
",0.0,0.0,0.0
82.808,-0.500,3.036,3.688,0.052,1.549,-0.031,93.505,8.241,-4.204,"0.655
",0.0,0.0,0.0
83.060,-0.511,3.051,3.700,0.060,1.549,-0.024,93.488,8.448,-3.945,"0.657
",0.0,0.0,0.0
83.312,-0.522,3.065,3.709,0.063,1.550,-0.020,93.472,8.659,-3.698,"0.674
",0.0,0.0,0.0
83.565,-0.531,3.075,3.714,0.071,1.548,-0.015,93.457,8.733,-3.623,"0.682
",0.0,0.0,0.0
83.816,-0.536,3.081,3.717,0.068,1.548,-0.015,93.443,8.726,-3.664,"0.683
",0.0,0.0,0.0
84.069,-0.538,3.081,3.721,0.062,1.547,-0.020,93.429,8.668,-3.745,"0.685
",0.0,0.0,0.0
84.321,-0.537,3.078,3.727,0.064,1.547,-0.021,93.415,8.641,-3.860,"0.695
",0.0,0.0,0.0
84.573,-0.535,3.073,3.731,0.060,1.549,-0.019,93.401,8.559,-3.982,"0.685
",0.0,0.0,0.0
84.826,-0.530,3.067,3.734,0.062,1.547,-0.015,93.387,8.435,-4.094,"0.683
",0.0,0.0,0.0
85.078,-0.520,3.061,3.732,0.057,1.551,-0.011,93.374,8.156,-4.226,"0.670
",0.0,0.0,0.0
85.330,-0.505,3.055,3.724,0.057,1.553,-0.015,93.364,7.795,-4.366,"0.640
",0.0,0.0,0.0
85.582,-0.490,3.052,3.711,0.050,1.556,-0.028,93.356,7.548,-4.367,"0.609
",0.0,0.0,0.0
85.835,-0.477,3.050,3.691,0.065,1.561,-0.028,93.350,7.370,-4.417,"0.571
",0.0,0.0,0.0
86.087,-0.468,3.050,3.668,0.058,1.564,-0.028,93.348,7.291,-4.412,"0.525
",0.0,0.0,0.0
86.340,-0.465,3.048,3.636,0.065,1.567,-0.026,93.347,7.337,-4.485,"0.497
",0.0,0.0,0.0
86.592,-0.465,3.044,3.601,0.061,1.569,-0.031,93.351,7.439,-4.609,"0.466
",0.0,0.0,0.0
86.844,-0.470,3.038,3.558,0.064,1.569,-0.029,93.356,7.596,-4.740,"0.441
",0.0,0.0,0.0
87.097,-0.479,3.032,3.514,0.059,1.572,-0.023,93.365,7.790,-4.861,"0.424
",0.0,0.0,0.0
87.349,-0.489,3.025,3.469,0.058,1.572,-0.024,93.375,7.968,-4.999,"0.403
",0.0,0.0,0.0
87.602,-0.500,3.020,3.420,0.053,1.574,-0.023,93.387,8.159,-5.053,"0.384
",0.0,0.0,0.0
87.854,-0.510,3.018,3.375,0.055,1.575,-0.021,93.399,8.314,-5.024,"0.375
",0.0,0.0,0.0
88.104,-0.517,3.019,3.326,0.059,1.577,-0.011,93.413,8.350,-4.997,"0.365
",0.0,0.0,0.0
88.356,-0.521,3.021,3.279,0.057,1.576,-0.010,93.428,8.336,-4.880,"0.375
",0.0,0.0,0.0
88.608,-0.520,3.024,3.228,0.061,1.575,-0.013,93.445,8.204,-4.809,"0.374
",0.0,0.0,0.0
88.860,-0.513,3.027,3.179,0.061,1.575,-0.013,93.462,7.982,-4.796,"0.380
",0.0,0.0,0.0
89.113,-0.503,3.027,3.129,0.063,1.573,-0.021,93.481,7.820,-4.813,"0.385
",0.0,0.0,0.0
89.365,-0.493,3.026,3.078,0.061,1.572,-0.026,93.500,7.631,-4.861,"0.392
",0.0,0.0,0.0
89.618,-0.483,3.021,3.028,0.064,1.577,-0.017,93.520,7.452,-5.060,"0.394
",0.0,0.0,0.0
89.869,-0.477,3.016,2.974,0.056,1.573,-0.030,93.542,7.440,-5.117,"0.405
",0.0,0.0,0.0
90.122,-0.474,3.010,2.927,0.061,1.570,-0.029,93.563,7.489,-5.195,"0.416
",0.0,0.0,0.0
90.374,-0.475,3.005,2.879,0.059,1.570,-0.028,93.585,7.574,-5.274,"0.421
",0.0,0.0,0.0
90.627,-0.479,2.998,2.833,0.059,1.572,-0.028,93.607,7.727,-5.391,"0.428
",0.0,0.0,0.0
90.879,-0.486,2.992,2.788,0.056,1.568,-0.027,93.629,7.925,-5.476,"0.437
",0.0,0.0,0.0
91.132,-0.494,2.986,2.746,0.055,1.570,-0.020,93.651,8.011,-5.639,"0.438
",0.0,0.0,0.0
91.383,-0.502,2.981,2.703,0.055,1.569,-0.018,93.673,8.159,-5.610,"0.453
",0.0,0.0,0.0
91.636,-0.507,2.978,2.663,0.055,1.567,-0.021,93.697,8.224,-5.639,"0.463
",0.0,0.0,0.0
91.888,-0.510,2.976,2.620,0.056,1.567,-0.019,93.720,8.242,-5.626,"0.471
",0.0,0.0,0.0
92.141,-0.512,2.976,2.581,0.051,1.565,-0.023,93.744,8.230,-5.574,"0.489
",0.0,0.0,0.0
92.393,-0.514,2.977,2.548,0.055,1.562,-0.026,93.766,8.266,-5.480,"0.500
",0.0,0.0,0.0
92.645,-0.517,2.980,2.515,0.059,1.563,-0.025,93.788,8.326,-5.428,"0.509
",0.0,0.0,0.0
92.897,-0.520,2.981,2.488,0.062,1.562,-0.030,93.808,8.399,-5.403,"0.525
",0.0,0.0,0.0
93.149,-0.525,2.979,2.457,0.066,1.563,-0.027,93.829,8.486,-5.552,"0.509
",0.0,0.0,0.0
93.401,-0.529,2.974,2.422,0.057,1.566,-0.021,93.852,8.553,-5.732,"0.491
",0.0,0.0,0.0
93.654,-0.533,2.966,2.382,0.058,1.566,-0.018,93.877,8.628,-5.916,"0.487
",0.0,0.0,0.0
93.906,-0.533,2.957,2.337,0.055,1.567,-0.014,93.905,8.514,-6.059,"0.474
",0.0,0.0,0.0
94.158,-0.529,2.948,2.290,0.057,1.569,-0.018,93.937,8.330,-6.274,"0.462
",0.0,0.0,0.0
94.410,-0.523,2.940,2.239,0.048,1.569,-0.026,93.969,8.128,-6.415,"0.446
",0.0,0.0,0.0
94.662,-0.517,2.935,2.187,0.052,1.569,-0.028,94.004,8.109,-6.376,"0.436
",0.0,0.0,0.0
94.915,-0.512,2.934,2.131,0.048,1.571,-0.025,94.040,8.047,-6.286,"0.428
",0.0,0.0,0.0
95.167,-0.507,2.935,2.074,0.050,1.572,-0.025,94.078,7.954,-6.239,"0.406
",0.0,0.0,0.0
95.419,-0.502,2.940,2.014,0.045,1.576,-0.025,94.118,7.872,-6.107,"0.384
",0.0,0.0,0.0
95.672,-0.499,2.947,1.954,0.055,1.576,-0.027,94.159,7.825,-5.955,"0.372
",0.0,0.0,0.0
95.924,-0.496,2.954,1.891,0.057,1.579,-0.028,94.203,7.815,-5.828,"0.362
",0.0,0.0,0.0
96.176,-0.494,2.959,1.825,0.057,1.575,-0.030,94.248,7.840,-5.746,"0.353
",0.0,0.0,0.0
96.429,-0.495,2.961,1.758,0.063,1.576,-0.035,94.296,7.875,-5.819,"0.350
",0.0,0.0,0.0
96.681,-0.499,2.959,1.686,0.064,1.574,-0.038,94.345,8.050,-5.994,"0.348
",0.0,0.0,0.0
96.933,-0.506,2.953,1.617,0.061,1.581,-0.030,94.397,8.112,-6.237,"0.334
",0.0,0.0,0.0
97.185,-0.514,2.944,1.546,0.044,1.581,-0.024,94.450,8.306,-6.416,"0.317
",0.0,0.0,0.0
97.437,-0.521,2.938,1.478,0.048,1.584,-0.022,94.504,8.367,-6.472,"0.300
",0.0,0.0,0.0
97.690,-0.526,2.936,1.408,0.052,1.585,-0.023,94.558,8.421,-6.409,"0.264
",0.0,0.0,0.0
97.942,-0.528,2.938,1.340,0.047,1.584,-0.027,94.614,8.366,-6.211,"0.260
",0.0,0.0,0.0
98.194,-0.526,2.941,1.275,0.061,1.593,-0.013,94.670,8.189,-6.282,"0.215
",0.0,0.0,0.0
98.447,-0.519,2.945,1.213,0.057,1.590,-0.021,94.726,8.007,-6.169,"0.194
",0.0,0.0,0.0
98.699,-0.509,2.948,1.164,0.063,1.590,-0.022,94.780,7.746,-6.127,"0.183
",0.0,0.0,0.0
98.951,-0.497,2.951,1.120,0.062,1.593,-0.023,94.831,7.522,-6.090,"0.197
",0.0,0.0,0.0
99.203,-0.485,2.954,1.085,0.053,1.588,-0.038,94.880,7.403,-5.976,"0.204
",0.0,0.0,0.0
99.456,-0.476,2.960,1.059,0.054,1.589,-0.033,94.925,7.263,-5.896,"0.228
",0.0,0.0,0.0
99.708,-0.469,2.969,1.042,0.046,1.584,-0.031,94.968,7.272,-5.610,"0.241
",0.0,0.0,0.0
99.960,-0.464,2.981,1.035,0.057,1.582,-0.029,95.009,7.216,-5.350,"0.273
",0.0,0.0,0.0
100.213,-0.457,2.991,1.034,0.067,1.582,-0.026,95.044,7.087,-5.236,"0.298
",0.0,0.0,0.0
100.465,-0.451,2.995,1.037,0.074,1.582,-0.029,95.077,6.981,-5.295,"0.310
",0.0,0.0,0.0
100.717,-0.446,2.993,1.046,0.070,1.581,-0.028,95.108,6.950,-5.435,"0.321
",0.0,0.0,0.0
100.970,-0.441,2.985,1.062,0.062,1.578,-0.027,95.135,6.905,-5.665,"0.337
",0.0,0.0,0.0
101.222,-0.434,2.974,1.080,0.060,1.574,-0.025,95.161,6.759,-5.902,"0.357
",0.0,0.0,0.0
101.474,-0.425,2.965,1.103,0.053,1.578,-0.026,95.184,6.530,-6.043,"0.339
",0.0,0.0,0.0
101.727,-0.413,2.957,1.130,0.058,1.573,-0.032,95.206,6.311,-6.098,"0.349
",0.0,0.0,0.0
101.979,-0.401,2.952,1.159,0.059,1.577,-0.031,95.225,6.049,-6.168,"0.359
",0.0,0.0,0.0
102.231,-0.390,2.944,1.187,0.063,1.579,-0.032,95.244,5.929,-6.327,"0.344
",0.0,0.0,0.0
102.483,-0.380,2.934,1.214,0.062,1.578,-0.032,95.262,5.810,-6.539,"0.341
",0.0,0.0,0.0
102.736,-0.375,2.923,1.239,0.055,1.577,-0.037,95.281,5.831,-6.705,"0.349
",0.0,0.0,0.0
102.988,-0.373,2.914,1.263,0.052,1.576,-0.041,95.300,5.909,-6.786,"0.373
",0.0,0.0,0.0
103.240,-0.375,2.912,1.289,0.037,1.571,-0.047,95.318,6.058,-6.649,"0.421
",0.0,0.0,0.0
103.492,-0.381,2.916,1.315,0.034,1.574,-0.037,95.336,6.195,-6.472,"0.382
",0.0,0.0,0.0
103.745,-0.387,2.929,1.344,0.050,1.581,-0.018,95.352,6.253,-6.122,"0.349
",0.0,0.0,0.0
103.997,-0.391,2.948,1.375,0.054,1.575,-0.023,95.367,6.315,-5.687,"0.381
",0.0,0.0,0.0
104.249,-0.393,2.967,1.408,0.064,1.573,-0.024,95.381,6.274,-5.346,"0.386
",0.0,0.0,0.0
104.502,-0.392,2.982,1.442,0.059,1.569,-0.032,95.393,6.244,-5.135,"0.407
",0.0,0.0,0.0
104.754,-0.391,2.992,1.486,0.062,1.568,-0.038,95.404,6.237,-5.101,"0.456
",0.0,0.0,0.0
105.006,-0.390,2.997,1.537,0.065,1.572,-0.029,95.409,6.200,-5.142,"0.425
",0.0,0.0,0.0
105.258,-0.392,2.998,1.588,0.065,1.571,-0.036,95.413,6.299,-5.243,"0.422
",0.0,0.0,0.0
105.510,-0.396,2.995,1.641,0.059,1.575,-0.035,95.415,6.392,-5.401,"0.379
",0.0,0.0,0.0
105.763,-0.401,2.990,1.693,0.061,1.578,-0.032,95.415,6.496,-5.544,"0.349
",0.0,0.0,0.0
106.015,-0.409,2.983,1.745,0.056,1.580,-0.030,95.414,6.700,-5.752,"0.329
",0.0,0.0,0.0
106.268,-0.415,2.977,1.800,0.049,1.582,-0.020,95.413,6.742,-5.793,"0.311
",0.0,0.0,0.0
106.520,-0.420,2.977,1.861,0.041,1.584,-0.021,95.408,6.731,-5.686,"0.296
",0.0,0.0,0.0
106.772,-0.420,2.982,1.926,0.049,1.584,-0.019,95.401,6.651,-5.469,"0.281
",0.0,0.0,0.0
107.024,-0.417,2.994,1.995,0.055,1.585,-0.019,95.391,6.533,-5.174,"0.273
",0.0,0.0,0.0
107.276,-0.412,3.008,2.066,0.052,1.583,-0.028,95.379,6.385,-4.882,"0.279
",0.0,0.0,0.0
107.529,-0.407,3.022,2.138,0.060,1.583,-0.028,95.364,6.226,-4.534,"0.284
",0.0,0.0,0.0
107.781,-0.402,3.035,2.211,0.058,1.580,-0.033,95.348,6.260,-4.426,"0.295
",0.0,0.0,0.0
108.033,-0.399,3.044,2.284,0.068,1.581,-0.028,95.330,6.234,-4.412,"0.315
",0.0,0.0,0.0
108.285,-0.398,3.049,2.355,0.063,1.578,-0.035,95.311,6.315,-4.430,"0.319
",0.0,0.0,0.0
108.537,-0.401,3.048,2.426,0.064,1.578,-0.031,95.292,6.472,-4.505,"0.350
",0.0,0.0,0.0
108.790,-0.407,3.044,2.498,0.064,1.575,-0.028,95.271,6.592,-4.647,"0.359
",0.0,0.0,0.0
109.042,-0.415,3.038,2.572,0.060,1.574,-0.031,95.248,6.772,-4.815,"0.373
",0.0,0.0,0.0
109.294,-0.423,3.029,2.645,0.064,1.573,-0.028,95.224,6.939,-5.011,"0.381
",0.0,0.0,0.0
109.546,-0.433,3.020,2.721,0.053,1.574,-0.025,95.199,7.092,-5.141,"0.383
",0.0,0.0,0.0
109.799,-0.443,3.015,2.801,0.045,1.578,-0.013,95.171,7.270,-5.180,"0.386
",0.0,0.0,0.0
110.051,-0.450,3.016,2.882,0.047,1.575,-0.014,95.141,7.332,-4.970,"0.388
",0.0,0.0,0.0
110.303,-0.453,3.025,2.963,0.054,1.573,-0.015,95.109,7.286,-4.674,"0.396
",0.0,0.0,0.0
110.556,-0.450,3.038,3.042,0.056,1.573,-0.015,95.075,7.168,-4.398,"0.399
",0.0,0.0,0.0
110.808,-0.443,3.049,3.117,0.067,1.572,-0.019,95.042,6.936,-4.241,"0.404
",0.0,0.0,0.0
111.060,-0.434,3.057,3.190,0.066,1.569,-0.024,95.008,6.721,-4.143,"0.425
",0.0,0.0,0.0
111.312,-0.424,3.061,3.264,0.060,1.570,-0.026,94.971,6.595,-4.186,"0.443
",0.0,0.0,0.0
111.565,-0.416,3.063,3.338,0.061,1.569,-0.024,94.935,6.483,-4.211,"0.450
",0.0,0.0,0.0
111.817,-0.411,3.063,3.413,0.062,1.567,-0.027,94.898,6.426,-4.216,"0.453
",0.0,0.0,0.0
112.069,-0.407,3.060,3.486,0.072,1.569,-0.024,94.860,6.423,-4.369,"0.453
",0.0,0.0,0.0
112.321,-0.404,3.053,3.556,0.063,1.570,-0.024,94.821,6.371,-4.544,"0.442
",0.0,0.0,0.0
112.573,-0.400,3.045,3.624,0.051,1.572,-0.019,94.782,6.302,-4.731,"0.419
",0.0,0.0,0.0
112.826,-0.396,3.040,3.696,0.048,1.571,-0.023,94.743,6.231,-4.711,"0.413
",0.0,0.0,0.0
113.078,-0.391,3.042,3.768,0.047,1.570,-0.026,94.701,6.161,-4.526,"0.423
",0.0,0.0,0.0
113.330,-0.386,3.050,3.837,0.051,1.571,-0.018,94.658,6.041,-4.278,"0.420
",0.0,0.0,0.0
113.583,-0.382,3.062,3.905,0.056,1.569,-0.029,94.615,6.036,-3.984,"0.427
",0.0,0.0,0.0
113.835,-0.378,3.075,3.972,0.068,1.572,-0.024,94.571,5.959,-3.801,"0.425
",0.0,0.0,0.0
114.087,-0.378,3.086,4.037,0.064,1.571,-0.032,94.527,6.063,-3.647,"0.436
",0.0,0.0,0.0
114.339,-0.380,3.091,4.098,0.070,1.571,-0.026,94.483,6.128,-3.675,"0.419
",0.0,0.0,0.0
114.592,-0.383,3.094,4.154,0.067,1.574,-0.017,94.439,6.151,-3.745,"0.403
",0.0,0.0,0.0
114.844,-0.384,3.091,4.206,0.067,1.574,-0.019,94.397,6.138,-3.882,"0.384
",0.0,0.0,0.0
115.096,-0.382,3.085,4.255,0.059,1.574,-0.025,94.355,6.065,-4.024,"0.375
",0.0,0.0,0.0
115.349,-0.378,3.078,4.301,0.058,1.573,-0.030,94.313,5.964,-4.149,"0.375
",0.0,0.0,0.0
115.601,-0.374,3.073,4.348,0.055,1.575,-0.028,94.272,5.884,-4.220,"0.374
",0.0,0.0,0.0
115.853,-0.372,3.072,4.391,0.054,1.573,-0.026,94.231,5.908,-4.146,"0.393
",0.0,0.0,0.0
116.106,-0.371,3.075,4.431,0.056,1.573,-0.027,94.189,5.872,-4.039,"0.404
",0.0,0.0,0.0
116.358,-0.373,3.081,4.468,0.063,1.569,-0.033,94.149,6.003,-3.817,"0.429
",0.0,0.0,0.0
116.611,-0.378,3.088,4.497,0.068,1.567,-0.025,94.110,6.138,-3.677,"0.455
",0.0,0.0,0.0
116.863,-0.386,3.095,4.519,0.067,1.567,-0.023,94.071,6.352,-3.580,"0.470
",0.0,0.0,0.0
117.115,-0.391,3.097,4.534,0.073,1.565,-0.016,94.037,6.387,-3.626,"0.479
",0.0,0.0,0.0
117.367,-0.393,3.099,4.544,0.059,1.562,-0.022,94.006,6.317,-3.621,"0.504
",0.0,0.0,0.0
117.620,-0.388,3.098,4.548,0.062,1.563,-0.015,93.977,6.118,-3.669,"0.512
",0.0,0.0,0.0
117.872,-0.379,3.098,4.546,0.064,1.564,-0.016,93.950,5.876,-3.652,"0.511
",0.0,0.0,0.0
118.125,-0.368,3.097,4.535,0.071,1.562,-0.031,93.927,5.648,-3.674,"0.512
",0.0,0.0,0.0
118.377,-0.359,3.096,4.516,0.066,1.565,-0.036,93.907,5.586,-3.708,"0.494
",0.0,0.0,0.0
118.629,-0.356,3.092,4.488,0.070,1.572,-0.035,93.890,5.587,-3.901,"0.438
",0.0,0.0,0.0
118.881,-0.361,3.087,4.449,0.070,1.577,-0.036,93.879,5.837,-4.009,"0.380
",0.0,0.0,0.0
119.133,-0.370,3.080,4.399,0.065,1.585,-0.025,93.873,6.120,-4.257,"0.318
",0.0,0.0,0.0
119.386,-0.384,3.071,4.338,0.066,1.587,-0.021,93.872,6.345,-4.458,"0.259
",0.0,0.0,0.0
119.638,-0.397,3.062,4.267,0.062,1.593,-0.013,93.877,6.570,-4.622,"0.202
",0.0,0.0,0.0
119.890,-0.408,3.054,4.189,0.062,1.596,-0.012,93.886,6.615,-4.754,"0.156
",0.0,0.0,0.0
120.142,-0.415,3.047,4.103,0.057,1.598,-0.012,93.900,6.621,-4.834,"0.119
",0.0,0.0,0.0
120.395,-0.419,3.041,4.015,0.064,1.601,-0.013,93.918,6.636,-4.927,"0.099
",0.0,0.0,0.0
120.647,-0.419,3.035,3.920,0.065,1.598,-0.016,93.940,6.549,-4.996,"0.089
",0.0,0.0,0.0
120.899,-0.416,3.025,3.822,0.072,1.600,-0.018,93.965,6.444,-5.259,"0.088
",0.0,0.0,0.0
121.152,-0.414,3.010,3.719,0.067,1.602,-0.026,93.994,6.428,-5.566,"0.089
",0.0,0.0,0.0
121.404,-0.416,2.994,3.611,0.055,1.602,-0.024,94.025,6.522,-5.852,"0.072
",0.0,0.0,0.0
121.656,-0.422,2.982,3.504,0.049,1.602,-0.024,94.060,6.669,-5.974,"0.070
",0.0,0.0,0.0
121.909,-0.462,2.959,3.411,0.128,1.600,-0.143,94.095,8.152,-6.733,"0.088
",0.0,0.0,0.0
122.161,-0.540,2.923,3.354,0.123,1.608,-0.143,94.123,10.688,-7.931,"0.027
",0.0,0.0,0.0
122.413,-0.690,2.845,3.319,0.108,1.634,-0.001,94.141,13.449,-10.238,"-0.186
",0.0,0.0,0.0
122.666,-0.836,2.741,3.329,0.114,1.644,0.031,94.143,15.542,-12.759,"-0.360
",0.0,0.0,0.0
122.918,-0.949,2.606,3.364,0.118,1.652,0.028,94.130,16.315,-15.901,"-0.461
",0.0,0.0,0.0
123.171,-1.031,2.445,3.371,0.113,1.660,0.027,94.115,16.495,-19.080,"-0.553
",0.0,0.0,0.0
123.423,-1.088,2.261,3.312,0.107,1.668,0.022,94.117,15.842,-22.455,"-0.650
",0.0,0.0,0.0
123.675,-1.121,2.077,3.179,0.015,1.675,0.011,94.148,15.224,-22.760,"-0.730
",0.0,0.0,0.0
123.928,-1.133,1.907,2.999,0.014,1.680,0.006,94.207,14.678,-22.207,"-0.798
",0.0,0.0,0.0
124.180,-1.122,1.762,2.803,0.031,1.680,0.021,94.282,14.175,-21.473,"-0.836
",0.0,0.0,0.0
124.433,-1.084,1.653,2.608,0.012,1.688,0.023,94.365,13.498,-20.880,"-0.876
",0.0,0.0,0.0
124.685,-1.018,1.573,2.407,0.004,1.695,0.029,94.455,12.279,-20.184,"-0.945
",0.0,0.0,0.0
124.938,-0.925,1.523,2.208,0.012,1.706,0.029,94.550,9.723,-19.468,"-1.049
",0.0,0.0,0.0
125.190,-0.817,1.501,2.006,0.022,1.711,-0.034,94.648,7.807,-18.539,"-1.155
",0.0,0.0,0.0
125.442,-0.715,1.504,1.809,0.024,1.726,-0.067,94.749,6.406,-17.860,"-1.265
",0.0,0.0,0.0
125.695,-0.621,1.521,1.612,0.049,1.737,0.002,94.853,4.852,-17.348,"-1.425
",0.0,0.0,0.0
125.947,-0.535,1.548,1.421,0.043,1.749,-0.003,94.960,2.969,-16.701,"-1.559
",0.0,0.0,0.0
126.200,-0.430,1.574,1.214,0.063,1.762,0.012,95.070,1.238,-16.662,"-1.709
",0.0,0.0,0.0
126.452,-0.318,1.593,1.025,0.063,1.775,-0.003,95.184,-0.665,-16.455,"-1.842
",0.0,0.0,0.0
126.704,-0.201,1.601,0.869,0.068,1.765,-0.020,95.292,-3.579,-16.111,"-1.880
",0.0,0.0,0.0
126.957,-0.080,1.600,0.747,0.057,1.720,-0.014,95.389,-3.919,-16.293,"-1.543
",0.0,0.0,0.0
127.209,0.041,1.598,0.661,0.028,1.685,-0.025,95.472,-5.572,-16.223,"-1.058
",0.0,0.0,0.0
127.461,0.165,1.599,0.533,0.038,1.660,-0.033,95.555,-8.186,-16.041,"-0.762
",0.0,0.0,0.0
127.713,0.278,1.617,0.450,0.019,1.630,-0.033,95.652,-7.728,-15.782,"-0.450
",0.0,0.0,0.0
127.966,0.356,1.644,0.495,0.021,1.612,-0.053,95.704,-8.017,-15.732,"-0.156
",0.0,0.0,0.0
128.218,0.427,1.691,0.501,0.021,1.605,-0.080,95.740,-8.825,-15.237,"-0.001
",0.0,0.0,0.0
128.470,0.470,1.746,0.441,0.046,1.609,-0.104,95.791,-8.977,-14.962,"0.003
",0.0,0.0,0.0
128.722,0.510,1.784,0.437,0.008,1.614,-0.059,95.846,-9.427,-15.371,"-0.022
",0.0,0.0,0.0
128.975,0.522,1.773,0.433,0.036,1.599,-0.028,95.893,-8.848,-16.737,"0.108
",0.0,0.0,0.0
