Time,X,Y,Z,Pitch,Yaw,Roll,errorHeight,errorRoll,errorPitch,errorYaw,HLeadOut,HIntegralOut,HeightError
0.253,-0.010,1.204,0.402,0.008,-0.030,-0.013,452.012,-0.002,-0.026,0.017,0.402,0.000,"-3.598
"
0.506,-0.006,1.205,0.404,0.030,-0.033,-0.028,452.009,-0.090,-0.172,-0.039,0.404,0.000,"-3.596
"
0.759,-0.010,1.217,0.431,0.025,-0.042,0.006,450.120,-0.434,-0.004,0.046,0.429,0.000,"-3.569
"
1.010,-0.016,1.246,0.553,0.017,-0.060,0.012,444.503,-1.293,0.072,0.244,0.542,0.000,"-3.447
"
1.262,-0.025,1.295,0.751,0.015,-0.073,-0.001,434.156,-2.821,0.231,0.428,0.736,0.000,"-3.249
"
1.514,-0.041,1.354,0.995,0.009,-0.087,-0.035,422.554,-4.544,0.726,0.561,0.961,0.000,"-3.005
"
1.766,-0.053,1.388,1.157,0.018,-0.093,-0.046,435.955,-4.387,0.758,0.704,1.157,0.000,"-2.843
"
2.017,-0.065,1.412,1.295,0.021,-0.096,-0.054,409.818,-6.115,1.472,0.752,1.295,0.000,"-2.705
"
2.269,-0.086,1.428,1.663,0.036,-0.114,-0.102,431.664,-3.793,1.208,0.899,1.652,0.000,"-2.337
"
2.521,-0.083,1.390,1.815,0.031,-0.116,-0.066,440.882,-2.091,0.817,0.960,1.805,0.000,"-2.185
"
2.773,-0.069,1.327,1.971,0.025,-0.116,-0.031,442.066,-0.455,0.574,1.010,1.960,0.000,"-2.029
"
3.025,-0.050,1.259,2.131,0.027,-0.124,-0.015,442.555,0.697,0.260,1.044,2.126,0.000,"-1.869
"
3.277,-0.028,1.197,2.305,0.020,-0.125,0.008,430.342,3.063,-0.379,1.084,2.293,0.000,"-1.695
"
3.529,-0.010,1.157,2.467,0.015,-0.128,0.027,439.289,2.190,-0.387,1.115,2.467,0.000,"-1.533
"
3.781,0.004,1.137,2.632,0.015,-0.129,0.010,437.898,1.801,-0.445,1.139,2.632,0.000,"-1.368
"
4.033,0.012,1.137,2.800,0.018,-0.133,-0.008,442.958,1.166,-0.458,1.198,2.795,0.000,"-1.200
"
4.285,0.016,1.146,2.943,0.026,-0.141,-0.033,436.213,0.719,-0.514,1.210,2.943,0.000,"-1.057
"
4.537,0.020,1.160,3.117,0.013,-0.134,-0.023,429.832,0.087,-0.680,1.198,3.117,0.000,"-0.883
"
4.789,0.024,1.166,3.264,0.024,-0.140,-0.052,430.577,0.330,-0.738,1.195,3.264,0.000,"-0.736
"
5.041,0.029,1.162,3.408,0.018,-0.131,-0.036,434.577,0.897,-0.741,1.243,3.403,0.000,"-0.592
"
5.292,0.037,1.150,3.526,0.037,-0.144,-0.062,433.763,1.703,-0.975,1.266,3.526,0.000,"-0.474
"
5.544,0.050,1.129,3.663,0.024,-0.135,-0.034,439.043,2.144,-1.219,1.225,3.663,0.000,"-0.337
"
5.797,0.068,1.106,3.799,0.028,-0.138,-0.044,442.478,2.292,-1.435,1.204,3.790,0.000,"-0.201
"
6.048,0.086,1.086,3.937,0.027,-0.136,-0.043,442.351,2.579,-1.784,1.203,3.932,0.000,"-0.063
"
6.301,0.103,1.071,4.082,0.013,-0.132,-0.017,398.515,2.836,-1.861,1.206,4.077,0.000,"0.082
"
6.553,0.118,1.060,4.190,0.014,-0.130,-0.018,396.340,3.030,-2.311,1.189,4.185,0.000,"0.190
"
6.805,0.130,1.056,4.218,0.011,-0.131,-0.019,405.881,2.811,-2.332,1.182,4.218,0.000,"0.218
"
7.057,0.139,1.055,4.186,0.016,-0.129,-0.030,412.410,2.695,-2.400,1.159,4.186,0.000,"0.186
"
7.309,0.147,1.056,4.093,0.027,-0.140,-0.054,413.171,2.544,-2.276,1.164,4.101,0.000,"0.093
"
7.561,0.152,1.056,3.974,0.018,-0.131,-0.050,458.912,2.726,-2.454,1.229,3.974,0.000,"-0.026
"
7.813,0.157,1.051,3.834,0.018,-0.126,-0.046,463.127,2.911,-2.509,1.140,3.838,0.000,"-0.166
"
8.066,0.160,1.039,3.743,0.021,-0.129,-0.039,459.528,3.276,-2.321,1.152,3.748,0.000,"-0.257
"
8.318,0.160,1.026,3.703,0.022,-0.124,-0.035,455.979,3.631,-2.261,1.095,3.705,0.000,"-0.297
"
8.571,0.162,1.016,3.706,0.024,-0.119,-0.027,451.849,3.525,-2.402,1.048,3.704,0.000,"-0.294
"
8.823,0.164,1.008,3.746,0.018,-0.113,-0.021,449.460,3.536,-2.425,1.019,3.742,0.000,"-0.254
"
9.075,0.166,1.002,3.818,0.018,-0.115,-0.034,447.505,3.623,-2.322,1.018,3.810,0.000,"-0.182
"
9.327,0.168,0.996,3.909,0.046,-0.128,-0.073,445.741,3.569,-2.505,1.029,3.909,0.000,"-0.091
"
9.579,0.173,0.989,4.018,0.048,-0.125,-0.074,410.347,3.814,-2.309,1.029,4.015,0.000,"0.018
"
9.832,0.183,0.983,4.106,0.052,-0.124,-0.061,400.783,4.073,-2.768,0.978,4.106,0.000,"0.106
"
10.084,0.198,0.981,4.133,0.017,-0.105,-0.025,406.528,4.002,-3.324,0.950,4.133,0.000,"0.133
"
10.336,0.211,0.981,4.092,0.001,-0.109,-0.017,413.176,3.860,-3.533,0.928,4.092,0.000,"0.092
"
10.588,0.219,0.982,3.985,0.011,-0.110,-0.055,441.920,3.959,-3.474,0.915,4.001,0.000,"-0.015
"
10.840,0.217,0.980,3.865,0.020,-0.110,-0.064,462.864,3.936,-3.147,0.897,3.885,0.000,"-0.135
"
11.092,0.210,0.973,3.781,0.029,-0.103,-0.053,461.529,4.198,-2.897,0.861,3.790,0.000,"-0.219
"
11.344,0.203,0.962,3.738,0.036,-0.099,-0.040,455.644,4.440,-2.692,0.807,3.738,0.000,"-0.262
"
11.596,0.200,0.953,3.728,0.037,-0.088,-0.025,452.795,4.528,-2.836,0.709,3.727,0.000,"-0.272
"
11.848,0.204,0.945,3.742,0.042,-0.095,-0.050,451.422,4.690,-3.122,0.674,3.741,0.000,"-0.258
"
12.100,0.210,0.940,3.773,0.034,-0.096,-0.059,449.979,4.609,-3.225,0.708,3.773,0.000,"-0.227
"
12.352,0.218,0.932,3.839,0.028,-0.088,-0.049,445.504,4.861,-3.495,0.697,3.834,0.000,"-0.161
"
12.604,0.221,0.924,3.909,0.024,-0.092,-0.057,445.003,5.029,-3.251,0.714,3.904,0.000,"-0.091
"
12.856,0.217,0.914,3.987,0.009,-0.080,-0.025,437.641,5.210,-3.076,0.696,3.980,0.000,"-0.013
"
13.109,0.207,0.903,4.063,0.024,-0.090,-0.049,401.819,5.270,-2.631,0.629,4.056,0.000,"0.063
"
13.361,0.193,0.895,4.087,0.051,-0.100,-0.068,406.526,5.364,-2.219,0.728,4.088,0.000,"0.087
"
13.613,0.179,0.890,4.043,0.044,-0.090,-0.038,411.664,5.192,-2.125,0.692,4.048,0.000,"0.043
"
13.865,0.174,0.887,3.942,0.031,-0.078,-0.016,462.904,5.361,-2.309,0.665,3.949,0.000,"-0.058
"
14.117,0.175,0.887,3.837,0.043,-0.083,-0.026,459.986,5.382,-2.474,0.608,3.837,0.000,"-0.163
"
14.369,0.183,0.891,3.764,0.034,-0.080,-0.034,457.550,5.078,-2.846,0.579,3.771,0.000,"-0.236
"
14.621,0.191,0.893,3.734,0.031,-0.084,-0.055,455.342,5.156,-3.054,0.613,3.734,0.000,"-0.266
"
14.873,0.198,0.891,3.740,0.009,-0.074,-0.021,450.820,5.194,-3.128,0.564,3.740,0.000,"-0.260
"
15.125,0.200,0.883,3.762,0.013,-0.075,-0.019,450.519,5.572,-2.973,0.560,3.762,0.000,"-0.238
"
15.419,0.197,0.869,3.804,0.044,-0.097,-0.070,448.752,5.926,-2.577,0.544,3.804,0.000,"-0.196
"
15.671,0.192,0.858,3.850,0.033,-0.079,-0.030,447.409,6.063,-2.572,0.542,3.840,0.000,"-0.150
"
15.923,0.191,0.850,3.897,0.023,-0.072,-0.010,449.172,6.037,-2.726,0.559,3.897,0.000,"-0.103
"
16.175,0.192,0.844,3.960,0.028,-0.077,-0.031,447.508,6.148,-2.731,0.592,3.957,0.000,"-0.040
"
16.427,0.194,0.838,4.027,0.038,-0.084,-0.051,403.701,6.227,-2.763,0.610,4.027,0.000,"0.027
"
16.679,0.198,0.831,4.070,0.029,-0.078,-0.016,404.956,6.608,-2.970,0.599,4.069,0.000,"0.070
"
16.931,0.204,0.825,4.049,0.032,-0.075,-0.007,410.017,6.352,-3.196,0.568,4.049,0.000,"0.049
"
17.183,0.216,0.819,3.969,0.026,-0.075,-0.021,462.134,6.625,-3.504,0.541,3.969,0.000,"-0.031
"
17.435,0.229,0.814,3.870,0.012,-0.065,-0.012,458.965,6.572,-3.723,0.500,3.872,0.000,"-0.130
"
17.689,0.236,0.807,3.819,0.005,-0.066,-0.011,456.020,6.677,-3.730,0.476,3.821,0.000,"-0.181
"
17.941,0.234,0.798,3.810,0.007,-0.066,-0.021,452.844,7.084,-3.251,0.416,3.809,0.000,"-0.190
"
18.192,0.222,0.787,3.831,0.019,-0.067,-0.017,450.437,7.339,-2.773,0.410,3.828,0.000,"-0.169
"
18.444,0.207,0.775,3.874,0.023,-0.069,-0.008,448.186,7.449,-2.317,0.435,3.869,0.000,"-0.126
"
18.696,0.195,0.763,3.938,0.045,-0.077,-0.042,446.338,7.424,-2.292,0.460,3.936,0.000,"-0.062
"
18.948,0.188,0.748,4.020,0.040,-0.072,-0.030,412.198,7.869,-2.387,0.513,4.015,0.000,"0.020
"
19.200,0.188,0.732,4.093,0.042,-0.080,-0.027,402.881,8.101,-2.653,0.544,4.089,0.000,"0.093
"
19.452,0.195,0.719,4.105,0.047,-0.083,-0.030,407.397,8.091,-2.761,0.537,4.107,0.000,"0.105
"
19.705,0.210,0.712,4.060,0.038,-0.082,-0.021,411.229,8.330,-3.127,0.609,4.064,0.000,"0.060
"
19.957,0.228,0.710,3.962,0.035,-0.083,-0.031,463.480,8.139,-3.759,0.568,3.962,0.000,"-0.038
"
20.209,0.244,0.712,3.858,0.012,-0.082,-0.030,461.103,7.957,-4.017,0.583,3.858,0.000,"-0.142
"
20.461,0.249,0.717,3.803,0.013,-0.086,-0.034,455.215,7.764,-3.570,0.558,3.810,0.000,"-0.197
"
20.713,0.239,0.723,3.788,0.014,-0.076,-0.019,452.954,7.632,-3.248,0.636,3.786,0.000,"-0.212
"
20.965,0.228,0.712,3.781,0.034,-0.086,-0.118,455.025,8.490,-2.771,0.644,3.781,0.000,"-0.219
"
