Time,X,Y,Z,Pitch,Yaw,Roll,errorHeight,errorRoll,errorPitch,errorYaw,HLeadOut,HIntegralOut,HeightError
0.300,0.473,3.660,0.418,0.030,1.563,-0.025,86.227,0.003,-0.026,0.049,0.418,39.261,"-2.582
"
0.551,0.473,3.663,0.420,0.025,1.567,-0.023,86.284,-0.017,0.095,0.001,0.419,42.160,"-2.580
"
0.801,0.485,3.669,0.444,0.045,1.566,0.027,86.335,-0.527,0.274,-0.031,0.427,45.056,"-2.556
"
1.051,0.517,3.680,0.525,0.058,1.558,0.024,86.365,-1.504,0.615,0.038,0.473,47.924,"-2.475
"
1.302,0.570,3.688,0.657,0.057,1.544,-0.027,86.364,-2.710,0.505,0.160,0.571,50.711,"-2.343
"
1.553,0.631,3.690,0.828,0.055,1.547,-0.039,86.334,-3.779,0.407,0.220,0.716,53.362,"-2.172
"
1.805,0.680,3.689,1.017,0.046,1.541,-0.065,86.283,-4.347,0.266,0.268,0.891,55.830,"-1.983
"
2.058,0.705,3.689,1.205,0.046,1.538,-0.080,86.222,-4.203,0.324,0.289,1.078,58.095,"-1.795
"
2.310,0.698,3.689,1.382,0.052,1.537,-0.084,86.159,-3.333,0.315,0.312,1.261,60.150,"-1.618
"
2.562,0.662,3.692,1.543,0.046,1.537,-0.077,86.098,-1.938,0.462,0.325,1.433,62.006,"-1.457
"
2.813,0.600,3.692,1.710,0.054,1.532,-0.049,86.038,0.757,0.558,0.347,1.596,63.675,"-1.290
"
3.065,0.528,3.694,1.867,0.051,1.535,-0.016,85.977,1.260,0.653,0.354,1.755,65.162,"-1.133
"
3.317,0.463,3.693,2.016,0.058,1.533,-0.013,85.918,2.287,0.593,0.378,1.905,66.474,"-0.984
"
3.569,0.409,3.692,2.157,0.057,1.531,-0.000,85.859,3.162,0.580,0.393,2.049,67.620,"-0.843
"
3.820,0.371,3.691,2.287,0.050,1.529,0.002,85.798,2.817,0.545,0.418,2.190,68.607,"-0.713
"
4.072,0.348,3.690,2.407,0.057,1.527,-0.009,85.742,2.774,0.539,0.434,2.319,69.444,"-0.593
"
4.324,0.335,3.690,2.518,0.055,1.524,-0.016,85.685,2.549,0.576,0.454,2.444,70.184,"-0.482
"
4.576,0.327,3.689,2.620,0.057,1.524,-0.026,85.636,2.488,0.485,0.477,2.551,70.747,"-0.380
"
4.827,0.322,3.688,2.706,0.054,1.523,-0.029,85.590,2.636,0.503,0.470,2.647,71.196,"-0.294
"
5.079,0.315,3.685,2.787,0.055,1.526,-0.030,85.549,2.694,0.403,0.464,2.733,71.543,"-0.213
"
5.330,0.306,3.682,2.859,0.051,1.526,-0.031,85.510,2.957,0.366,0.460,2.810,71.799,"-0.141
"
5.582,0.292,3.680,2.917,0.050,1.531,-0.035,85.475,3.310,0.344,0.430,2.878,71.973,"-0.083
"
5.834,0.276,3.677,2.966,0.063,1.536,-0.021,85.445,3.885,0.220,0.384,2.933,72.078,"-0.034
"
6.086,0.257,3.675,3.003,0.048,1.538,-0.024,85.422,4.011,0.300,0.351,2.977,72.128,"0.003
"
6.337,0.240,3.671,3.029,0.064,1.541,-0.018,85.403,4.228,0.136,0.302,3.010,72.134,"0.029
"
6.589,0.223,3.668,3.042,0.052,1.544,-0.019,85.390,4.453,0.140,0.269,3.032,72.109,"0.042
"
6.841,0.209,3.665,3.042,0.048,1.549,-0.015,85.385,4.555,0.075,0.237,3.040,72.067,"0.042
"
7.092,0.197,3.667,3.030,0.045,1.548,-0.021,85.386,4.762,0.300,0.205,3.037,72.023,"0.030
"
7.344,0.186,3.672,3.009,0.060,1.552,-0.019,85.393,4.810,0.385,0.183,3.022,71.989,"0.009
"
7.597,0.175,3.679,2.978,0.057,1.552,-0.024,85.407,4.942,0.518,0.164,2.998,71.976,"-0.022
"
7.848,0.164,3.683,2.938,0.055,1.556,-0.022,85.426,5.148,0.533,0.141,2.965,71.997,"-0.062
"
8.100,0.153,3.683,2.892,0.067,1.558,-0.017,85.451,5.300,0.454,0.125,2.923,72.059,"-0.108
"
8.352,0.141,3.683,2.838,0.056,1.557,-0.026,85.481,5.499,0.408,0.098,2.874,72.172,"-0.162
"
8.608,0.128,3.676,2.775,0.071,1.558,-0.027,85.519,5.689,0.159,0.098,2.813,72.358,"-0.225
"
8.860,0.113,3.665,2.695,0.061,1.560,-0.023,85.562,6.091,-0.169,0.089,2.745,72.605,"-0.305
"
9.112,0.098,3.651,2.610,0.057,1.561,-0.018,85.614,6.283,-0.428,0.069,2.664,72.936,"-0.390
"
9.363,0.083,3.639,2.519,0.052,1.562,-0.020,85.673,6.490,-0.551,0.055,2.576,73.362,"-0.481
"
9.615,0.069,3.629,2.422,0.047,1.560,-0.026,85.736,6.749,-0.695,0.064,2.483,73.889,"-0.578
"
9.867,0.058,3.621,2.325,0.057,1.563,-0.016,85.801,6.878,-0.784,0.038,2.389,74.522,"-0.675
"
10.119,0.048,3.619,2.221,0.041,1.563,-0.022,85.873,7.045,-0.670,0.039,2.288,75.265,"-0.779
"
10.371,0.041,3.619,2.112,0.057,1.562,-0.019,85.949,6.981,-0.615,0.032,2.182,76.123,"-0.888
"
10.623,0.037,3.621,2.000,0.058,1.564,-0.015,86.031,6.982,-0.570,0.035,2.072,77.103,"-1.000
"
10.875,0.036,3.621,1.888,0.058,1.561,-0.024,86.114,6.892,-0.539,0.041,1.963,78.206,"-1.112
"
11.126,0.039,3.622,1.781,0.053,1.564,-0.021,86.199,6.737,-0.561,0.027,1.856,79.432,"-1.219
"
11.378,0.043,3.620,1.683,0.057,1.559,-0.036,86.283,6.675,-0.587,0.040,1.752,80.776,"-1.317
"
11.630,0.044,3.619,1.594,0.057,1.564,-0.034,86.367,6.729,-0.697,0.045,1.655,82.232,"-1.406
"
11.882,0.041,3.614,1.513,0.059,1.565,-0.033,86.447,6.867,-0.838,0.022,1.567,83.792,"-1.487
"
12.134,0.035,3.604,1.442,0.068,1.569,-0.027,86.522,7.110,-1.275,0.014,1.491,85.445,"-1.558
"
12.385,0.028,3.589,1.380,0.056,1.564,-0.037,86.595,7.181,-1.456,-0.001,1.423,87.178,"-1.620
"
12.637,0.019,3.571,1.325,0.055,1.571,-0.031,86.664,7.377,-1.872,-0.011,1.364,88.983,"-1.675
"
12.889,0.009,3.554,1.270,0.046,1.570,-0.027,86.732,7.540,-2.125,-0.077,1.308,90.852,"-1.730
"
13.141,-0.001,3.541,1.217,0.042,1.571,-0.025,86.800,7.691,-2.171,-0.067,1.253,92.783,"-1.783
"
13.393,-0.011,3.536,1.159,0.044,1.569,-0.026,86.870,7.832,-2.077,-0.065,1.199,94.775,"-1.841
"
13.645,-0.017,3.539,1.107,0.048,1.575,-0.016,86.941,7.859,-1.910,-0.089,1.144,96.829,"-1.893
"
13.897,-0.022,3.545,1.054,0.047,1.575,-0.024,87.012,7.890,-1.693,-0.084,1.092,98.942,"-1.946
"
14.149,-0.022,3.550,1.004,0.061,1.574,-0.018,87.089,7.812,-1.659,-0.095,1.036,101.262,"-1.996
"
14.401,-0.020,3.551,0.959,0.065,1.576,-0.018,87.159,7.681,-1.721,-0.110,0.988,103.494,"-2.041
"
14.653,-0.013,3.547,0.922,0.059,1.576,-0.019,87.228,7.506,-1.945,-0.124,0.946,105.778,"-2.078
"
14.905,-0.005,3.535,0.901,0.066,1.577,-0.023,87.290,7.332,-2.300,-0.136,0.916,108.102,"-2.099
"
15.157,0.004,3.517,0.892,0.056,1.580,-0.028,87.346,7.110,-2.745,-0.138,0.899,110.453,"-2.108
"
15.408,0.011,3.498,0.898,0.043,1.581,-0.029,87.394,7.047,-3.120,-0.150,0.896,112.816,"-2.102
"
15.661,0.016,3.479,0.918,0.049,1.579,-0.027,87.434,7.061,-3.407,-0.145,0.907,115.175,"-2.082
"
15.913,0.019,3.466,0.949,0.040,1.580,-0.020,87.466,7.050,-3.428,-0.158,0.930,117.514,"-2.051
"
16.165,0.021,3.458,0.989,0.040,1.579,-0.029,87.492,7.036,-3.425,-0.160,0.963,119.821,"-2.011
"
16.417,0.022,3.455,1.034,0.045,1.576,-0.029,87.514,7.049,-3.279,-0.140,1.004,122.086,"-1.966
"
16.669,0.021,3.457,1.084,0.048,1.575,-0.030,87.530,7.128,-3.192,-0.122,1.051,124.302,"-1.916
"
16.920,0.016,3.462,1.134,0.044,1.577,-0.023,87.545,7.312,-2.976,-0.121,1.100,126.463,"-1.866
"
17.172,0.009,3.469,1.190,0.050,1.571,-0.031,87.556,7.481,-2.844,-0.102,1.153,128.568,"-1.810
"
17.424,-0.001,3.476,1.245,0.057,1.570,-0.029,87.565,7.666,-2.733,-0.052,1.207,130.612,"-1.755
"
17.676,-0.012,3.482,1.299,0.052,1.567,-0.026,87.573,7.906,-2.649,-0.063,1.262,132.595,"-1.701
"
17.928,-0.023,3.483,1.354,0.060,1.567,-0.023,87.580,8.180,-2.695,-0.006,1.316,134.516,"-1.646
"
18.180,-0.029,3.482,1.411,0.061,1.567,-0.013,87.585,8.086,-2.777,-0.014,1.372,136.376,"-1.589
"
18.432,-0.031,3.475,1.467,0.068,1.566,-0.014,87.587,7.971,-3.062,-0.012,1.430,138.172,"-1.533
"
18.684,-0.028,3.463,1.528,0.052,1.566,-0.024,87.587,7.852,-3.336,-0.018,1.489,139.902,"-1.472
"
18.936,-0.025,3.450,1.585,0.050,1.564,-0.029,87.588,7.756,-3.577,-0.009,1.545,141.568,"-1.415
"
19.188,-0.022,3.440,1.638,0.048,1.568,-0.020,87.589,7.730,-3.734,-0.036,1.599,143.171,"-1.362
"
19.440,-0.021,3.435,1.693,0.043,1.568,-0.026,87.588,7.743,-3.687,-0.011,1.655,144.713,"-1.307
"
19.691,-0.019,3.435,1.751,0.042,1.568,-0.024,87.585,7.694,-3.488,-0.025,1.714,146.290,"-1.249
"
19.943,-0.016,3.441,1.811,0.042,1.564,-0.029,87.580,7.673,-3.210,-0.041,1.772,147.701,"-1.189
"
20.195,-0.014,3.451,1.869,0.055,1.566,-0.022,87.573,7.572,-2.935,0.002,1.831,149.047,"-1.131
"
20.447,-0.012,3.462,1.925,0.061,1.565,-0.024,87.565,7.568,-2.821,-0.001,1.888,150.329,"-1.075
"
20.699,-0.008,3.465,1.980,0.075,1.565,-0.022,87.557,7.480,-2.941,0.008,1.944,151.546,"-1.020
"
20.951,-0.006,3.463,2.032,0.063,1.565,-0.026,87.549,7.499,-3.131,-0.002,1.998,152.701,"-0.968
"
21.202,-0.004,3.453,2.086,0.061,1.567,-0.021,87.540,7.431,-3.585,-0.019,2.052,153.797,"-0.914
"
21.454,-0.002,3.442,2.140,0.049,1.569,-0.023,87.530,7.457,-3.694,-0.019,2.106,154.831,"-0.860
"
21.706,-0.002,3.434,2.190,0.042,1.564,-0.028,87.519,7.474,-3.752,0.002,2.158,155.806,"-0.810
"
21.957,-0.002,3.430,2.247,0.048,1.568,-0.018,87.507,7.513,-3.713,-0.025,2.211,156.721,"-0.753
"
22.209,-0.003,3.433,2.293,0.044,1.565,-0.026,87.496,7.468,-3.477,0.007,2.261,157.579,"-0.707
"
22.461,-0.003,3.441,2.336,0.049,1.567,-0.021,87.485,7.518,-3.178,0.001,2.307,158.383,"-0.664
"
22.713,-0.005,3.453,2.375,0.050,1.565,-0.029,87.477,7.564,-2.850,-0.000,2.348,159.137,"-0.625
"
22.964,-0.005,3.468,2.408,0.062,1.569,-0.016,87.470,7.561,-2.331,-0.019,2.385,159.848,"-0.592
"
23.216,-0.004,3.482,2.437,0.059,1.567,-0.020,87.465,7.499,-2.372,-0.032,2.417,160.520,"-0.563
"
23.468,-0.001,3.493,2.463,0.060,1.568,-0.019,87.462,7.385,-2.305,-0.036,2.445,161.159,"-0.537
"
23.720,0.003,3.499,2.486,0.072,1.570,-0.026,87.459,7.309,-2.365,-0.062,2.470,161.768,"-0.514
"
23.972,0.006,3.502,2.506,0.059,1.570,-0.029,87.458,7.271,-2.440,-0.074,2.492,162.351,"-0.494
"
24.224,0.006,3.496,2.522,0.071,1.573,-0.028,87.459,7.326,-2.711,-0.081,2.510,162.911,"-0.478
"
24.476,0.002,3.488,2.534,0.055,1.575,-0.031,87.461,7.512,-3.024,-0.084,2.525,163.452,"-0.466
"
24.728,-0.004,3.474,2.547,0.067,1.576,-0.030,87.464,7.675,-3.365,-0.108,2.538,163.978,"-0.453
"
24.980,-0.013,3.459,2.553,0.053,1.578,-0.024,87.468,7.858,-3.561,-0.132,2.548,164.491,"-0.447
"
25.233,-0.022,3.442,2.552,0.054,1.581,-0.016,87.477,7.958,-3.901,-0.160,2.552,165.030,"-0.448
"
25.485,-0.028,3.429,2.548,0.053,1.581,-0.015,87.488,8.098,-4.288,-0.176,2.550,165.534,"-0.452
"
25.737,-0.033,3.420,2.544,0.042,1.581,-0.021,87.500,8.048,-4.121,-0.177,2.546,166.042,"-0.456
"
25.989,-0.035,3.415,2.541,0.055,1.583,-0.017,87.512,7.983,-4.082,-0.192,2.543,166.553,"-0.459
"
26.241,-0.036,3.411,2.538,0.064,1.581,-0.024,87.523,8.022,-4.129,-0.177,2.540,167.068,"-0.462
"
26.493,-0.036,3.404,2.532,0.066,1.582,-0.016,87.536,7.960,-4.355,-0.184,2.535,167.588,"-0.468
"
26.745,-0.035,3.395,2.523,0.056,1.582,-0.020,87.550,7.917,-4.483,-0.191,2.528,168.113,"-0.477
"
26.998,-0.033,3.385,2.515,0.053,1.583,-0.023,87.566,7.867,-4.673,-0.193,2.520,168.648,"-0.485
"
27.250,-0.032,3.378,2.508,0.053,1.580,-0.025,87.580,7.871,-4.676,-0.179,2.513,169.191,"-0.492
"
27.502,-0.031,3.375,2.503,0.049,1.579,-0.024,87.595,7.881,-4.609,-0.150,2.506,169.742,"-0.497
"
27.754,-0.032,3.376,2.501,0.053,1.576,-0.023,87.608,7.943,-4.492,-0.139,2.503,170.299,"-0.499
"
28.007,-0.034,3.381,2.504,0.046,1.576,-0.027,87.619,8.028,-4.306,-0.121,2.502,170.858,"-0.496
"
28.259,-0.038,3.388,2.513,0.058,1.575,-0.019,87.627,8.088,-4.130,-0.102,2.508,171.415,"-0.487
"
28.511,-0.042,3.398,2.527,0.058,1.573,-0.023,87.632,8.164,-3.953,-0.098,2.517,171.963,"-0.473
"
28.766,-0.046,3.406,2.543,0.062,1.573,-0.022,87.634,8.283,-3.802,-0.081,2.532,172.497,"-0.457
"
29.017,-0.051,3.411,2.560,0.064,1.568,-0.023,87.635,8.399,-3.733,-0.064,2.548,173.013,"-0.440
"
29.269,-0.055,3.413,2.583,0.060,1.569,-0.020,87.633,8.504,-3.781,-0.032,2.568,173.510,"-0.417
"
29.521,-0.059,3.417,2.605,0.052,1.566,-0.014,87.630,8.498,-3.689,-0.009,2.590,173.983,"-0.395
"
29.773,-0.060,3.424,2.626,0.047,1.560,-0.021,87.627,8.464,-3.440,0.031,2.611,174.432,"-0.374
"
30.026,-0.061,3.433,2.645,0.062,1.557,-0.022,87.624,8.476,-3.221,0.078,2.632,174.857,"-0.355
"
30.278,-0.059,3.444,2.659,0.061,1.552,-0.024,87.622,8.357,-2.957,0.128,2.650,175.287,"-0.341
"
30.530,-0.059,3.451,2.672,0.071,1.550,-0.025,87.621,8.397,-2.955,0.171,2.664,175.672,"-0.328
"
30.782,-0.059,3.452,2.681,0.068,1.549,-0.022,87.623,8.448,-3.063,0.205,2.674,176.043,"-0.319
"
31.032,-0.060,3.449,2.692,0.060,1.548,-0.022,87.624,8.476,-3.225,0.201,2.685,176.403,"-0.308
"
31.284,-0.062,3.444,2.704,0.054,1.547,-0.029,87.624,8.528,-3.355,0.210,2.696,176.751,"-0.296
"
31.536,-0.063,3.441,2.719,0.057,1.546,-0.027,87.623,8.567,-3.334,0.216,2.709,177.085,"-0.281
"
31.788,-0.063,3.438,2.735,0.061,1.548,-0.017,87.621,8.540,-3.362,0.234,2.725,177.403,"-0.265
"
32.040,-0.062,3.436,2.752,0.061,1.544,-0.021,87.617,8.474,-3.391,0.241,2.741,177.703,"-0.248
"
32.292,-0.059,3.433,2.767,0.055,1.543,-0.027,87.614,8.392,-3.398,0.249,2.757,177.985,"-0.233
"
32.544,-0.055,3.433,2.780,0.052,1.544,-0.027,87.611,8.295,-3.379,0.242,2.771,178.250,"-0.220
"
32.797,-0.052,3.435,2.790,0.056,1.542,-0.027,87.609,8.240,-3.267,0.244,2.783,178.501,"-0.210
"
33.049,-0.049,3.437,2.800,0.065,1.543,-0.024,87.608,8.245,-3.218,0.244,2.794,178.738,"-0.200
"
33.302,-0.050,3.439,2.809,0.059,1.546,-0.028,87.607,8.281,-3.257,0.243,2.804,178.964,"-0.191
"
33.553,-0.050,3.439,2.812,0.056,1.545,-0.025,87.607,8.335,-3.268,0.231,2.809,179.181,"-0.188
"
33.806,-0.052,3.442,2.812,0.054,1.546,-0.023,87.610,8.388,-3.173,0.233,2.812,179.394,"-0.188
"
34.058,-0.051,3.446,2.808,0.056,1.545,-0.018,87.615,8.280,-3.048,0.239,2.810,179.606,"-0.192
"
34.310,-0.047,3.451,2.800,0.068,1.546,-0.017,87.623,8.176,-2.974,0.236,2.805,179.821,"-0.200
"
34.562,-0.038,3.453,2.786,0.066,1.546,-0.017,87.633,7.855,-2.993,0.235,2.795,180.045,"-0.214
"
34.814,-0.023,3.449,2.765,0.071,1.548,-0.017,87.646,7.414,-3.270,0.206,2.779,180.284,"-0.235
"
35.065,-0.006,3.441,2.740,0.061,1.549,-0.033,87.664,7.067,-3.537,0.190,2.757,180.545,"-0.260
"
35.318,0.010,3.430,2.706,0.060,1.554,-0.032,87.685,6.843,-3.863,0.148,2.729,180.833,"-0.294
"
35.570,0.018,3.421,2.672,0.051,1.558,-0.037,87.710,6.937,-3.960,0.115,2.696,181.155,"-0.328
"
35.822,0.021,3.413,2.631,0.053,1.562,-0.032,87.740,7.085,-4.081,0.074,2.657,181.542,"-0.369
"
36.074,0.017,3.407,2.590,0.056,1.566,-0.034,87.770,7.316,-4.112,0.030,2.618,181.949,"-0.410
"
36.326,0.008,3.405,2.547,0.053,1.569,-0.033,87.803,7.503,-4.080,-0.015,2.575,182.403,"-0.453
"
36.578,-0.005,3.402,2.501,0.055,1.574,-0.026,87.838,7.835,-4.128,-0.062,2.530,182.905,"-0.499
"
36.830,-0.022,3.400,2.458,0.069,1.576,-0.023,87.874,8.256,-4.256,-0.100,2.486,183.458,"-0.542
"
37.082,-0.036,3.394,2.414,0.071,1.577,-0.015,87.910,8.365,-4.398,-0.130,2.443,184.059,"-0.586
"
37.334,-0.047,3.385,2.370,0.056,1.580,-0.020,87.947,8.407,-4.651,-0.144,2.399,184.709,"-0.630
"
37.586,-0.053,3.374,2.324,0.061,1.579,-0.015,87.986,8.460,-4.978,-0.171,2.355,185.408,"-0.676
"
37.839,-0.054,3.365,2.276,0.046,1.580,-0.012,88.028,8.250,-4.997,-0.168,2.308,186.159,"-0.724
"
38.091,-0.048,3.359,2.225,0.052,1.579,-0.012,88.071,7.946,-4.994,-0.163,2.259,186.964,"-0.775
"
38.342,-0.036,3.359,2.176,0.046,1.582,-0.013,88.115,7.608,-4.827,-0.165,2.210,187.824,"-0.824
"
38.595,-0.020,3.361,2.132,0.059,1.580,-0.018,88.160,7.292,-4.729,-0.165,2.163,188.738,"-0.868
"
38.847,-0.003,3.364,2.091,0.060,1.574,-0.028,88.203,6.945,-4.605,-0.140,2.120,189.703,"-0.909
"
39.099,0.014,3.363,2.054,0.065,1.575,-0.028,88.245,6.430,-4.744,-0.115,2.081,190.713,"-0.946
"
39.351,0.026,3.358,2.017,0.060,1.577,-0.036,88.287,6.658,-4.964,-0.106,2.043,191.767,"-0.983
"
39.603,0.032,3.346,1.988,0.061,1.576,-0.031,88.328,6.704,-5.328,-0.127,2.009,192.862,"-1.012
"
39.856,0.033,3.333,1.961,0.057,1.575,-0.028,88.366,6.861,-5.594,-0.109,1.980,193.991,"-1.039
"
40.108,0.031,3.320,1.942,0.045,1.576,-0.026,88.402,6.960,-5.745,-0.117,1.956,195.151,"-1.058
"
40.360,0.030,3.310,1.928,0.044,1.577,-0.020,88.436,6.992,-5.921,-0.130,1.938,196.334,"-1.072
"
40.612,0.029,3.307,1.916,0.035,1.577,-0.022,88.467,6.961,-5.655,-0.124,1.924,197.535,"-1.084
"
40.864,0.031,3.310,1.915,0.054,1.574,-0.025,88.494,6.861,-5.457,-0.110,1.917,198.749,"-1.085
"
41.116,0.035,3.320,1.914,0.041,1.577,-0.026,88.520,6.782,-5.152,-0.110,1.914,199.966,"-1.086
"
41.368,0.040,3.333,1.916,0.046,1.576,-0.026,88.545,6.676,-4.824,-0.116,1.915,201.267,"-1.084
"
41.620,0.044,3.349,1.918,0.055,1.577,-0.029,88.568,6.586,-4.504,-0.130,1.917,202.485,"-1.082
"
41.872,0.048,3.362,1.923,0.066,1.577,-0.034,88.589,6.555,-4.241,-0.132,1.920,203.700,"-1.077
"
42.124,0.048,3.367,1.928,0.071,1.578,-0.035,88.610,6.620,-4.486,-0.139,1.925,204.910,"-1.072
"
42.376,0.048,3.364,1.932,0.065,1.578,-0.028,88.631,6.694,-4.754,-0.146,1.929,206.114,"-1.068
"
42.631,0.046,3.356,1.936,0.062,1.582,-0.021,88.652,6.696,-5.092,-0.173,1.934,207.314,"-1.064
"
42.884,0.046,3.346,1.935,0.045,1.583,-0.019,88.675,6.636,-5.273,-0.193,1.935,208.511,"-1.065
"
43.135,0.048,3.338,1.933,0.050,1.582,-0.024,88.699,6.583,-5.447,-0.205,1.934,209.708,"-1.067
"
43.388,0.051,3.335,1.925,0.048,1.581,-0.027,88.725,6.495,-5.287,-0.183,1.930,210.907,"-1.075
"
43.640,0.053,3.335,1.917,0.048,1.580,-0.032,88.753,6.482,-5.178,-0.171,1.922,212.113,"-1.083
"
43.892,0.054,3.338,1.905,0.055,1.580,-0.029,88.782,6.482,-5.074,-0.156,1.912,213.328,"-1.095
"
44.144,0.054,3.342,1.892,0.055,1.578,-0.032,88.812,6.585,-4.887,-0.162,1.901,214.556,"-1.108
"
44.396,0.054,3.344,1.878,0.059,1.586,-0.016,88.844,6.488,-5.011,-0.198,1.888,215.798,"-1.122
"
44.648,0.057,3.346,1.859,0.059,1.588,-0.014,88.878,6.403,-5.012,-0.246,1.871,217.056,"-1.141
"
44.948,0.062,3.345,1.840,0.060,1.582,-0.028,88.919,6.239,-5.082,-0.208,1.851,218.591,"-1.160
"
45.200,0.066,3.341,1.825,0.058,1.584,-0.026,88.954,6.210,-5.217,-0.213,1.835,219.891,"-1.175
"
45.453,0.067,3.335,1.816,0.054,1.583,-0.037,88.987,6.279,-5.370,-0.208,1.822,221.207,"-1.184
"
45.705,0.063,3.329,1.811,0.056,1.582,-0.039,89.019,6.547,-5.451,-0.199,1.814,222.623,"-1.189
"
45.956,0.055,3.323,1.811,0.056,1.585,-0.031,89.047,6.821,-5.624,-0.209,1.811,223.956,"-1.189
"
46.209,0.045,3.314,1.815,0.066,1.585,-0.024,89.072,7.013,-5.887,-0.230,1.813,225.291,"-1.185
"
46.460,0.036,3.305,1.824,0.055,1.589,-0.023,89.095,6.997,-5.967,-0.245,1.819,226.621,"-1.176
"
46.713,0.027,3.295,1.838,0.051,1.592,-0.019,89.114,7.147,-6.210,-0.288,1.830,227.942,"-1.162
"
46.965,0.020,3.289,1.854,0.045,1.586,-0.031,89.132,7.209,-6.127,-0.269,1.844,229.249,"-1.146
"
47.217,0.013,3.285,1.874,0.055,1.584,-0.036,89.147,7.335,-6.088,-0.222,1.861,230.538,"-1.126
"
47.469,0.006,3.283,1.893,0.054,1.591,-0.023,89.161,7.382,-6.159,-0.262,1.881,231.806,"-1.107
"
47.721,0.000,3.282,1.912,0.043,1.593,-0.020,89.174,7.382,-6.157,-0.300,1.899,233.053,"-1.088
"
47.974,-0.004,3.283,1.936,0.056,1.593,-0.018,89.186,7.453,-6.033,-0.296,1.922,234.276,"-1.064
"
48.226,-0.006,3.288,1.960,0.049,1.591,-0.014,89.196,7.462,-5.848,-0.291,1.944,235.475,"-1.040
"
48.478,-0.004,3.294,1.981,0.056,1.590,-0.012,89.207,7.344,-5.795,-0.288,1.966,236.648,"-1.019
"
48.730,0.001,3.301,1.999,0.050,1.588,-0.016,89.218,7.196,-5.608,-0.266,1.987,237.797,"-1.001
"
48.982,0.008,3.310,2.018,0.055,1.587,-0.024,89.229,7.007,-5.371,-0.247,2.006,238.924,"-0.982
"
49.234,0.014,3.318,2.030,0.062,1.589,-0.021,89.242,6.911,-5.221,-0.242,2.021,240.031,"-0.970
"
49.486,0.017,3.324,2.041,0.060,1.586,-0.026,89.256,6.989,-5.215,-0.238,2.033,241.124,"-0.959
"
49.738,0.017,3.324,2.050,0.070,1.587,-0.024,89.271,7.082,-5.380,-0.233,2.044,242.203,"-0.950
"
49.991,0.015,3.320,2.055,0.055,1.585,-0.021,89.289,7.178,-5.570,-0.222,2.051,243.273,"-0.945
"
50.242,0.011,3.312,2.056,0.051,1.581,-0.028,89.307,7.334,-5.775,-0.197,2.055,244.336,"-0.944
"
50.494,0.005,3.304,2.055,0.052,1.583,-0.018,89.327,7.540,-6.095,-0.202,2.055,245.397,"-0.945
"
50.746,-0.001,3.299,2.051,0.045,1.583,-0.018,89.349,7.656,-6.005,-0.201,2.054,246.459,"-0.949
"
50.998,-0.005,3.298,2.048,0.044,1.581,-0.015,89.372,7.635,-5.796,-0.184,2.050,247.524,"-0.952
"
51.250,-0.009,3.301,2.052,0.057,1.582,-0.020,89.393,7.629,-5.632,-0.175,2.050,248.591,"-0.948
"
51.502,-0.011,3.303,2.058,0.067,1.578,-0.021,89.412,7.625,-5.592,-0.158,2.055,249.726,"-0.942
"
51.754,-0.011,3.303,2.073,0.056,1.578,-0.016,89.427,7.575,-5.710,-0.153,2.064,250.783,"-0.927
"
52.006,-0.010,3.299,2.092,0.055,1.576,-0.023,89.439,7.540,-5.810,-0.135,2.081,251.825,"-0.908
"
52.258,-0.010,3.299,2.117,0.044,1.578,-0.027,89.447,7.556,-5.742,-0.126,2.101,252.846,"-0.883
"
52.510,-0.011,3.301,2.147,0.052,1.573,-0.027,89.451,7.702,-5.516,-0.102,2.129,253.841,"-0.853
"
52.763,-0.015,3.304,2.181,0.063,1.571,-0.022,89.452,7.749,-5.510,-0.081,2.160,254.802,"-0.819
"
53.015,-0.018,3.308,2.220,0.050,1.573,-0.018,89.450,7.803,-5.481,-0.084,2.195,255.726,"-0.780
"
53.267,-0.021,3.313,2.262,0.050,1.568,-0.025,89.445,7.885,-5.315,-0.040,2.235,256.607,"-0.738
"
53.519,-0.024,3.317,2.309,0.063,1.571,-0.018,89.436,7.928,-5.259,-0.040,2.278,257.443,"-0.691
"
53.771,-0.027,3.322,2.360,0.063,1.568,-0.017,89.424,7.903,-5.192,-0.037,2.327,258.226,"-0.640
"
54.024,-0.027,3.325,2.412,0.056,1.568,-0.012,89.410,7.897,-5.177,-0.038,2.378,258.954,"-0.588
"
54.276,-0.026,3.328,2.467,0.054,1.569,-0.016,89.393,7.819,-5.143,-0.037,2.430,259.623,"-0.533
"
54.528,-0.021,3.334,2.521,0.049,1.571,-0.017,89.375,7.666,-4.982,-0.043,2.483,260.233,"-0.479
"
54.780,-0.016,3.342,2.579,0.058,1.571,-0.019,89.354,7.547,-4.834,-0.046,2.539,260.782,"-0.421
"
55.032,-0.011,3.349,2.639,0.064,1.569,-0.019,89.331,7.476,-4.676,-0.037,2.598,261.268,"-0.361
"
55.285,-0.006,3.355,2.703,0.057,1.571,-0.017,89.304,7.426,-4.638,-0.037,2.660,261.685,"-0.297
"
55.537,-0.001,3.358,2.766,0.066,1.569,-0.019,89.274,7.303,-4.646,-0.040,2.723,262.032,"-0.234
"
55.790,0.004,3.360,2.834,0.060,1.571,-0.018,89.243,7.219,-4.707,-0.030,2.789,262.306,"-0.166
"
56.042,0.008,3.359,2.900,0.058,1.569,-0.023,89.210,7.219,-4.770,-0.031,2.854,262.507,"-0.100
"
56.294,0.009,3.358,2.962,0.059,1.569,-0.024,89.175,7.275,-4.743,-0.032,2.920,262.634,"-0.038
"
56.546,0.008,3.356,3.025,0.062,1.566,-0.027,89.141,7.383,-4.803,-0.013,2.982,262.689,"0.025
"
56.798,0.005,3.353,3.087,0.059,1.565,-0.023,89.105,7.449,-4.859,-0.007,3.044,262.674,"0.087
"
57.050,0.002,3.347,3.159,0.064,1.567,-0.023,89.064,7.495,-5.069,-0.019,3.114,262.580,"0.159
"
57.303,-0.000,3.339,3.229,0.066,1.567,-0.020,89.022,7.513,-5.326,-0.023,3.183,262.413,"0.229
"
57.555,-0.003,3.328,3.297,0.054,1.566,-0.024,88.978,7.593,-5.425,-0.009,3.252,262.169,"0.297
"
57.808,-0.007,3.318,3.369,0.053,1.568,-0.021,88.932,7.679,-5.600,-0.003,3.322,261.846,"0.369
"
58.060,-0.012,3.312,3.441,0.048,1.567,-0.019,88.883,7.767,-5.597,-0.021,3.394,261.444,"0.441
"
58.312,-0.016,3.311,3.512,0.052,1.569,-0.010,88.833,7.765,-5.515,-0.025,3.466,260.961,"0.512
"
58.564,-0.017,3.316,3.576,0.046,1.570,-0.008,88.784,7.742,-5.292,-0.031,3.533,260.399,"0.576
"
58.817,-0.016,3.326,3.637,0.048,1.566,-0.019,88.736,7.678,-4.986,-0.014,3.597,259.764,"0.637
"
59.070,-0.011,3.339,3.693,0.066,1.567,-0.011,88.689,7.540,-4.762,-0.010,3.656,259.060,"0.693
"
59.322,-0.005,3.351,3.745,0.061,1.565,-0.015,88.643,7.360,-4.568,-0.001,3.710,258.293,"0.745
"
59.574,0.005,3.358,3.796,0.069,1.562,-0.015,88.598,7.213,-4.530,0.011,3.762,257.466,"0.796
"
59.826,0.016,3.362,3.838,0.057,1.561,-0.020,88.554,6.982,-4.534,0.039,3.809,256.583,"0.838
"
60.078,0.025,3.364,3.873,0.059,1.557,-0.029,88.513,6.888,-4.555,0.070,3.849,255.652,"0.873
"
60.331,0.031,3.366,3.898,0.059,1.557,-0.029,88.477,6.925,-4.496,0.095,3.880,254.680,"0.898
"
60.583,0.031,3.367,3.916,0.065,1.555,-0.028,88.444,6.993,-4.495,0.100,3.903,253.679,"0.916
"
60.836,0.027,3.366,3.925,0.060,1.557,-0.024,88.415,7.145,-4.539,0.103,3.918,252.655,"0.925
"
61.088,0.020,3.366,3.929,0.054,1.558,-0.025,88.391,7.323,-4.556,0.099,3.926,251.620,"0.929
"
61.340,0.011,3.366,3.927,0.062,1.558,-0.022,88.369,7.577,-4.522,0.105,3.928,250.578,"0.927
"
61.593,-0.001,3.368,3.916,0.060,1.558,-0.026,88.352,7.790,-4.459,0.088,3.923,249.539,"0.916
"
61.845,-0.014,3.366,3.902,0.068,1.562,-0.016,88.338,7.968,-4.597,0.058,3.911,248.508,"0.902
"
62.097,-0.025,3.361,3.884,0.064,1.564,-0.014,88.327,8.106,-4.761,0.017,3.896,247.493,"0.884
"
62.350,-0.032,3.354,3.860,0.053,1.569,-0.011,88.319,8.090,-4.950,-0.023,3.875,246.498,"0.860
"
62.602,-0.032,3.348,3.838,0.057,1.573,-0.005,88.312,7.929,-5.071,-0.057,3.852,245.464,"0.838
"
62.854,-0.025,3.344,3.815,0.054,1.578,-0.004,88.306,7.654,-5.119,-0.107,3.830,244.519,"0.815
"
63.105,-0.013,3.340,3.790,0.060,1.579,-0.011,88.302,7.312,-5.170,-0.146,3.806,243.601,"0.790
"
63.358,0.003,3.341,3.763,0.042,1.583,-0.013,88.299,6.865,-5.117,-0.174,3.780,242.710,"0.763
"
63.610,0.022,3.341,3.738,0.065,1.584,-0.015,88.297,6.576,-5.091,-0.202,3.755,241.848,"0.738
"
63.862,0.040,3.344,3.709,0.059,1.587,-0.024,88.296,6.311,-5.034,-0.226,3.728,241.015,"0.709
"
64.115,0.057,3.340,3.682,0.075,1.591,-0.023,88.296,6.050,-5.300,-0.267,3.700,240.214,"0.682
"
64.367,0.069,3.331,3.653,0.063,1.592,-0.033,88.297,5.980,-5.493,-0.297,3.672,239.444,"0.653
"
64.619,0.073,3.317,3.621,0.062,1.599,-0.027,88.299,6.015,-5.875,-0.344,3.642,238.706,"0.621
"
64.872,0.071,3.301,3.588,0.057,1.601,-0.021,88.303,6.189,-6.204,-0.385,3.610,238.003,"0.588
"
65.124,0.064,3.285,3.551,0.050,1.604,-0.024,88.310,6.376,-6.462,-0.411,3.575,237.337,"0.551
"
65.376,0.055,3.270,3.507,0.052,1.607,-0.022,88.320,6.545,-6.695,-0.451,3.536,236.712,"0.507
"
65.628,0.043,3.262,3.456,0.038,1.609,-0.019,88.334,6.794,-6.755,-0.481,3.491,236.134,"0.456
"
65.881,0.032,3.262,3.398,0.039,1.612,-0.022,88.354,6.983,-6.543,-0.518,3.439,235.611,"0.398
"
66.133,0.021,3.270,3.330,0.047,1.612,-0.018,88.379,7.090,-6.269,-0.532,3.377,235.152,"0.330
"
66.385,0.015,3.282,3.253,0.053,1.614,-0.011,88.412,7.115,-6.002,-0.554,3.306,234.768,"0.253
"
66.638,0.012,3.293,3.171,0.070,1.621,-0.009,88.450,7.000,-5.929,-0.587,3.228,234.467,"0.171
"
66.890,0.014,3.297,3.086,0.068,1.621,-0.018,88.493,6.838,-6.020,-0.638,3.145,234.256,"0.086
"
67.142,0.015,3.287,2.994,0.082,1.625,-0.038,88.540,6.768,-6.524,-0.654,3.058,234.142,"-0.006
"
67.442,-0.038,3.231,2.886,0.163,1.633,-0.151,88.602,8.492,-8.319,-0.725,2.949,234.136,"-0.114
"
67.694,-0.121,3.132,2.799,0.150,1.660,0.012,88.653,10.103,-11.371,-0.954,2.861,234.243,"-0.201
"
67.947,-0.221,2.985,2.711,0.112,1.675,0.038,88.707,11.496,-14.903,-1.167,2.774,234.448,"-0.289
"
68.199,-0.295,2.797,2.603,0.076,1.687,0.043,88.768,11.646,-19.634,-1.330,2.677,234.775,"-0.397
"
68.452,-0.349,2.623,2.408,-0.027,1.686,-0.019,88.856,11.916,-22.794,-1.367,2.536,235.210,"-0.592
"
68.704,-0.398,2.472,2.147,-0.001,1.691,-0.047,88.995,12.650,-23.425,-1.401,2.314,235.851,"-0.853
"
68.956,-0.437,2.365,1.949,0.014,1.693,0.041,89.142,13.205,-22.472,-1.449,2.085,236.754,"-1.051
"
69.208,-0.459,2.293,1.845,0.006,1.690,0.027,89.255,12.886,-20.595,-1.443,1.923,237.880,"-1.155
"
69.460,-0.458,2.253,1.818,0.015,1.691,-0.012,89.323,12.381,-19.334,-1.428,1.847,239.139,"-1.182
"
69.712,-0.443,2.231,1.777,0.023,1.684,-0.006,89.371,12.000,-18.719,-1.407,1.807,240.457,"-1.223
"
69.964,-0.423,2.230,1.708,0.026,1.644,0.002,89.428,12.388,-17.691,-1.133,1.754,241.825,"-1.292
"
70.217,-0.404,2.246,1.611,0.016,1.592,-0.041,89.501,12.804,-16.368,-0.602,1.675,243.266,"-1.389
"
70.469,-0.382,2.278,1.489,0.018,1.543,-0.012,89.590,13.272,-15.466,-0.017,1.570,244.810,"-1.511
"
70.721,-0.362,2.334,1.339,0.006,1.538,-0.008,89.698,13.112,-14.856,0.262,1.438,246.488,"-1.661
"
70.974,-0.333,2.412,1.160,0.024,1.547,-0.011,89.822,12.456,-14.668,0.263,1.282,248.327,"-1.840
"
71.226,-0.300,2.501,0.978,0.058,1.576,0.002,89.962,11.178,-14.382,0.115,1.105,250.355,"-2.022
"
71.479,-0.275,2.559,0.860,0.174,1.560,-0.080,90.094,11.395,-15.141,0.034,0.947,252.577,"-2.140
"
71.731,-0.272,2.565,0.833,0.144,1.571,-0.056,90.189,11.591,-16.549,0.004,0.861,254.938,"-2.167
"
71.983,-0.281,2.514,0.869,0.085,1.582,0.008,90.242,11.789,-17.928,-0.140,0.852,257.352,"-2.131
"
72.236,-0.290,2.434,0.931,0.082,1.583,-0.024,90.266,11.980,-18.673,-0.224,0.892,259.745,"-2.069
"
72.488,-0.297,2.338,0.980,0.093,1.595,-0.026,90.281,11.758,-19.339,-0.268,0.946,262.082,"-2.020
"
72.740,-0.306,2.233,0.993,0.068,1.594,-0.016,90.306,11.996,-19.431,-0.313,0.981,264.366,"-2.007
"
72.994,-0.319,2.117,0.985,0.037,1.597,-0.016,90.347,12.223,-19.531,-0.332,0.987,266.629,"-2.015
"
73.246,-0.329,2.009,0.989,0.055,1.592,-0.025,90.391,12.494,-19.991,-0.303,0.986,268.891,"-2.011
"
73.498,-0.336,1.906,1.006,0.045,1.594,-0.014,90.432,12.408,-19.311,-0.287,0.997,271.298,"-1.994
"
73.751,-0.338,1.817,1.029,0.009,1.594,-0.027,90.466,12.365,-19.002,-0.333,1.015,273.538,"-1.971
"
74.003,-0.338,1.744,1.043,0.022,1.596,-0.033,90.498,12.294,-18.583,-0.342,1.035,275.756,"-1.957
"
74.256,-0.337,1.697,1.020,0.017,1.595,-0.025,90.542,12.249,-18.139,-0.332,1.033,277.961,"-1.980
"
74.508,-0.337,1.674,0.962,0.006,1.599,-0.027,90.605,12.222,-17.604,-0.323,0.998,280.186,"-2.038
"
74.760,-0.337,1.673,0.874,0.018,1.594,-0.025,90.688,12.340,-17.038,-0.356,0.930,282.470,"-2.126
"
75.012,-0.336,1.693,0.796,0.027,1.593,-0.018,90.781,12.317,-16.468,-0.321,0.847,284.842,"-2.204
"
75.265,-0.328,1.726,0.796,0.056,1.589,-0.009,90.855,12.100,-16.252,-0.299,0.801,287.292,"-2.204
"
75.517,-0.312,1.769,0.866,0.025,1.587,-0.017,90.888,11.656,-15.812,-0.268,0.828,289.753,"-2.134
"
75.770,-0.290,1.829,0.957,-0.003,1.591,-0.032,90.895,11.215,-15.454,-0.270,0.899,292.155,"-2.043
"
76.022,-0.270,1.917,1.060,0.001,1.582,-0.042,90.887,11.088,-14.850,-0.272,0.992,294.464,"-1.940
"
76.275,-0.254,2.037,1.168,0.001,1.586,-0.020,90.872,10.841,-14.165,-0.220,1.095,296.661,"-1.832
"
76.527,-0.236,2.184,1.247,0.030,1.582,-0.008,90.857,10.584,-13.075,-0.198,1.193,298.743,"-1.753
"
76.779,-0.213,2.326,1.245,0.100,1.577,-0.007,90.869,10.153,-13.173,-0.156,1.241,300.739,"-1.755
"
77.032,-0.184,2.462,1.168,0.043,1.577,-0.015,90.923,9.571,-13.423,-0.141,1.213,302.723,"-1.832
"
77.284,-0.143,2.597,1.043,0.045,1.582,-0.011,91.015,8.725,-13.786,-0.182,1.122,304.776,"-1.957
"
77.537,-0.096,2.729,0.916,0.042,1.582,-0.013,0.0,0.0,0.0,0.0,0.0,0.0,0.0
